{"context":{"earlier":"3|OB|MT#14#451615#451603#451715#451772#0#0#485#451576#1#0#192#0#0#-2147483648#1#2|PDH#bbe10b32f5270e429a5a473728022d1b|RD#18102023|RT#141653|US#0|RS#INIT","later":"3|OF|MT#14#451675#451675#451775#451775#0#0#485#451669#6#0#27#0#0#-2147483648#1#2|PDH#bbe10b32f5270e429a5a473728022d1b|RD#18102023|RT#141653|US#0|RS#INIT"},"routes":[{"checksum":"e2107a7c_3","cid":"C-0","date":"2023-10-17T22:00:00.000Z","duration":10140000,"changes":1,"isRideable":true,"arrival":{"platform":"4","scheduledTime":"2023-10-18T15:32:00.000Z","time":"2023-10-18T15:32:00.000Z","reihung":false},"departure":{"platform":"1","scheduledTime":"2023-10-18T12:43:00.000Z","time":"2023-10-18T12:43:00.000Z","reihung":false},"segments":[{"arrival":{"platform":"6","scheduledTime":"2023-10-18T14:21:00.000Z","time":"2023-10-18T14:21:00.000Z","reihung":false},"departure":{"platform":"1","scheduledTime":"2023-10-18T12:43:00.000Z","time":"2023-10-18T12:43:00.000Z","reihung":false},"duration":5880000,"train":{"name":"RE 7","line":"7","admin":"8006C5","number":"17020","type":"RE","operator":{"name":"DB Regio AG Baden-Württemberg","icoX":2}},"changeDuration":7,"segmentStart":{"name":"Freiburg(Breisgau) Hbf","evaNumber":"8000107"},"segmentDestination":{"name":"Karlsruhe Hbf","evaNumber":"8000191"},"stops":[{"station":{"evaNumber":"8000107","name":"Freiburg(Breisgau) Hbf","coordinates":{"lng":7.841344,"lat":47.997974},"ril100":"RF"},"departure":{"platform":"1","scheduledTime":"2023-10-18T12:43:00.000Z","time":"2023-10-18T12:43:00.000Z","reihung":false}},{"station":{"evaNumber":"8001415","name":"Denzlingen","coordinates":{"lng":7.881697,"lat":48.068648},"ril100":"RDZ"},"arrival":{"platform":"1","scheduledTime":"2023-10-18T12:48:00.000Z","time":"2023-10-18T12:48:00.000Z","reihung":false},"departure":{"platform":"1","scheduledTime":"2023-10-18T12:48:00.000Z","time":"2023-10-18T12:48:00.000Z","reihung":false}},{"station":{"evaNumber":"8001771","name":"Emmendingen","coordinates":{"lng":7.847924,"lat":48.119302},"ril100":"REMM"},"arrival":{"platform":"1","scheduledTime":"2023-10-18T12:52:00.000Z","time":"2023-10-18T12:52:00.000Z","reihung":false},"departure":{"platform":"1","scheduledTime":"2023-10-18T12:53:00.000Z","time":"2023-10-18T12:53:00.000Z","reihung":false}},{"station":{"evaNumber":"8005090","name":"Riegel-Malterdingen","coordinates":{"lng":7.770734,"lat":48.152059},"ril100":"RRL"},"arrival":{"platform":"2","scheduledTime":"2023-10-18T12:57:00.000Z","time":"2023-10-18T12:57:00.000Z","reihung":false},"departure":{"platform":"2","scheduledTime":"2023-10-18T12:58:00.000Z","time":"2023-10-18T12:58:00.000Z","reihung":false}},{"station":{"evaNumber":"8003233","name":"Kenzingen","coordinates":{"lng":7.764199,"lat":48.194452},"ril100":"RKN"},"arrival":{"platform":"2","scheduledTime":"2023-10-18T13:01:00.000Z","time":"2023-10-18T13:01:00.000Z","reihung":false},"departure":{"platform":"2","scheduledTime":"2023-10-18T13:01:00.000Z","time":"2023-10-18T13:01:00.000Z","reihung":false}},{"station":{"evaNumber":"8002763","name":"Herbolzheim(Breisg)","coordinates":{"lng":7.76784,"lat":48.223837},"ril100":"RHZ"},"arrival":{"platform":"2","scheduledTime":"2023-10-18T13:04:00.000Z","time":"2023-10-18T13:04:00.000Z","reihung":false},"departure":{"platform":"2","scheduledTime":"2023-10-18T13:05:00.000Z","time":"2023-10-18T13:05:00.000Z","reihung":false}},{"station":{"evaNumber":"8003494","name":"Lahr(Schwarzw)","coordinates":{"lng":7.835295,"lat":48.340571},"ril100":"RLSW"},"arrival":{"platform":"6","scheduledTime":"2023-10-18T13:12:00.000Z","time":"2023-10-18T13:12:00.000Z","reihung":false},"departure":{"platform":"6","scheduledTime":"2023-10-18T13:12:00.000Z","time":"2023-10-18T13:12:00.000Z","reihung":false}},{"station":{"evaNumber":"8000290","name":"Offenburg","coordinates":{"lng":7.94677,"lat":48.476506},"ril100":"RO"},"arrival":{"platform":"4","scheduledTime":"2023-10-18T13:30:00.000Z","time":"2023-10-18T13:30:00.000Z","reihung":false},"departure":{"platform":"4","scheduledTime":"2023-10-18T13:34:00.000Z","time":"2023-10-18T13:34:00.000Z","reihung":false}},{"station":{"evaNumber":"8000596","name":"Appenweier","coordinates":{"lng":7.973387,"lat":48.54193},"ril100":"RAP"},"arrival":{"platform":"1","scheduledTime":"2023-10-18T13:38:00.000Z","time":"2023-10-18T13:38:00.000Z","reihung":false},"departure":{"platform":"1","scheduledTime":"2023-10-18T13:39:00.000Z","time":"2023-10-18T13:39:00.000Z","reihung":false}},{"station":{"evaNumber":"8005037","name":"Renchen","coordinates":{"lng":8.007222,"lat":48.592728},"ril100":"RR"},"arrival":{"platform":"1","scheduledTime":"2023-10-18T13:42:00.000Z","time":"2023-10-18T13:42:00.000Z","reihung":false},"departure":{"platform":"1","scheduledTime":"2023-10-18T13:43:00.000Z","time":"2023-10-18T13:43:00.000Z","reihung":false}},{"station":{"evaNumber":"8000412","name":"Achern","coordinates":{"lng":8.065275,"lat":48.633997},"ril100":"RAH"},"arrival":{"platform":"2","scheduledTime":"2023-10-18T13:48:00.000Z","time":"2023-10-18T13:48:00.000Z","reihung":false},"departure":{"platform":"2","scheduledTime":"2023-10-18T13:49:00.000Z","time":"2023-10-18T13:49:00.000Z","reihung":false}},{"station":{"evaNumber":"8001252","name":"Bühl(Baden)","coordinates":{"lng":8.129314,"lat":48.696508},"ril100":"RBUE"},"arrival":{"platform":"1","scheduledTime":"2023-10-18T13:53:00.000Z","time":"2023-10-18T13:53:00.000Z","reihung":false},"departure":{"platform":"1","scheduledTime":"2023-10-18T13:54:00.000Z","time":"2023-10-18T13:54:00.000Z","reihung":false}},{"station":{"evaNumber":"8000774","name":"Baden-Baden","coordinates":{"lng":8.190773,"lat":48.790392},"ril100":"RBB"},"arrival":{"platform":"2","scheduledTime":"2023-10-18T14:00:00.000Z","time":"2023-10-18T14:00:00.000Z","reihung":false},"departure":{"platform":"2","scheduledTime":"2023-10-18T14:01:00.000Z","time":"2023-10-18T14:01:00.000Z","reihung":false}},{"station":{"evaNumber":"8000306","name":"Rastatt","coordinates":{"lng":8.215763,"lat":48.860597},"ril100":"RRA"},"arrival":{"platform":"4","scheduledTime":"2023-10-18T14:07:00.000Z","time":"2023-10-18T14:07:00.000Z","reihung":false},"departure":{"platform":"4","scheduledTime":"2023-10-18T14:08:00.000Z","time":"2023-10-18T14:08:00.000Z","reihung":false}},{"station":{"evaNumber":"8000191","name":"Karlsruhe Hbf","coordinates":{"lng":8.401939,"lat":48.99353},"ril100":"RK"},"arrival":{"platform":"6","scheduledTime":"2023-10-18T14:21:00.000Z","time":"2023-10-18T14:21:00.000Z","reihung":false}}],"finalDestination":"Karlsruhe Hbf","jid":"1|259364|0|80|18102023","messages":[{"type":"A","code":"FB","prio":260,"icoX":5,"txtN":"Fahrradmitnahme begrenzt möglich"},{"type":"A","code":"EH","prio":560,"icoX":6,"txtN":"Fahrzeuggebundene Einstiegshilfe vorhanden"}],"type":"JNY"},{"arrival":{"platform":"4","scheduledTime":"2023-10-18T15:32:00.000Z","time":"2023-10-18T15:32:00.000Z","reihung":false},"departure":{"platform":"2","scheduledTime":"2023-10-18T14:28:00.000Z","time":"2023-10-18T14:28:00.000Z","reihung":false},"duration":3840000,"train":{"name":"S 9","line":"9","admin":"801518","number":"38962","type":"S","operator":{"name":"DB Regio AG Mitte","icoX":8}},"segmentStart":{"name":"Karlsruhe Hbf","evaNumber":"8000191"},"segmentDestination":{"name":"Ludwigshafen(Rh)Hbf","evaNumber":"8000236"},"stops":[{"station":{"evaNumber":"8000191","name":"Karlsruhe Hbf","coordinates":{"lng":8.401939,"lat":48.99353},"ril100":"RK"},"departure":{"platform":"2","scheduledTime":"2023-10-18T14:28:00.000Z","time":"2023-10-18T14:28:00.000Z","reihung":false}},{"station":{"evaNumber":"8003185","name":"Karlsruhe-Hagsfeld","coordinates":{"lng":8.453312,"lat":49.024794},"ril100":"RKHA"},"arrival":{"platform":"2","scheduledTime":"2023-10-18T14:32:00.000Z","time":"2023-10-18T14:32:00.000Z","reihung":false},"departure":{"platform":"2","scheduledTime":"2023-10-18T14:32:00.000Z","time":"2023-10-18T14:32:00.000Z","reihung":false}},{"station":{"evaNumber":"8001009","name":"Blankenloch","coordinates":{"lng":8.464683,"lat":49.066351},"ril100":"RBAN"},"arrival":{"platform":"1","scheduledTime":"2023-10-18T14:35:00.000Z","time":"2023-10-18T14:35:00.000Z","reihung":false},"departure":{"platform":"1","scheduledTime":"2023-10-18T14:36:00.000Z","time":"2023-10-18T14:36:00.000Z","reihung":false}},{"station":{"evaNumber":"8002116","name":"Friedrichstal(Baden)","coordinates":{"lng":8.473996,"lat":49.100241}},"arrival":{"platform":"2","scheduledTime":"2023-10-18T14:38:00.000Z","time":"2023-10-18T14:38:00.000Z","reihung":false},"departure":{"platform":"2","scheduledTime":"2023-10-18T14:39:00.000Z","time":"2023-10-18T14:39:00.000Z","reihung":false}},{"station":{"evaNumber":"8000131","name":"Graben-Neudorf","coordinates":{"lng":8.490617,"lat":49.162284},"ril100":"RGN"},"arrival":{"platform":"2","scheduledTime":"2023-10-18T14:43:00.000Z","time":"2023-10-18T14:43:00.000Z","reihung":false},"departure":{"platform":"2","scheduledTime":"2023-10-18T14:44:00.000Z","time":"2023-10-18T14:44:00.000Z","reihung":false}},{"station":{"evaNumber":"8006417","name":"Wiesental","coordinates":{"lng":8.502465,"lat":49.22591},"ril100":"RWI"},"arrival":{"platform":"1","scheduledTime":"2023-10-18T14:49:00.000Z","time":"2023-10-18T14:49:00.000Z","reihung":false},"departure":{"platform":"1","scheduledTime":"2023-10-18T14:49:00.000Z","time":"2023-10-18T14:49:00.000Z","reihung":false}},{"station":{"evaNumber":"8006137","name":"Waghäusel","coordinates":{"lng":8.50811,"lat":49.248014},"ril100":"RWG"},"arrival":{"platform":"2","scheduledTime":"2023-10-18T14:51:00.000Z","time":"2023-10-18T14:51:00.000Z","reihung":false},"departure":{"platform":"2","scheduledTime":"2023-10-18T14:52:00.000Z","time":"2023-10-18T14:52:00.000Z","reihung":false}},{"station":{"evaNumber":"8004304","name":"Neulußheim","coordinates":{"lng":8.530161,"lat":49.291972},"ril100":"RNL"},"arrival":{"platform":"1","scheduledTime":"2023-10-18T14:55:00.000Z","time":"2023-10-18T14:55:00.000Z","reihung":false},"departure":{"platform":"1","scheduledTime":"2023-10-18T14:56:00.000Z","time":"2023-10-18T14:56:00.000Z","reihung":false}},{"station":{"evaNumber":"8002883","name":"Hockenheim","coordinates":{"lng":8.537154,"lat":49.317438},"ril100":"RHK"},"arrival":{"platform":"1","scheduledTime":"2023-10-18T14:58:00.000Z","time":"2023-10-18T14:58:00.000Z","reihung":false},"departure":{"platform":"1","scheduledTime":"2023-10-18T14:59:00.000Z","time":"2023-10-18T14:59:00.000Z","reihung":false}},{"station":{"evaNumber":"8004658","name":"Oftersheim","coordinates":{"lng":8.579206,"lat":49.373657},"ril100":"ROFH"},"arrival":{"platform":"1","scheduledTime":"2023-10-18T15:03:00.000Z","time":"2023-10-18T15:03:00.000Z","reihung":false},"departure":{"platform":"1","scheduledTime":"2023-10-18T15:03:00.000Z","time":"2023-10-18T15:03:00.000Z","reihung":false}},{"station":{"evaNumber":"8005494","name":"Schwetzingen","coordinates":{"lng":8.578712,"lat":49.383428},"ril100":"RSZ"},"arrival":{"platform":"2","scheduledTime":"2023-10-18T15:05:00.000Z","time":"2023-10-18T15:05:00.000Z","reihung":false},"departure":{"platform":"2","scheduledTime":"2023-10-18T15:05:00.000Z","time":"2023-10-18T15:05:00.000Z","reihung":false}},{"station":{"evaNumber":"8005493","name":"Schwetzingen-Hirschacker","coordinates":{"lng":8.556337,"lat":49.4068},"ril100":"RHKR"},"arrival":{"platform":"2","scheduledTime":"2023-10-18T15:09:00.000Z","time":"2023-10-18T15:09:00.000Z","reihung":false},"departure":{"platform":"2","scheduledTime":"2023-10-18T15:09:00.000Z","time":"2023-10-18T15:09:00.000Z","reihung":false}},{"station":{"evaNumber":"8003845","name":"Mannheim-Rheinau","coordinates":{"lng":8.534997,"lat":49.42405},"ril100":"RMA"},"arrival":{"platform":"1","scheduledTime":"2023-10-18T15:11:00.000Z","time":"2023-10-18T15:11:00.000Z","reihung":false},"departure":{"platform":"1","scheduledTime":"2023-10-18T15:12:00.000Z","time":"2023-10-18T15:12:00.000Z","reihung":false}},{"station":{"evaNumber":"8003844","name":"Mannheim-Neckarau","coordinates":{"lng":8.49477,"lat":49.45553},"ril100":"RMN"},"arrival":{"platform":"2","scheduledTime":"2023-10-18T15:15:00.000Z","time":"2023-10-18T15:15:00.000Z","reihung":false},"departure":{"platform":"2","scheduledTime":"2023-10-18T15:15:00.000Z","time":"2023-10-18T15:15:00.000Z","reihung":false}},{"station":{"evaNumber":"8000244","name":"Mannheim Hbf","coordinates":{"lng":8.469268,"lat":49.479181},"ril100":"RM"},"arrival":{"platform":"12","scheduledTime":"2023-10-18T15:22:00.000Z","time":"2023-10-18T15:22:00.000Z","reihung":false},"departure":{"platform":"12","scheduledTime":"2023-10-18T15:27:00.000Z","time":"2023-10-18T15:27:00.000Z","reihung":false}},{"station":{"evaNumber":"8003759","name":"Ludwigshafen(Rhein) Mitte","coordinates":{"lng":8.452215,"lat":49.478938},"ril100":"RLSM"},"arrival":{"platform":"2","scheduledTime":"2023-10-18T15:29:00.000Z","time":"2023-10-18T15:29:00.000Z","reihung":false},"departure":{"platform":"2","scheduledTime":"2023-10-18T15:29:00.000Z","time":"2023-10-18T15:29:00.000Z","reihung":false}},{"station":{"evaNumber":"8000236","name":"Ludwigshafen(Rh)Hbf","coordinates":{"lng":8.433769,"lat":49.477257},"ril100":"RL"},"arrival":{"platform":"4","scheduledTime":"2023-10-18T15:32:00.000Z","time":"2023-10-18T15:32:00.000Z","reihung":false}}],"finalDestination":"Ludwigshafen(Rh)Hbf","jid":"1|255138|0|80|18102023","messages":[{"type":"A","code":"FB","prio":260,"icoX":5,"txtN":"Fahrradmitnahme begrenzt möglich"},{"type":"A","code":"EH","prio":560,"icoX":6,"txtN":"Fahrzeuggebundene Einstiegshilfe vorhanden"},{"type":"A","code":"LS","prio":605,"icoX":6,"txtN":"Laptop-Steckdosen"},{"type":"A","code":"KL","prio":610,"icoX":6,"txtN":"Klimaanlage"}],"type":"JNY"}],"segmentTypes":["RE","S"]},{"checksum":"cadd0d1c_3","cid":"C-1","date":"2023-10-17T22:00:00.000Z","duration":6000000,"changes":1,"isRideable":true,"arrival":{"platform":"4","scheduledTime":"2023-10-18T14:35:00.000Z","time":"2023-10-18T14:35:00.000Z","reihung":false},"departure":{"platform":"1","scheduledTime":"2023-10-18T12:55:00.000Z","time":"2023-10-18T12:55:00.000Z","reihung":false},"segments":[{"arrival":{"platform":"2","scheduledTime":"2023-10-18T14:24:00.000Z","time":"2023-10-18T14:24:00.000Z","reihung":false},"departure":{"platform":"1","scheduledTime":"2023-10-18T12:55:00.000Z","time":"2023-10-18T12:55:00.000Z","reihung":false},"duration":5340000,"train":{"name":"ICE 276","line":"12","admin":"80","number":"276","type":"ICE","operator":{"name":"DB Fernverkehr AG","icoX":10}},"changeDuration":7,"segmentStart":{"name":"Freiburg(Breisgau) Hbf","evaNumber":"8000107"},"segmentDestination":{"name":"Mannheim Hbf","evaNumber":"8000244"},"stops":[{"station":{"evaNumber":"8000107","name":"Freiburg(Breisgau) Hbf","coordinates":{"lng":7.841344,"lat":47.997974},"ril100":"RF"},"departure":{"platform":"1","scheduledTime":"2023-10-18T12:55:00.000Z","time":"2023-10-18T12:55:00.000Z","reihung":false},"auslastung":{"first":2,"second":1}},{"station":{"evaNumber":"8000290","name":"Offenburg","coordinates":{"lng":7.94677,"lat":48.476506},"ril100":"RO"},"arrival":{"platform":"3","scheduledTime":"2023-10-18T13:26:00.000Z","time":"2023-10-18T13:26:00.000Z","reihung":false},"departure":{"platform":"3","scheduledTime":"2023-10-18T13:27:00.000Z","time":"2023-10-18T13:27:00.000Z","reihung":false},"auslastung":{"first":2,"second":1}},{"station":{"evaNumber":"8000191","name":"Karlsruhe Hbf","coordinates":{"lng":8.401939,"lat":48.99353},"ril100":"RK"},"arrival":{"platform":"3","scheduledTime":"2023-10-18T13:58:00.000Z","time":"2023-10-18T13:58:00.000Z","reihung":false},"departure":{"platform":"3","scheduledTime":"2023-10-18T14:00:00.000Z","time":"2023-10-18T14:00:00.000Z","reihung":false},"auslastung":{"first":2,"second":1}},{"station":{"evaNumber":"8000244","name":"Mannheim Hbf","coordinates":{"lng":8.469268,"lat":49.479181},"ril100":"RM"},"arrival":{"platform":"2","scheduledTime":"2023-10-18T14:24:00.000Z","time":"2023-10-18T14:24:00.000Z","reihung":false}}],"finalDestination":"Hamburg-Altona","jid":"1|204246|0|80|18102023","auslastung":{"first":2,"second":1},"messages":[{"type":"A","code":"CK","prio":200,"icoX":6,"txtN":"Sicher & kontaktlos ohne Ticketkontrolle reisen mit Komfort Check-in"},{"type":"A","code":"FR","prio":260,"icoX":11,"txtN":"Fahrradmitnahme reservierungspflichtig"},{"type":"A","code":"FB","prio":260,"icoX":5,"txtN":"Fahrradmitnahme begrenzt möglich"},{"type":"A","code":"BR","prio":450,"icoX":12,"txtN":"Bordrestaurant"},{"type":"A","code":"EH","prio":560,"icoX":6,"txtN":"Fahrzeuggebundene Einstiegshilfe vorhanden"}],"type":"JNY"},{"arrival":{"platform":"4","scheduledTime":"2023-10-18T14:35:00.000Z","time":"2023-10-18T14:35:00.000Z","reihung":false},"departure":{"platform":"1","scheduledTime":"2023-10-18T14:31:00.000Z","time":"2023-10-18T14:31:00.000Z","reihung":false},"duration":240000,"train":{"name":"S 3","line":"3","admin":"801539","number":"38342","type":"S","operator":{"name":"DB Regio AG Mitte","icoX":8}},"segmentStart":{"name":"Mannheim Hbf","evaNumber":"8000244"},"segmentDestination":{"name":"Ludwigshafen(Rh)Hbf","evaNumber":"8000236"},"stops":[{"station":{"evaNumber":"8000244","name":"Mannheim Hbf","coordinates":{"lng":8.469268,"lat":49.479181},"ril100":"RM"},"departure":{"platform":"1","scheduledTime":"2023-10-18T14:31:00.000Z","time":"2023-10-18T14:31:00.000Z","reihung":false}},{"station":{"evaNumber":"8003759","name":"Ludwigshafen(Rhein) Mitte","coordinates":{"lng":8.452215,"lat":49.478938},"ril100":"RLSM"},"arrival":{"platform":"1","scheduledTime":"2023-10-18T14:33:00.000Z","time":"2023-10-18T14:33:00.000Z","reihung":false},"departure":{"platform":"1","scheduledTime":"2023-10-18T14:33:00.000Z","time":"2023-10-18T14:33:00.000Z","reihung":false}},{"station":{"evaNumber":"8000236","name":"Ludwigshafen(Rh)Hbf","coordinates":{"lng":8.433769,"lat":49.477257},"ril100":"RL"},"arrival":{"platform":"4","scheduledTime":"2023-10-18T14:35:00.000Z","time":"2023-10-18T14:35:00.000Z","reihung":false}}],"finalDestination":"Schifferstadt","jid":"1|254232|0|80|18102023","messages":[{"type":"A","code":"FB","prio":260,"icoX":5,"txtN":"Fahrradmitnahme begrenzt möglich"},{"type":"A","code":"EH","prio":560,"icoX":6,"txtN":"Fahrzeuggebundene Einstiegshilfe vorhanden"}],"type":"JNY"}],"segmentTypes":["ICE","S"]},{"checksum":"0fe93efc_3","cid":"C-2","date":"2023-10-17T22:00:00.000Z","duration":11340000,"changes":2,"isRideable":true,"arrival":{"platform":"5","scheduledTime":"2023-10-18T16:09:00.000Z","time":"2023-10-18T16:09:00.000Z","reihung":false},"departure":{"platform":"2","scheduledTime":"2023-10-18T13:00:00.000Z","time":"2023-10-18T13:00:00.000Z","reihung":false},"segments":[{"arrival":{"platform":"3","scheduledTime":"2023-10-18T13:53:00.000Z","time":"2023-10-18T13:53:00.000Z","reihung":false},"departure":{"platform":"2","scheduledTime":"2023-10-18T13:00:00.000Z","time":"2023-10-18T13:00:00.000Z","reihung":false},"duration":3180000,"train":{"name":"RB 26","line":"26","admin":"8006C4","number":"17120","type":"RB","operator":{"name":"DB Regio AG Baden-Württemberg","icoX":2}},"changeDuration":9,"segmentStart":{"name":"Freiburg(Breisgau) Hbf","evaNumber":"8000107"},"segmentDestination":{"name":"Offenburg","evaNumber":"8000290"},"stops":[{"station":{"evaNumber":"8000107","name":"Freiburg(Breisgau) Hbf","coordinates":{"lng":7.841344,"lat":47.997974},"ril100":"RF"},"departure":{"platform":"2","scheduledTime":"2023-10-18T13:00:00.000Z","time":"2023-10-18T13:00:00.000Z","reihung":false}},{"station":{"evaNumber":"8002465","name":"Gundelfingen(Breisgau)","coordinates":{"lng":7.874317,"lat":48.044413},"ril100":"RGDN"},"arrival":{"platform":"1","scheduledTime":"2023-10-18T13:04:00.000Z","time":"2023-10-18T13:04:00.000Z","reihung":false},"departure":{"platform":"1","scheduledTime":"2023-10-18T13:04:00.000Z","time":"2023-10-18T13:04:00.000Z","reihung":false}},{"station":{"evaNumber":"8001415","name":"Denzlingen","coordinates":{"lng":7.881697,"lat":48.068648},"ril100":"RDZ"},"arrival":{"platform":"1","scheduledTime":"2023-10-18T13:06:00.000Z","time":"2023-10-18T13:06:00.000Z","reihung":false},"departure":{"platform":"1","scheduledTime":"2023-10-18T13:07:00.000Z","time":"2023-10-18T13:07:00.000Z","reihung":false}},{"station":{"evaNumber":"8001771","name":"Emmendingen","coordinates":{"lng":7.847924,"lat":48.119302},"ril100":"REMM"},"arrival":{"platform":"3","scheduledTime":"2023-10-18T13:11:00.000Z","time":"2023-10-18T13:11:00.000Z","reihung":false},"departure":{"platform":"3","scheduledTime":"2023-10-18T13:12:00.000Z","time":"2023-10-18T13:12:00.000Z","reihung":false}},{"station":{"evaNumber":"8005090","name":"Riegel-Malterdingen","coordinates":{"lng":7.770734,"lat":48.152059},"ril100":"RRL"},"arrival":{"platform":"2","scheduledTime":"2023-10-18T13:18:00.000Z","time":"2023-10-18T13:18:00.000Z","reihung":false},"departure":{"platform":"2","scheduledTime":"2023-10-18T13:18:00.000Z","time":"2023-10-18T13:18:00.000Z","reihung":false}},{"station":{"evaNumber":"8003233","name":"Kenzingen","coordinates":{"lng":7.764199,"lat":48.194452},"ril100":"RKN"},"arrival":{"platform":"2","scheduledTime":"2023-10-18T13:27:00.000Z","time":"2023-10-18T13:27:00.000Z","reihung":false},"departure":{"platform":"2","scheduledTime":"2023-10-18T13:27:00.000Z","time":"2023-10-18T13:27:00.000Z","reihung":false}},{"station":{"evaNumber":"8002763","name":"Herbolzheim(Breisg)","coordinates":{"lng":7.76784,"lat":48.223837},"ril100":"RHZ"},"arrival":{"platform":"2","scheduledTime":"2023-10-18T13:30:00.000Z","time":"2023-10-18T13:30:00.000Z","reihung":false},"departure":{"platform":"2","scheduledTime":"2023-10-18T13:30:00.000Z","time":"2023-10-18T13:30:00.000Z","reihung":false}},{"station":{"evaNumber":"8005101","name":"Ringsheim/Europa-Park","coordinates":{"lng":7.773197,"lat":48.248926},"ril100":"RRI"},"arrival":{"platform":"2","scheduledTime":"2023-10-18T13:33:00.000Z","time":"2023-10-18T13:33:00.000Z","reihung":false},"departure":{"platform":"2","scheduledTime":"2023-10-18T13:33:00.000Z","time":"2023-10-18T13:33:00.000Z","reihung":false}},{"station":{"evaNumber":"8004683","name":"Orschweier","coordinates":{"lng":7.790286,"lat":48.274195},"ril100":"RORW"},"arrival":{"platform":"2","scheduledTime":"2023-10-18T13:35:00.000Z","time":"2023-10-18T13:35:00.000Z","reihung":false},"departure":{"platform":"2","scheduledTime":"2023-10-18T13:36:00.000Z","time":"2023-10-18T13:36:00.000Z","reihung":false}},{"station":{"evaNumber":"8003494","name":"Lahr(Schwarzw)","coordinates":{"lng":7.835295,"lat":48.340571},"ril100":"RLSW"},"arrival":{"platform":"2","scheduledTime":"2023-10-18T13:40:00.000Z","time":"2023-10-18T13:40:00.000Z","reihung":false},"departure":{"platform":"2","scheduledTime":"2023-10-18T13:41:00.000Z","time":"2023-10-18T13:41:00.000Z","reihung":false}},{"station":{"evaNumber":"8002123","name":"Friesenheim(Baden)","coordinates":{"lng":7.863161,"lat":48.381553},"ril100":"RFH"},"arrival":{"platform":"2","scheduledTime":"2023-10-18T13:44:00.000Z","time":"2023-10-18T13:44:00.000Z","reihung":false},"departure":{"platform":"2","scheduledTime":"2023-10-18T13:45:00.000Z","time":"2023-10-18T13:45:00.000Z","reihung":false}},{"station":{"evaNumber":"8000290","name":"Offenburg","coordinates":{"lng":7.94677,"lat":48.476506},"ril100":"RO"},"arrival":{"platform":"3","scheduledTime":"2023-10-18T13:53:00.000Z","time":"2023-10-18T13:53:00.000Z","reihung":false}}],"finalDestination":"Offenburg","jid":"1|259573|0|80|18102023","messages":[{"type":"A","code":"FB","prio":260,"icoX":5,"txtN":"Fahrradmitnahme begrenzt möglich"},{"type":"A","code":"EH","prio":560,"icoX":6,"txtN":"Fahrzeuggebundene Einstiegshilfe vorhanden"}],"type":"JNY"},{"arrival":{"platform":"7","scheduledTime":"2023-10-18T14:49:00.000Z","time":"2023-10-18T14:49:00.000Z","reihung":false},"departure":{"platform":"6","scheduledTime":"2023-10-18T14:02:00.000Z","time":"2023-10-18T14:02:00.000Z","reihung":false},"duration":2820000,"train":{"name":"RE 2","line":"2","admin":"800647","number":"4726","type":"RE","operator":{"name":"DB Regio AG Baden-Württemberg","icoX":2}},"changeDuration":7,"segmentStart":{"name":"Offenburg","evaNumber":"8000290"},"segmentDestination":{"name":"Karlsruhe Hbf","evaNumber":"8000191"},"stops":[{"station":{"evaNumber":"8000290","name":"Offenburg","coordinates":{"lng":7.94677,"lat":48.476506},"ril100":"RO"},"departure":{"platform":"6","scheduledTime":"2023-10-18T14:02:00.000Z","time":"2023-10-18T14:02:00.000Z","reihung":false}},{"station":{"evaNumber":"8000596","name":"Appenweier","coordinates":{"lng":7.973387,"lat":48.54193},"ril100":"RAP"},"arrival":{"platform":"1","scheduledTime":"2023-10-18T14:06:00.000Z","time":"2023-10-18T14:06:00.000Z","reihung":false},"departure":{"platform":"1","scheduledTime":"2023-10-18T14:07:00.000Z","time":"2023-10-18T14:07:00.000Z","reihung":false}},{"station":{"evaNumber":"8005037","name":"Renchen","coordinates":{"lng":8.007222,"lat":48.592728},"ril100":"RR"},"arrival":{"platform":"1","scheduledTime":"2023-10-18T14:11:00.000Z","time":"2023-10-18T14:11:00.000Z","reihung":false},"departure":{"platform":"1","scheduledTime":"2023-10-18T14:11:00.000Z","time":"2023-10-18T14:11:00.000Z","reihung":false}},{"station":{"evaNumber":"8000412","name":"Achern","coordinates":{"lng":8.065275,"lat":48.633997},"ril100":"RAH"},"arrival":{"platform":"2","scheduledTime":"2023-10-18T14:15:00.000Z","time":"2023-10-18T14:15:00.000Z","reihung":false},"departure":{"platform":"2","scheduledTime":"2023-10-18T14:16:00.000Z","time":"2023-10-18T14:16:00.000Z","reihung":false}},{"station":{"evaNumber":"8001252","name":"Bühl(Baden)","coordinates":{"lng":8.129314,"lat":48.696508},"ril100":"RBUE"},"arrival":{"platform":"1","scheduledTime":"2023-10-18T14:20:00.000Z","time":"2023-10-18T14:20:00.000Z","reihung":false},"departure":{"platform":"1","scheduledTime":"2023-10-18T14:21:00.000Z","time":"2023-10-18T14:21:00.000Z","reihung":false}},{"station":{"evaNumber":"8000774","name":"Baden-Baden","coordinates":{"lng":8.190773,"lat":48.790392},"ril100":"RBB"},"arrival":{"platform":"2","scheduledTime":"2023-10-18T14:27:00.000Z","time":"2023-10-18T14:27:00.000Z","reihung":false},"departure":{"platform":"2","scheduledTime":"2023-10-18T14:28:00.000Z","time":"2023-10-18T14:28:00.000Z","reihung":false}},{"station":{"evaNumber":"8000306","name":"Rastatt","coordinates":{"lng":8.215763,"lat":48.860597},"ril100":"RRA"},"arrival":{"platform":"4","scheduledTime":"2023-10-18T14:34:00.000Z","time":"2023-10-18T14:34:00.000Z","reihung":false},"departure":{"platform":"4","scheduledTime":"2023-10-18T14:34:00.000Z","time":"2023-10-18T14:34:00.000Z","reihung":false}},{"station":{"evaNumber":"8000191","name":"Karlsruhe Hbf","coordinates":{"lng":8.401939,"lat":48.99353},"ril100":"RK"},"arrival":{"platform":"7","scheduledTime":"2023-10-18T14:49:00.000Z","time":"2023-10-18T14:49:00.000Z","reihung":false}}],"finalDestination":"Karlsruhe Hbf","jid":"1|262498|0|80|18102023","messages":[{"type":"A","code":"FB","prio":260,"icoX":5,"txtN":"Fahrradmitnahme begrenzt möglich"},{"type":"A","code":"EH","prio":560,"icoX":6,"txtN":"Fahrzeuggebundene Einstiegshilfe vorhanden"}],"type":"JNY"},{"arrival":{"platform":"5","scheduledTime":"2023-10-18T16:09:00.000Z","time":"2023-10-18T16:09:00.000Z","reihung":false},"departure":{"platform":"8","scheduledTime":"2023-10-18T14:56:00.000Z","time":"2023-10-18T14:56:00.000Z","reihung":false},"duration":4380000,"train":{"name":"S 3","line":"3","admin":"801539","number":"38350","type":"S","operator":{"name":"DB Regio AG Mitte","icoX":8}},"segmentStart":{"name":"Karlsruhe Hbf","evaNumber":"8000191"},"segmentDestination":{"name":"Ludwigshafen(Rh)Hbf","evaNumber":"8000236"},"stops":[{"station":{"evaNumber":"8000191","name":"Karlsruhe Hbf","coordinates":{"lng":8.401939,"lat":48.99353},"ril100":"RK"},"departure":{"platform":"8","scheduledTime":"2023-10-18T14:56:00.000Z","time":"2023-10-18T14:56:00.000Z","reihung":false}},{"station":{"evaNumber":"8003184","name":"Karlsruhe-Durlach","coordinates":{"lng":8.462292,"lat":49.002025},"ril100":"RKDU"},"arrival":{"platform":"5b","scheduledTime":"2023-10-18T15:00:00.000Z","time":"2023-10-18T15:00:00.000Z","reihung":false},"departure":{"platform":"5b","scheduledTime":"2023-10-18T15:00:00.000Z","time":"2023-10-18T15:00:00.000Z","reihung":false}},{"station":{"evaNumber":"8000055","name":"Bruchsal","coordinates":{"lng":8.589687,"lat":49.124592},"ril100":"RBR"},"arrival":{"platform":"3b","scheduledTime":"2023-10-18T15:10:00.000Z","time":"2023-10-18T15:10:00.000Z","reihung":false},"departure":{"platform":"3b","scheduledTime":"2023-10-18T15:11:00.000Z","time":"2023-10-18T15:11:00.000Z","reihung":false}},{"station":{"evaNumber":"8005931","name":"Ubstadt-Weiher","coordinates":{"lng":8.624017,"lat":49.167759},"ril100":"RUW"},"arrival":{"platform":"2","scheduledTime":"2023-10-18T15:14:00.000Z","time":"2023-10-18T15:14:00.000Z","reihung":false},"departure":{"platform":"2","scheduledTime":"2023-10-18T15:15:00.000Z","time":"2023-10-18T15:15:00.000Z","reihung":false}},{"station":{"evaNumber":"8005933","name":"Stettfeld-Weiher","coordinates":{"lng":8.637159,"lat":49.183975},"ril100":"RSFW"},"arrival":{"platform":"1","scheduledTime":"2023-10-18T15:17:00.000Z","time":"2023-10-18T15:17:00.000Z","reihung":false},"departure":{"platform":"1","scheduledTime":"2023-10-18T15:17:00.000Z","time":"2023-10-18T15:17:00.000Z","reihung":false}},{"station":{"evaNumber":"8003533","name":"Bad Schönborn Süd","coordinates":{"lng":8.641924,"lat":49.199994},"ril100":"RBS"},"arrival":{"platform":"1","scheduledTime":"2023-10-18T15:19:00.000Z","time":"2023-10-18T15:19:00.000Z","reihung":false},"departure":{"platform":"1","scheduledTime":"2023-10-18T15:19:00.000Z","time":"2023-10-18T15:19:00.000Z","reihung":false}},{"station":{"evaNumber":"8004032","name":"Bad Schönborn-Kronau","coordinates":{"lng":8.646886,"lat":49.219564}},"arrival":{"platform":"1","scheduledTime":"2023-10-18T15:21:00.000Z","time":"2023-10-18T15:21:00.000Z","reihung":false},"departure":{"platform":"1","scheduledTime":"2023-10-18T15:22:00.000Z","time":"2023-10-18T15:22:00.000Z","reihung":false}},{"station":{"evaNumber":"8005181","name":"Rot-Malsch","coordinates":{"lng":8.652216,"lat":49.243367},"ril100":"RRM"},"arrival":{"platform":"2","scheduledTime":"2023-10-18T15:24:00.000Z","time":"2023-10-18T15:24:00.000Z","reihung":false},"departure":{"platform":"2","scheduledTime":"2023-10-18T15:24:00.000Z","time":"2023-10-18T15:24:00.000Z","reihung":false}},{"station":{"evaNumber":"8006421","name":"Wiesloch-Walldorf","coordinates":{"lng":8.664217,"lat":49.291028},"ril100":"RWS"},"arrival":{"platform":"1","scheduledTime":"2023-10-18T15:28:00.000Z","time":"2023-10-18T15:28:00.000Z","reihung":false},"departure":{"platform":"1","scheduledTime":"2023-10-18T15:29:00.000Z","time":"2023-10-18T15:29:00.000Z","reihung":false}},{"station":{"evaNumber":"8005648","name":"St Ilgen-Sandhausen","coordinates":{"lng":8.668694,"lat":49.341125}},"arrival":{"platform":"1","scheduledTime":"2023-10-18T15:33:00.000Z","time":"2023-10-18T15:33:00.000Z","reihung":false},"departure":{"platform":"1","scheduledTime":"2023-10-18T15:33:00.000Z","time":"2023-10-18T15:33:00.000Z","reihung":false}},{"station":{"evaNumber":"8002686","name":"Heidelberg-Kirchheim/Rohrbach","coordinates":{"lng":8.675444,"lat":49.379913},"ril100":"RHKM"},"arrival":{"platform":"2","scheduledTime":"2023-10-18T15:37:00.000Z","time":"2023-10-18T15:37:00.000Z","reihung":false},"departure":{"platform":"2","scheduledTime":"2023-10-18T15:37:00.000Z","time":"2023-10-18T15:37:00.000Z","reihung":false}},{"station":{"evaNumber":"8000156","name":"Heidelberg Hbf","coordinates":{"lng":8.67548,"lat":49.403582},"ril100":"RH"},"arrival":{"platform":"1","scheduledTime":"2023-10-18T15:41:00.000Z","time":"2023-10-18T15:41:00.000Z","reihung":false},"departure":{"platform":"1","scheduledTime":"2023-10-18T15:43:00.000Z","time":"2023-10-18T15:43:00.000Z","reihung":false}},{"station":{"evaNumber":"8002687","name":"Heidelberg-Pfaffengrund/Wieblingen","coordinates":{"lng":8.641474,"lat":49.411969},"ril100":"RHBP"},"arrival":{"platform":"1","scheduledTime":"2023-10-18T15:45:00.000Z","time":"2023-10-18T15:45:00.000Z","reihung":false},"departure":{"platform":"1","scheduledTime":"2023-10-18T15:46:00.000Z","time":"2023-10-18T15:46:00.000Z","reihung":false}},{"station":{"evaNumber":"8003842","name":"Mannheim-Friedrichsfeld Süd","coordinates":{"lng":8.572239,"lat":49.438217},"ril100":"RMFS"},"arrival":{"platform":"1","scheduledTime":"2023-10-18T15:49:00.000Z","time":"2023-10-18T15:49:00.000Z","reihung":false},"departure":{"platform":"1","scheduledTime":"2023-10-18T15:50:00.000Z","time":"2023-10-18T15:50:00.000Z","reihung":false}},{"station":{"evaNumber":"8003847","name":"Mannheim-Seckenheim","coordinates":{"lng":8.538098,"lat":49.451413},"ril100":"RMSE"},"arrival":{"platform":"1","scheduledTime":"2023-10-18T15:52:00.000Z","time":"2023-10-18T15:52:00.000Z","reihung":false},"departure":{"platform":"1","scheduledTime":"2023-10-18T15:53:00.000Z","time":"2023-10-18T15:53:00.000Z","reihung":false}},{"station":{"evaNumber":"8003841","name":"Mannheim ARENA/Maimarkt","coordinates":{"lng":8.515922,"lat":49.45998},"ril100":"RMSM"},"arrival":{"platform":"1","scheduledTime":"2023-10-18T15:55:00.000Z","time":"2023-10-18T15:55:00.000Z","reihung":false},"departure":{"platform":"1","scheduledTime":"2023-10-18T15:55:00.000Z","time":"2023-10-18T15:55:00.000Z","reihung":false}},{"station":{"evaNumber":"8000244","name":"Mannheim Hbf","coordinates":{"lng":8.469268,"lat":49.479181},"ril100":"RM"},"arrival":{"platform":"1","scheduledTime":"2023-10-18T16:01:00.000Z","time":"2023-10-18T16:01:00.000Z","reihung":false},"departure":{"platform":"1","scheduledTime":"2023-10-18T16:04:00.000Z","time":"2023-10-18T16:04:00.000Z","reihung":false}},{"station":{"evaNumber":"8003759","name":"Ludwigshafen(Rhein) Mitte","coordinates":{"lng":8.452215,"lat":49.478938},"ril100":"RLSM"},"arrival":{"platform":"1","scheduledTime":"2023-10-18T16:06:00.000Z","time":"2023-10-18T16:06:00.000Z","reihung":false},"departure":{"platform":"1","scheduledTime":"2023-10-18T16:06:00.000Z","time":"2023-10-18T16:06:00.000Z","reihung":false}},{"station":{"evaNumber":"8000236","name":"Ludwigshafen(Rh)Hbf","coordinates":{"lng":8.433769,"lat":49.477257},"ril100":"RL"},"arrival":{"platform":"5","scheduledTime":"2023-10-18T16:09:00.000Z","time":"2023-10-18T16:09:00.000Z","reihung":false}}],"finalDestination":"Schifferstadt","jid":"1|254272|0|80|18102023","messages":[{"type":"A","code":"FB","prio":260,"icoX":5,"txtN":"Fahrradmitnahme begrenzt möglich"},{"type":"A","code":"EH","prio":560,"icoX":6,"txtN":"Fahrzeuggebundene Einstiegshilfe vorhanden"}],"type":"JNY"}],"segmentTypes":["RB","RE","S"]},{"checksum":"d82d588f_3","cid":"C-3","date":"2023-10-17T22:00:00.000Z","duration":6120000,"changes":1,"isRideable":true,"arrival":{"platform":"1","scheduledTime":"2023-10-18T14:49:00.000Z","time":"2023-10-18T14:49:00.000Z","reihung":false},"departure":{"platform":"1","scheduledTime":"2023-10-18T13:07:00.000Z","time":"2023-10-18T13:07:00.000Z","reihung":false},"segments":[{"arrival":{"platform":"2","scheduledTime":"2023-10-18T14:37:00.000Z","time":"2023-10-18T14:37:00.000Z","reihung":false},"departure":{"platform":"1","scheduledTime":"2023-10-18T13:07:00.000Z","time":"2023-10-18T13:07:00.000Z","reihung":false},"duration":5400000,"train":{"name":"EC 6","line":"43","admin":"80","number":"6","type":"EC","operator":{"name":"DB Fernverkehr AG","icoX":10}},"changeDuration":7,"segmentStart":{"name":"Freiburg(Breisgau) Hbf","evaNumber":"8000107"},"segmentDestination":{"name":"Mannheim Hbf","evaNumber":"8000244"},"stops":[{"station":{"evaNumber":"8000107","name":"Freiburg(Breisgau) Hbf","coordinates":{"lng":7.841344,"lat":47.997974},"ril100":"RF"},"departure":{"platform":"1","scheduledTime":"2023-10-18T13:07:00.000Z","time":"2023-10-18T13:07:00.000Z","reihung":false},"auslastung":{"first":1,"second":1}},{"station":{"evaNumber":"8000191","name":"Karlsruhe Hbf","coordinates":{"lng":8.401939,"lat":48.99353},"ril100":"RK"},"arrival":{"platform":"3","scheduledTime":"2023-10-18T14:11:00.000Z","time":"2023-10-18T14:11:00.000Z","reihung":false},"departure":{"platform":"3","scheduledTime":"2023-10-18T14:13:00.000Z","time":"2023-10-18T14:13:00.000Z","reihung":false},"auslastung":{"first":1,"second":1}},{"station":{"evaNumber":"8000244","name":"Mannheim Hbf","coordinates":{"lng":8.469268,"lat":49.479181},"ril100":"RM"},"arrival":{"platform":"2","scheduledTime":"2023-10-18T14:37:00.000Z","time":"2023-10-18T14:37:00.000Z","reihung":false}}],"finalDestination":"Münster(Westf)Hbf","jid":"1|362423|0|80|18102023","auslastung":{"first":1,"second":1},"messages":[{"type":"A","code":"FR","prio":260,"icoX":11,"txtN":"Fahrradmitnahme reservierungspflichtig"},{"type":"A","code":"FB","prio":260,"icoX":5,"txtN":"Fahrradmitnahme begrenzt möglich"}],"type":"JNY"},{"arrival":{"platform":"1","scheduledTime":"2023-10-18T14:49:00.000Z","time":"2023-10-18T14:49:00.000Z","reihung":false},"departure":{"platform":"1","scheduledTime":"2023-10-18T14:44:00.000Z","time":"2023-10-18T14:44:00.000Z","reihung":false},"duration":300000,"train":{"name":"S 6","line":"6","admin":"801518","number":"38664","type":"S","operator":{"name":"DB Regio AG Mitte","icoX":8}},"segmentStart":{"name":"Mannheim Hbf","evaNumber":"8000244"},"segmentDestination":{"name":"Ludwigshafen(Rh)Hbf","evaNumber":"8000236"},"stops":[{"station":{"evaNumber":"8000244","name":"Mannheim Hbf","coordinates":{"lng":8.469268,"lat":49.479181},"ril100":"RM"},"departure":{"platform":"1","scheduledTime":"2023-10-18T14:44:00.000Z","time":"2023-10-18T14:44:00.000Z","reihung":false}},{"station":{"evaNumber":"8003759","name":"Ludwigshafen(Rhein) Mitte","coordinates":{"lng":8.452215,"lat":49.478938},"ril100":"RLSM"},"arrival":{"platform":"1","scheduledTime":"2023-10-18T14:46:00.000Z","time":"2023-10-18T14:46:00.000Z","reihung":false},"departure":{"platform":"1","scheduledTime":"2023-10-18T14:46:00.000Z","time":"2023-10-18T14:46:00.000Z","reihung":false}},{"station":{"evaNumber":"8000236","name":"Ludwigshafen(Rh)Hbf","coordinates":{"lng":8.433769,"lat":49.477257},"ril100":"RL"},"arrival":{"platform":"1","scheduledTime":"2023-10-18T14:49:00.000Z","time":"2023-10-18T14:49:00.000Z","reihung":false}}],"finalDestination":"Mainz Hbf","jid":"1|254808|0|80|18102023","messages":[{"type":"A","code":"FB","prio":260,"icoX":5,"txtN":"Fahrradmitnahme begrenzt möglich"},{"type":"A","code":"EH","prio":560,"icoX":6,"txtN":"Fahrzeuggebundene Einstiegshilfe vorhanden"},{"type":"A","code":"LS","prio":605,"icoX":6,"txtN":"Laptop-Steckdosen"},{"type":"A","code":"KL","prio":610,"icoX":6,"txtN":"Klimaanlage"}],"type":"JNY"}],"segmentTypes":["EC","S"]},{"checksum":"4573a6db_3","cid":"C-4","date":"2023-10-17T22:00:00.000Z","duration":6060000,"changes":1,"isRideable":true,"arrival":{"platform":"5","scheduledTime":"2023-10-18T15:29:00.000Z","time":"2023-10-18T15:29:00.000Z","reihung":false},"departure":{"platform":"1","scheduledTime":"2023-10-18T13:48:00.000Z","time":"2023-10-18T13:48:00.000Z","reihung":false},"segments":[{"arrival":{"platform":"3","scheduledTime":"2023-10-18T15:14:00.000Z","time":"2023-10-18T15:14:00.000Z","reihung":false},"departure":{"platform":"1","scheduledTime":"2023-10-18T13:48:00.000Z","time":"2023-10-18T13:48:00.000Z","reihung":false},"duration":5160000,"train":{"name":"ICE 70","line":"20","admin":"80","number":"70","type":"ICE","operator":{"name":"DB Fernverkehr AG","icoX":10}},"changeDuration":10,"segmentStart":{"name":"Freiburg(Breisgau) Hbf","evaNumber":"8000107"},"segmentDestination":{"name":"Mannheim Hbf","evaNumber":"8000244"},"stops":[{"station":{"evaNumber":"8000107","name":"Freiburg(Breisgau) Hbf","coordinates":{"lng":7.841344,"lat":47.997974},"ril100":"RF"},"departure":{"platform":"1","scheduledTime":"2023-10-18T13:48:00.000Z","time":"2023-10-18T13:48:00.000Z","reihung":false},"auslastung":{"first":2,"second":1}},{"station":{"evaNumber":"8000774","name":"Baden-Baden","coordinates":{"lng":8.190773,"lat":48.790392},"ril100":"RBB"},"arrival":{"platform":"4","scheduledTime":"2023-10-18T14:31:00.000Z","time":"2023-10-18T14:31:00.000Z","reihung":false},"departure":{"platform":"4","scheduledTime":"2023-10-18T14:32:00.000Z","time":"2023-10-18T14:32:00.000Z","reihung":false},"auslastung":{"first":2,"second":1}},{"station":{"evaNumber":"8000191","name":"Karlsruhe Hbf","coordinates":{"lng":8.401939,"lat":48.99353},"ril100":"RK"},"arrival":{"platform":"3","scheduledTime":"2023-10-18T14:49:00.000Z","time":"2023-10-18T14:49:00.000Z","reihung":false},"departure":{"platform":"3","scheduledTime":"2023-10-18T14:51:00.000Z","time":"2023-10-18T14:51:00.000Z","reihung":false},"auslastung":{"first":2,"second":2}},{"station":{"evaNumber":"8000244","name":"Mannheim Hbf","coordinates":{"lng":8.469268,"lat":49.479181},"ril100":"RM"},"arrival":{"platform":"3","scheduledTime":"2023-10-18T15:14:00.000Z","time":"2023-10-18T15:14:00.000Z","reihung":false}}],"finalDestination":"Berlin Hbf (tief)","jid":"1|363133|0|80|18102023","auslastung":{"first":2,"second":2},"messages":[{"type":"A","code":"CK","prio":200,"icoX":6,"txtN":"Sicher & kontaktlos ohne Ticketkontrolle reisen mit Komfort Check-in"},{"type":"A","code":"FR","prio":260,"icoX":11,"txtN":"Fahrradmitnahme reservierungspflichtig"},{"type":"A","code":"FB","prio":260,"icoX":5,"txtN":"Fahrradmitnahme begrenzt möglich"},{"type":"A","code":"BR","prio":450,"icoX":12,"txtN":"Bordrestaurant"},{"type":"A","code":"EH","prio":560,"icoX":6,"txtN":"Fahrzeuggebundene Einstiegshilfe vorhanden"}],"type":"JNY"},{"arrival":{"platform":"5","scheduledTime":"2023-10-18T15:29:00.000Z","time":"2023-10-18T15:29:00.000Z","reihung":false},"departure":{"platform":"1","scheduledTime":"2023-10-18T15:24:00.000Z","time":"2023-10-18T15:24:00.000Z","reihung":false},"duration":300000,"train":{"name":"S 1","line":"1","admin":"801539","number":"38136","type":"S","operator":{"name":"DB Regio AG Mitte","icoX":8}},"segmentStart":{"name":"Mannheim Hbf","evaNumber":"8000244"},"segmentDestination":{"name":"Ludwigshafen(Rh)Hbf","evaNumber":"8000236"},"stops":[{"station":{"evaNumber":"8000244","name":"Mannheim Hbf","coordinates":{"lng":8.469268,"lat":49.479181},"ril100":"RM"},"departure":{"platform":"1","scheduledTime":"2023-10-18T15:24:00.000Z","time":"2023-10-18T15:24:00.000Z","reihung":false}},{"station":{"evaNumber":"8003759","name":"Ludwigshafen(Rhein) Mitte","coordinates":{"lng":8.452215,"lat":49.478938},"ril100":"RLSM"},"arrival":{"platform":"1","scheduledTime":"2023-10-18T15:26:00.000Z","time":"2023-10-18T15:26:00.000Z","reihung":false},"departure":{"platform":"1","scheduledTime":"2023-10-18T15:26:00.000Z","time":"2023-10-18T15:26:00.000Z","reihung":false}},{"station":{"evaNumber":"8000236","name":"Ludwigshafen(Rh)Hbf","coordinates":{"lng":8.433769,"lat":49.477257},"ril100":"RL"},"arrival":{"platform":"5","scheduledTime":"2023-10-18T15:29:00.000Z","time":"2023-10-18T15:29:00.000Z","reihung":false}}],"finalDestination":"Homburg(Saar)Hbf","jid":"1|253780|0|80|18102023","messages":[{"type":"A","code":"FB","prio":260,"icoX":5,"txtN":"Fahrradmitnahme begrenzt möglich"},{"type":"A","code":"EH","prio":560,"icoX":6,"txtN":"Fahrzeuggebundene Einstiegshilfe vorhanden"}],"type":"JNY"}],"segmentTypes":["ICE","S"]},{"checksum":"3e6f2d05_3","cid":"C-5","date":"2023-10-17T22:00:00.000Z","duration":6000000,"changes":1,"isRideable":true,"arrival":{"platform":"5","scheduledTime":"2023-10-18T15:35:00.000Z","time":"2023-10-18T15:35:00.000Z","reihung":false},"departure":{"platform":"1","scheduledTime":"2023-10-18T13:55:00.000Z","time":"2023-10-18T13:55:00.000Z","reihung":false},"segments":[{"arrival":{"platform":"3","scheduledTime":"2023-10-18T15:24:00.000Z","time":"2023-10-18T15:24:00.000Z","reihung":false},"departure":{"platform":"1","scheduledTime":"2023-10-18T13:55:00.000Z","time":"2023-10-18T13:55:00.000Z","reihung":false},"duration":5340000,"wings":[{"train":{"name":"ICE 104","line":"43","admin":"80","number":"104","type":"ICE","operator":{"name":"DB Fernverkehr AG","icoX":10}},"segmentStart":{"name":"Freiburg(Breisgau) Hbf","evaNumber":"8000107"},"segmentDestination":{"name":"Mannheim Hbf","evaNumber":"8000244"},"stops":[{"station":{"evaNumber":"8000107","name":"Freiburg(Breisgau) Hbf","coordinates":{"lng":7.841344,"lat":47.997974},"ril100":"RF"},"departure":{"platform":"1","scheduledTime":"2023-10-18T13:55:00.000Z","time":"2023-10-18T13:55:00.000Z","reihung":false},"auslastung":{"first":1,"second":1}},{"station":{"evaNumber":"8000290","name":"Offenburg","coordinates":{"lng":7.94677,"lat":48.476506},"ril100":"RO"},"arrival":{"platform":"3","scheduledTime":"2023-10-18T14:26:00.000Z","time":"2023-10-18T14:26:00.000Z","reihung":false},"auslastung":{"first":1,"second":1}},{"station":{"evaNumber":"8000191","name":"Karlsruhe Hbf","coordinates":{"lng":8.401939,"lat":48.99353},"ril100":"RK"},"arrival":{"platform":"3","scheduledTime":"2023-10-18T14:58:00.000Z","time":"2023-10-18T14:58:00.000Z","reihung":false},"auslastung":{"first":2,"second":1}},{"station":{"evaNumber":"8000244","name":"Mannheim Hbf","coordinates":{"lng":8.469268,"lat":49.479181},"ril100":"RM"},"arrival":{"platform":"3","scheduledTime":"2023-10-18T15:24:00.000Z","time":"2023-10-18T15:24:00.000Z","reihung":false}}],"finalDestination":"Amsterdam Centraal","jid":"1|349066|0|80|18102023","auslastung":{"first":2,"second":1}}],"train":{"name":"ICE 204","line":"43","admin":"80","number":"204","type":"ICE","operator":{"name":"DB Fernverkehr AG","icoX":10}},"changeDuration":7,"segmentStart":{"name":"Freiburg(Breisgau) Hbf","evaNumber":"8000107"},"segmentDestination":{"name":"Mannheim Hbf","evaNumber":"8000244"},"stops":[{"station":{"evaNumber":"8000107","name":"Freiburg(Breisgau) Hbf","coordinates":{"lng":7.841344,"lat":47.997974},"ril100":"RF"},"departure":{"platform":"1","scheduledTime":"2023-10-18T13:55:00.000Z","time":"2023-10-18T13:55:00.000Z","reihung":false},"auslastung":{"first":1,"second":1}},{"station":{"evaNumber":"8000290","name":"Offenburg","coordinates":{"lng":7.94677,"lat":48.476506},"ril100":"RO"},"arrival":{"platform":"3","scheduledTime":"2023-10-18T14:26:00.000Z","time":"2023-10-18T14:26:00.000Z","reihung":false},"departure":{"platform":"3","scheduledTime":"2023-10-18T14:28:00.000Z","time":"2023-10-18T14:28:00.000Z","reihung":false},"auslastung":{"first":1,"second":1}},{"station":{"evaNumber":"8000191","name":"Karlsruhe Hbf","coordinates":{"lng":8.401939,"lat":48.99353},"ril100":"RK"},"arrival":{"platform":"3","scheduledTime":"2023-10-18T14:58:00.000Z","time":"2023-10-18T14:58:00.000Z","reihung":false},"departure":{"platform":"3","scheduledTime":"2023-10-18T15:00:00.000Z","time":"2023-10-18T15:00:00.000Z","reihung":false},"auslastung":{"first":2,"second":1}},{"station":{"evaNumber":"8000244","name":"Mannheim Hbf","coordinates":{"lng":8.469268,"lat":49.479181},"ril100":"RM"},"arrival":{"platform":"3","scheduledTime":"2023-10-18T15:24:00.000Z","time":"2023-10-18T15:24:00.000Z","reihung":false}}],"finalDestination":"Dortmund Hbf","jid":"1|200621|0|80|18102023","auslastung":{"first":2,"second":1},"messages":[{"type":"A","code":"CK","prio":200,"icoX":6,"txtN":"Sicher & kontaktlos ohne Ticketkontrolle reisen mit Komfort Check-in"},{"type":"A","code":"BR","prio":450,"icoX":12,"txtN":"Bordrestaurant"}],"type":"JNY"},{"arrival":{"platform":"5","scheduledTime":"2023-10-18T15:35:00.000Z","time":"2023-10-18T15:35:00.000Z","reihung":false},"departure":{"platform":"1","scheduledTime":"2023-10-18T15:31:00.000Z","time":"2023-10-18T15:31:00.000Z","reihung":false},"duration":240000,"train":{"name":"S 3","line":"3","admin":"801539","number":"38348","type":"S","operator":{"name":"DB Regio AG Mitte","icoX":8}},"segmentStart":{"name":"Mannheim Hbf","evaNumber":"8000244"},"segmentDestination":{"name":"Ludwigshafen(Rh)Hbf","evaNumber":"8000236"},"stops":[{"station":{"evaNumber":"8000244","name":"Mannheim Hbf","coordinates":{"lng":8.469268,"lat":49.479181},"ril100":"RM"},"departure":{"platform":"1","scheduledTime":"2023-10-18T15:31:00.000Z","time":"2023-10-18T15:31:00.000Z","reihung":false}},{"station":{"evaNumber":"8003759","name":"Ludwigshafen(Rhein) Mitte","coordinates":{"lng":8.452215,"lat":49.478938},"ril100":"RLSM"},"arrival":{"platform":"1","scheduledTime":"2023-10-18T15:33:00.000Z","time":"2023-10-18T15:33:00.000Z","reihung":false},"departure":{"platform":"1","scheduledTime":"2023-10-18T15:33:00.000Z","time":"2023-10-18T15:33:00.000Z","reihung":false}},{"station":{"evaNumber":"8000236","name":"Ludwigshafen(Rh)Hbf","coordinates":{"lng":8.433769,"lat":49.477257},"ril100":"RL"},"arrival":{"platform":"5","scheduledTime":"2023-10-18T15:35:00.000Z","time":"2023-10-18T15:35:00.000Z","reihung":false}}],"finalDestination":"Schifferstadt","jid":"1|254262|0|80|18102023","messages":[{"type":"A","code":"FB","prio":260,"icoX":5,"txtN":"Fahrradmitnahme begrenzt möglich"},{"type":"A","code":"EH","prio":560,"icoX":6,"txtN":"Fahrzeuggebundene Einstiegshilfe vorhanden"}],"type":"JNY"}],"segmentTypes":["ICE","S"]}]}