{"context":{"earlier":"3|OB|MT#14#451633#451578#451733#451779#0#0#485#451576#1#0#192#0#0#-2147483648#1#2|PDH#bbe10b32f5270e429a5a473728022d1b|RD#18102023|RT#141653|US#0|RS#INIT","later":"3|OF|MT#14#451655#451655#451793#451793#0#0#485#451634#6#0#27#0#0#-2147483648#1#2|PDH#bbe10b32f5270e429a5a473728022d1b|RD#18102023|RT#141653|US#0|RS#INIT"},"routes":[{"checksum":"922a2555_3","cid":"C-0","date":"2023-10-17T22:00:00.000Z","duration":12060000,"changes":2,"isRideable":true,"arrival":{"platform":"5","scheduledTime":"2023-10-18T15:39:00.000Z","time":"2023-10-18T15:39:00.000Z","reihung":false},"departure":{"platform":"8","scheduledTime":"2023-10-18T12:18:00.000Z","time":"2023-10-18T12:18:00.000Z","reihung":false},"segments":[{"arrival":{"platform":"6b","scheduledTime":"2023-10-18T12:54:00.000Z","time":"2023-10-18T12:54:00.000Z","reihung":false},"departure":{"platform":"8","scheduledTime":"2023-10-18T12:18:00.000Z","time":"2023-10-18T12:18:00.000Z","reihung":false},"duration":2160000,"train":{"name":"S 3","line":"3","admin":"801539","number":"38345","type":"S","operator":{"name":"DB Regio AG Mitte","icoX":2}},"changeDuration":41,"segmentStart":{"name":"Heidelberg Hbf","evaNumber":"8000156"},"segmentDestination":{"name":"Karlsruhe-Durlach","evaNumber":"8003184"},"stops":[{"station":{"evaNumber":"8000156","name":"Heidelberg Hbf","coordinates":{"lng":8.67548,"lat":49.403582},"ril100":"RH"},"departure":{"platform":"8","scheduledTime":"2023-10-18T12:18:00.000Z","time":"2023-10-18T12:18:00.000Z","reihung":false}},{"station":{"evaNumber":"8002686","name":"Heidelberg-Kirchheim/Rohrbach","coordinates":{"lng":8.675444,"lat":49.379913},"ril100":"RHKM"},"arrival":{"platform":"1","scheduledTime":"2023-10-18T12:21:00.000Z","time":"2023-10-18T12:21:00.000Z","reihung":false},"departure":{"platform":"1","scheduledTime":"2023-10-18T12:21:00.000Z","time":"2023-10-18T12:21:00.000Z","reihung":false}},{"station":{"evaNumber":"8005648","name":"St Ilgen-Sandhausen","coordinates":{"lng":8.668694,"lat":49.341125}},"arrival":{"platform":"2","scheduledTime":"2023-10-18T12:24:00.000Z","time":"2023-10-18T12:24:00.000Z","reihung":false},"departure":{"platform":"2","scheduledTime":"2023-10-18T12:25:00.000Z","time":"2023-10-18T12:25:00.000Z","reihung":false}},{"station":{"evaNumber":"8006421","name":"Wiesloch-Walldorf","coordinates":{"lng":8.664217,"lat":49.291028},"ril100":"RWS"},"arrival":{"platform":"2","scheduledTime":"2023-10-18T12:28:00.000Z","time":"2023-10-18T12:28:00.000Z","reihung":false},"departure":{"platform":"2","scheduledTime":"2023-10-18T12:29:00.000Z","time":"2023-10-18T12:29:00.000Z","reihung":false}},{"station":{"evaNumber":"8005181","name":"Rot-Malsch","coordinates":{"lng":8.652216,"lat":49.243367},"ril100":"RRM"},"arrival":{"platform":"1","scheduledTime":"2023-10-18T12:32:00.000Z","time":"2023-10-18T12:32:00.000Z","reihung":false},"departure":{"platform":"1","scheduledTime":"2023-10-18T12:32:00.000Z","time":"2023-10-18T12:32:00.000Z","reihung":false}},{"station":{"evaNumber":"8004032","name":"Bad Schönborn-Kronau","coordinates":{"lng":8.646886,"lat":49.219564}},"arrival":{"platform":"2","scheduledTime":"2023-10-18T12:35:00.000Z","time":"2023-10-18T12:35:00.000Z","reihung":false},"departure":{"platform":"2","scheduledTime":"2023-10-18T12:35:00.000Z","time":"2023-10-18T12:35:00.000Z","reihung":false}},{"station":{"evaNumber":"8003533","name":"Bad Schönborn Süd","coordinates":{"lng":8.641924,"lat":49.199994}},"arrival":{"platform":"2","scheduledTime":"2023-10-18T12:37:00.000Z","time":"2023-10-18T12:37:00.000Z","reihung":false},"departure":{"platform":"2","scheduledTime":"2023-10-18T12:37:00.000Z","time":"2023-10-18T12:37:00.000Z","reihung":false}},{"station":{"evaNumber":"8005933","name":"Stettfeld-Weiher","coordinates":{"lng":8.637159,"lat":49.183975},"ril100":"RSFW"},"arrival":{"platform":"2","scheduledTime":"2023-10-18T12:39:00.000Z","time":"2023-10-18T12:39:00.000Z","reihung":false},"departure":{"platform":"2","scheduledTime":"2023-10-18T12:40:00.000Z","time":"2023-10-18T12:40:00.000Z","reihung":false}},{"station":{"evaNumber":"8005931","name":"Ubstadt-Weiher","coordinates":{"lng":8.624017,"lat":49.167759}},"arrival":{"platform":"1","scheduledTime":"2023-10-18T12:41:00.000Z","time":"2023-10-18T12:41:00.000Z","reihung":false},"departure":{"platform":"1","scheduledTime":"2023-10-18T12:42:00.000Z","time":"2023-10-18T12:42:00.000Z","reihung":false}},{"station":{"evaNumber":"8000055","name":"Bruchsal","coordinates":{"lng":8.589687,"lat":49.124592},"ril100":"RBR"},"arrival":{"platform":"4","scheduledTime":"2023-10-18T12:45:00.000Z","time":"2023-10-18T12:45:00.000Z","reihung":false},"departure":{"platform":"4","scheduledTime":"2023-10-18T12:46:00.000Z","time":"2023-10-18T12:46:00.000Z","reihung":false}},{"station":{"evaNumber":"8003184","name":"Karlsruhe-Durlach","coordinates":{"lng":8.462292,"lat":49.002025},"ril100":"RKDU"},"arrival":{"platform":"6b","scheduledTime":"2023-10-18T12:54:00.000Z","time":"2023-10-18T12:54:00.000Z","reihung":false}}],"finalDestination":"Karlsruhe Hbf","jid":"1|254250|0|80|18102023","messages":[{"type":"A","code":"FB","prio":260,"icoX":4,"txtN":"Fahrradmitnahme begrenzt möglich"},{"type":"A","code":"EH","prio":560,"icoX":5,"txtN":"Fahrzeuggebundene Einstiegshilfe vorhanden"}],"type":"JNY"},{"arrival":{"platform":"4","scheduledTime":"2023-10-18T14:25:00.000Z","time":"2023-10-18T14:25:00.000Z","reihung":false},"departure":{"platform":"1","scheduledTime":"2023-10-18T13:35:00.000Z","time":"2023-10-18T13:35:00.000Z","reihung":false},"duration":3000000,"train":{"name":"IRE 1","line":"1","admin":"GAIRE","number":"19021","type":"IRE","operator":{"name":"Go-Ahead Baden-Württemberg GmbH","icoX":7}},"changeDuration":11,"segmentStart":{"name":"Karlsruhe-Durlach","evaNumber":"8003184"},"segmentDestination":{"name":"Stuttgart Hbf","evaNumber":"8000096"},"stops":[{"station":{"evaNumber":"8003184","name":"Karlsruhe-Durlach","coordinates":{"lng":8.462292,"lat":49.002025},"ril100":"RKDU"},"departure":{"platform":"1","scheduledTime":"2023-10-18T13:35:00.000Z","time":"2023-10-18T13:35:00.000Z","reihung":false}},{"station":{"evaNumber":"8006440","name":"Wilferdingen-Singen","coordinates":{"lng":8.572797,"lat":48.953744},"ril100":"TWL"},"arrival":{"platform":"1","scheduledTime":"2023-10-18T13:43:00.000Z","time":"2023-10-18T13:43:00.000Z","reihung":false},"departure":{"platform":"1","scheduledTime":"2023-10-18T13:44:00.000Z","time":"2023-10-18T13:44:00.000Z","reihung":false}},{"station":{"evaNumber":"8000299","name":"Pforzheim Hbf","coordinates":{"lng":8.702969,"lat":48.894064},"ril100":"TPH"},"arrival":{"platform":"3","scheduledTime":"2023-10-18T13:53:00.000Z","time":"2023-10-18T13:53:00.000Z","reihung":false},"departure":{"platform":"3","scheduledTime":"2023-10-18T13:54:00.000Z","time":"2023-10-18T13:54:00.000Z","reihung":false}},{"station":{"evaNumber":"8000339","name":"Mühlacker","coordinates":{"lng":8.845826,"lat":48.953132},"ril100":"TM"},"arrival":{"platform":"1","scheduledTime":"2023-10-18T14:02:00.000Z","time":"2023-10-18T14:02:00.000Z","reihung":false},"departure":{"platform":"1","scheduledTime":"2023-10-18T14:03:00.000Z","time":"2023-10-18T14:03:00.000Z","reihung":false}},{"station":{"evaNumber":"8006053","name":"Vaihingen(Enz)","coordinates":{"lng":8.959009,"lat":48.947271},"ril100":"TV"},"arrival":{"platform":"2","scheduledTime":"2023-10-18T14:08:00.000Z","time":"2023-10-18T14:08:00.000Z","reihung":false},"departure":{"platform":"2","scheduledTime":"2023-10-18T14:10:00.000Z","time":"2023-10-18T14:10:00.000Z","reihung":false}},{"station":{"evaNumber":"8000096","name":"Stuttgart Hbf","coordinates":{"lng":9.182589,"lat":48.785052},"ril100":"TS"},"arrival":{"platform":"4","scheduledTime":"2023-10-18T14:25:00.000Z","time":"2023-10-18T14:25:00.000Z","reihung":false}}],"finalDestination":"Stuttgart Hbf","jid":"1|398839|0|80|18102023","messages":[{"type":"A","code":"FB","prio":260,"icoX":4,"txtN":"Fahrradmitnahme begrenzt möglich"},{"type":"A","code":"GL","prio":330,"icoX":5,"txtN":"Beförderung von Gruppen eingeschränkt"},{"type":"A","code":"RG","prio":560,"icoX":5,"txtN":"Behindertengerechtes Fahrzeug"}],"type":"JNY"},{"arrival":{"platform":"5","scheduledTime":"2023-10-18T15:39:00.000Z","time":"2023-10-18T15:39:00.000Z","reihung":false},"departure":{"platform":"14","scheduledTime":"2023-10-18T14:36:00.000Z","time":"2023-10-18T14:36:00.000Z","reihung":false},"duration":3780000,"train":{"name":"MEX 12","line":"12","admin":"SBSMEX","number":"89477","type":"MEX","operator":{"name":"SWEG Bahn Stuttgart GmbH","icoX":10}},"segmentStart":{"name":"Stuttgart Hbf","evaNumber":"8000096"},"segmentDestination":{"name":"Tübingen Hbf","evaNumber":"8000141"},"stops":[{"station":{"evaNumber":"8000096","name":"Stuttgart Hbf","coordinates":{"lng":9.182589,"lat":48.785052},"ril100":"TS"},"departure":{"platform":"14","scheduledTime":"2023-10-18T14:36:00.000Z","time":"2023-10-18T14:36:00.000Z","reihung":false}},{"station":{"evaNumber":"8000302","name":"Plochingen","coordinates":{"lng":9.411113,"lat":48.712869},"ril100":"TP"},"arrival":{"platform":"10","scheduledTime":"2023-10-18T14:57:00.000Z","time":"2023-10-18T14:57:00.000Z","reihung":false},"departure":{"platform":"10","scheduledTime":"2023-10-18T14:58:00.000Z","time":"2023-10-18T14:58:00.000Z","reihung":false}},{"station":{"evaNumber":"8004488","name":"Nürtingen","coordinates":{"lng":9.342678,"lat":48.628082},"ril100":"TNU"},"arrival":{"platform":"1","scheduledTime":"2023-10-18T15:08:00.000Z","time":"2023-10-18T15:08:00.000Z","reihung":false},"departure":{"platform":"1","scheduledTime":"2023-10-18T15:09:00.000Z","time":"2023-10-18T15:09:00.000Z","reihung":false}},{"station":{"evaNumber":"8004009","name":"Metzingen(Württ)","coordinates":{"lng":9.290127,"lat":48.539754},"ril100":"TME"},"arrival":{"platform":"2","scheduledTime":"2023-10-18T15:17:00.000Z","time":"2023-10-18T15:17:00.000Z","reihung":false},"departure":{"platform":"2","scheduledTime":"2023-10-18T15:18:00.000Z","time":"2023-10-18T15:18:00.000Z","reihung":false}},{"station":{"evaNumber":"8000314","name":"Reutlingen Hbf","coordinates":{"lng":9.209188,"lat":48.496049},"ril100":"TRE"},"arrival":{"platform":"2","scheduledTime":"2023-10-18T15:24:00.000Z","time":"2023-10-18T15:24:00.000Z","reihung":false},"departure":{"platform":"2","scheduledTime":"2023-10-18T15:24:00.000Z","time":"2023-10-18T15:24:00.000Z","reihung":false}},{"station":{"evaNumber":"8000141","name":"Tübingen Hbf","coordinates":{"lng":9.056003,"lat":48.515663},"ril100":"TT"},"arrival":{"platform":"5","scheduledTime":"2023-10-18T15:39:00.000Z","time":"2023-10-18T15:39:00.000Z","reihung":false}}],"finalDestination":"Tübingen Hbf","jid":"1|1119942|0|80|18102023","messages":[{"type":"A","code":"FB","prio":260,"icoX":4,"txtN":"Fahrradmitnahme begrenzt möglich"},{"type":"A","code":"EZ","prio":400,"icoX":5,"txtN":"Ersatzzug"}],"type":"JNY"}],"segmentTypes":["S","IRE","MEX"]},{"checksum":"b0d93799_3","cid":"C-1","date":"2023-10-17T22:00:00.000Z","duration":12780000,"changes":1,"isRideable":true,"arrival":{"platform":"2","scheduledTime":"2023-10-18T16:22:00.000Z","time":"2023-10-18T16:22:00.000Z","reihung":false},"departure":{"platform":"4","scheduledTime":"2023-10-18T12:49:00.000Z","time":"2023-10-18T12:49:00.000Z","reihung":false},"segments":[{"arrival":{"platform":"5","scheduledTime":"2023-10-18T13:49:00.000Z","time":"2023-10-18T13:49:00.000Z","reihung":false},"departure":{"platform":"4","scheduledTime":"2023-10-18T12:49:00.000Z","time":"2023-10-18T12:49:00.000Z","reihung":false},"duration":3600000,"train":{"name":"RE 10b","line":"10b","admin":"SBSRE","number":"19277","type":"RE","operator":{"name":"SWEG Bahn Stuttgart GmbH","icoX":10}},"changeDuration":41,"segmentStart":{"name":"Heidelberg Hbf","evaNumber":"8000156"},"segmentDestination":{"name":"Heilbronn Hbf","evaNumber":"8000157"},"stops":[{"station":{"evaNumber":"8000156","name":"Heidelberg Hbf","coordinates":{"lng":8.67548,"lat":49.403582},"ril100":"RH"},"departure":{"platform":"4","scheduledTime":"2023-10-18T12:49:00.000Z","time":"2023-10-18T12:49:00.000Z","reihung":false}},{"station":{"evaNumber":"8000265","name":"Neckargemünd","coordinates":{"lng":8.788367,"lat":49.393828},"ril100":"RNM"},"arrival":{"platform":"4","scheduledTime":"2023-10-18T12:59:00.000Z","time":"2023-10-18T12:59:00.000Z","reihung":false},"departure":{"platform":"4","scheduledTime":"2023-10-18T12:59:00.000Z","time":"2023-10-18T12:59:00.000Z","reihung":false}},{"station":{"evaNumber":"8003932","name":"Meckesheim","coordinates":{"lng":8.812854,"lat":49.320683}},"arrival":{"platform":"3","scheduledTime":"2023-10-18T13:06:00.000Z","time":"2023-10-18T13:06:00.000Z","reihung":false},"departure":{"platform":"3","scheduledTime":"2023-10-18T13:07:00.000Z","time":"2023-10-18T13:07:00.000Z","reihung":false}},{"station":{"evaNumber":"8005578","name":"Sinsheim(Elsenz) Hbf","coordinates":{"lng":8.875059,"lat":49.250388},"ril100":"RSM"},"arrival":{"platform":"1a","scheduledTime":"2023-10-18T13:13:00.000Z","time":"2023-10-18T13:13:00.000Z","reihung":false},"departure":{"platform":"1a","scheduledTime":"2023-10-18T13:14:00.000Z","time":"2023-10-18T13:14:00.000Z","reihung":false}},{"station":{"evaNumber":"8070097","name":"Sinsheim Museum/Arena","coordinates":{"lng":8.899932,"lat":49.24129},"ril100":"RSMM"},"arrival":{"platform":"1a","scheduledTime":"2023-10-18T13:16:00.000Z","time":"2023-10-18T13:16:00.000Z","reihung":false},"departure":{"platform":"1a","scheduledTime":"2023-10-18T13:16:00.000Z","time":"2023-10-18T13:16:00.000Z","reihung":false}},{"station":{"evaNumber":"8000736","name":"Bad Rappenau","coordinates":{"lng":9.101281,"lat":49.237722}},"arrival":{"platform":"1","scheduledTime":"2023-10-18T13:26:00.000Z","time":"2023-10-18T13:26:00.000Z","reihung":false},"departure":{"platform":"1","scheduledTime":"2023-10-18T13:28:00.000Z","time":"2023-10-18T13:28:00.000Z","reihung":false}},{"station":{"evaNumber":"8000765","name":"Bad Wimpfen","coordinates":{"lng":9.1671,"lat":49.229793}},"arrival":{"platform":"1","scheduledTime":"2023-10-18T13:32:00.000Z","time":"2023-10-18T13:32:00.000Z","reihung":false},"departure":{"platform":"1","scheduledTime":"2023-10-18T13:33:00.000Z","time":"2023-10-18T13:33:00.000Z","reihung":false}},{"station":{"evaNumber":"8000017","name":"Bad Friedrichshall Hbf","coordinates":{"lng":9.200091,"lat":49.231205},"ril100":"TBF"},"arrival":{"platform":"11","scheduledTime":"2023-10-18T13:36:00.000Z","time":"2023-10-18T13:36:00.000Z","reihung":false},"departure":{"platform":"11","scheduledTime":"2023-10-18T13:38:00.000Z","time":"2023-10-18T13:38:00.000Z","reihung":false}},{"station":{"evaNumber":"8004220","name":"Neckarsulm","coordinates":{"lng":9.219759,"lat":49.188668},"ril100":"TN"},"arrival":{"platform":"2","scheduledTime":"2023-10-18T13:43:00.000Z","time":"2023-10-18T13:43:00.000Z","reihung":false},"departure":{"platform":"2","scheduledTime":"2023-10-18T13:44:00.000Z","time":"2023-10-18T13:44:00.000Z","reihung":false}},{"station":{"evaNumber":"8000157","name":"Heilbronn Hbf","coordinates":{"lng":9.207579,"lat":49.143245},"ril100":"TH"},"arrival":{"platform":"5","scheduledTime":"2023-10-18T13:49:00.000Z","time":"2023-10-18T13:49:00.000Z","reihung":false}}],"finalDestination":"Heilbronn Hbf","jid":"1|1118906|2|80|18102023","messages":[{"type":"A","code":"FB","prio":260,"icoX":4,"txtN":"Fahrradmitnahme begrenzt möglich"},{"type":"A","code":"EH","prio":560,"icoX":5,"txtN":"Fahrzeuggebundene Einstiegshilfe vorhanden"},{"type":"A","code":"EA","prio":560,"icoX":5,"txtN":"Behindertengerechte Ausstattung"},{"type":"A","code":"KL","prio":610,"icoX":5,"txtN":"Klimaanlage"}],"type":"JNY"},{"arrival":{"platform":"2","scheduledTime":"2023-10-18T16:22:00.000Z","time":"2023-10-18T16:22:00.000Z","reihung":false},"departure":{"platform":"4","scheduledTime":"2023-10-18T14:30:00.000Z","time":"2023-10-18T14:30:00.000Z","reihung":false},"duration":6720000,"train":{"name":"MEX 18","line":"18","admin":"SBSMEX","number":"19327","type":"MEX","operator":{"name":"SWEG Bahn Stuttgart GmbH","icoX":10}},"segmentStart":{"name":"Heilbronn Hbf","evaNumber":"8000157"},"segmentDestination":{"name":"Tübingen Hbf","evaNumber":"8000141"},"stops":[{"station":{"evaNumber":"8000157","name":"Heilbronn Hbf","coordinates":{"lng":9.207579,"lat":49.143245},"ril100":"TH"},"departure":{"platform":"4","scheduledTime":"2023-10-18T14:30:00.000Z","time":"2023-10-18T14:30:00.000Z","reihung":false}},{"station":{"evaNumber":"8004458","name":"Nordheim(Württ)","coordinates":{"lng":9.148807,"lat":49.109374},"ril100":"TNO"},"arrival":{"platform":"1","scheduledTime":"2023-10-18T14:34:00.000Z","time":"2023-10-18T14:34:00.000Z","reihung":false},"departure":{"platform":"1","scheduledTime":"2023-10-18T14:35:00.000Z","time":"2023-10-18T14:35:00.000Z","reihung":false}},{"station":{"evaNumber":"8003588","name":"Lauffen(Neckar)","coordinates":{"lng":9.146281,"lat":49.076554},"ril100":"TLN"},"arrival":{"platform":"3","scheduledTime":"2023-10-18T14:39:00.000Z","time":"2023-10-18T14:39:00.000Z","reihung":false},"departure":{"platform":"3","scheduledTime":"2023-10-18T14:40:00.000Z","time":"2023-10-18T14:40:00.000Z","reihung":false}},{"station":{"evaNumber":"8003278","name":"Kirchheim(Neckar)","coordinates":{"lng":9.15083,"lat":49.037541},"ril100":"TKM"},"arrival":{"platform":"2","scheduledTime":"2023-10-18T14:43:00.000Z","time":"2023-10-18T14:43:00.000Z","reihung":false},"departure":{"platform":"2","scheduledTime":"2023-10-18T14:44:00.000Z","time":"2023-10-18T14:44:00.000Z","reihung":false}},{"station":{"evaNumber":"8006171","name":"Walheim(Württ)","coordinates":{"lng":9.15181,"lat":49.010744},"ril100":"TWH"},"arrival":{"platform":"2","scheduledTime":"2023-10-18T14:46:00.000Z","time":"2023-10-18T14:46:00.000Z","reihung":false},"departure":{"platform":"2","scheduledTime":"2023-10-18T14:47:00.000Z","time":"2023-10-18T14:47:00.000Z","reihung":false}},{"station":{"evaNumber":"8000925","name":"Besigheim","coordinates":{"lng":9.136546,"lat":48.997719}},"arrival":{"platform":"2","scheduledTime":"2023-10-18T14:49:00.000Z","time":"2023-10-18T14:49:00.000Z","reihung":false},"departure":{"platform":"2","scheduledTime":"2023-10-18T14:50:00.000Z","time":"2023-10-18T14:50:00.000Z","reihung":false}},{"station":{"evaNumber":"8000038","name":"Bietigheim-Bissingen","coordinates":{"lng":9.137499,"lat":48.948044},"ril100":"TBM"},"arrival":{"platform":"8","scheduledTime":"2023-10-18T14:55:00.000Z","time":"2023-10-18T14:55:00.000Z","reihung":false},"departure":{"platform":"8","scheduledTime":"2023-10-18T14:57:00.000Z","time":"2023-10-18T14:57:00.000Z","reihung":false}},{"station":{"evaNumber":"8000235","name":"Ludwigsburg","coordinates":{"lng":9.185115,"lat":48.892374},"ril100":"TLU"},"arrival":{"platform":"4","scheduledTime":"2023-10-18T15:04:00.000Z","time":"2023-10-18T15:04:00.000Z","reihung":false},"departure":{"platform":"4","scheduledTime":"2023-10-18T15:05:00.000Z","time":"2023-10-18T15:05:00.000Z","reihung":false}},{"station":{"evaNumber":"8003411","name":"Kornwestheim Pbf","coordinates":{"lng":9.179955,"lat":48.862224},"ril100":"TKH"},"arrival":{"platform":"7","scheduledTime":"2023-10-18T15:08:00.000Z","time":"2023-10-18T15:08:00.000Z","reihung":false},"departure":{"platform":"7","scheduledTime":"2023-10-18T15:11:00.000Z","time":"2023-10-18T15:11:00.000Z","reihung":false}},{"station":{"evaNumber":"8001920","name":"Esslingen(Neckar)","coordinates":{"lng":9.299952,"lat":48.738695},"ril100":"TE"},"arrival":{"platform":"6","scheduledTime":"2023-10-18T15:29:00.000Z","time":"2023-10-18T15:29:00.000Z","reihung":false},"departure":{"platform":"6","scheduledTime":"2023-10-18T15:35:00.000Z","time":"2023-10-18T15:35:00.000Z","reihung":false}},{"station":{"evaNumber":"8000302","name":"Plochingen","coordinates":{"lng":9.411113,"lat":48.712869},"ril100":"TP"},"arrival":{"platform":"9","scheduledTime":"2023-10-18T15:42:00.000Z","time":"2023-10-18T15:42:00.000Z","reihung":false},"departure":{"platform":"9","scheduledTime":"2023-10-18T15:45:00.000Z","time":"2023-10-18T15:45:00.000Z","reihung":false}},{"station":{"evaNumber":"8006331","name":"Wendlingen(Neckar)","coordinates":{"lng":9.373187,"lat":48.672588},"ril100":"TWD"},"arrival":{"platform":"2","scheduledTime":"2023-10-18T15:50:00.000Z","time":"2023-10-18T15:50:00.000Z","reihung":false},"departure":{"platform":"2","scheduledTime":"2023-10-18T15:51:00.000Z","time":"2023-10-18T15:51:00.000Z","reihung":false}},{"station":{"evaNumber":"8004488","name":"Nürtingen","coordinates":{"lng":9.342678,"lat":48.628082},"ril100":"TNU"},"arrival":{"platform":"1","scheduledTime":"2023-10-18T15:55:00.000Z","time":"2023-10-18T15:55:00.000Z","reihung":false},"departure":{"platform":"1","scheduledTime":"2023-10-18T15:56:00.000Z","time":"2023-10-18T15:56:00.000Z","reihung":false}},{"station":{"evaNumber":"8004009","name":"Metzingen(Württ)","coordinates":{"lng":9.290127,"lat":48.539754},"ril100":"TME"},"arrival":{"platform":"2","scheduledTime":"2023-10-18T16:04:00.000Z","time":"2023-10-18T16:04:00.000Z","reihung":false},"departure":{"platform":"2","scheduledTime":"2023-10-18T16:05:00.000Z","time":"2023-10-18T16:05:00.000Z","reihung":false}},{"station":{"evaNumber":"8000314","name":"Reutlingen Hbf","coordinates":{"lng":9.209188,"lat":48.496049},"ril100":"TRE"},"arrival":{"platform":"2","scheduledTime":"2023-10-18T16:11:00.000Z","time":"2023-10-18T16:11:00.000Z","reihung":false},"departure":{"platform":"2","scheduledTime":"2023-10-18T16:12:00.000Z","time":"2023-10-18T16:12:00.000Z","reihung":false}},{"station":{"evaNumber":"8000141","name":"Tübingen Hbf","coordinates":{"lng":9.056003,"lat":48.515663},"ril100":"TT"},"arrival":{"platform":"2","scheduledTime":"2023-10-18T16:22:00.000Z","time":"2023-10-18T16:22:00.000Z","reihung":false}}],"finalDestination":"Tübingen Hbf","jid":"1|1119146|0|80|18102023","messages":[{"type":"A","code":"FB","prio":260,"icoX":4,"txtN":"Fahrradmitnahme begrenzt möglich"},{"type":"A","code":"EH","prio":560,"icoX":5,"txtN":"Fahrzeuggebundene Einstiegshilfe vorhanden"},{"type":"A","code":"EA","prio":560,"icoX":5,"txtN":"Behindertengerechte Ausstattung"},{"type":"A","code":"KL","prio":610,"icoX":5,"txtN":"Klimaanlage"}],"type":"JNY"}],"segmentTypes":["RE","MEX"]},{"checksum":"8f7c1d90_3","cid":"C-2","date":"2023-10-17T22:00:00.000Z","duration":9120000,"changes":3,"isRideable":true,"arrival":{"platform":"5","scheduledTime":"2023-10-18T15:39:00.000Z","time":"2023-10-18T15:39:00.000Z","reihung":false},"departure":{"platform":"8","scheduledTime":"2023-10-18T13:07:00.000Z","time":"2023-10-18T13:07:00.000Z","reihung":false},"segments":[{"arrival":{"platform":"4","scheduledTime":"2023-10-18T13:28:00.000Z","time":"2023-10-18T13:28:00.000Z","reihung":false},"departure":{"platform":"8","scheduledTime":"2023-10-18T13:07:00.000Z","time":"2023-10-18T13:07:00.000Z","reihung":false},"duration":1260000,"train":{"name":"RE 73","line":"73","admin":"800572","number":"26141","type":"RE","operator":{"name":"DB Regio AG Mitte","icoX":2}},"changeDuration":2,"segmentStart":{"name":"Heidelberg Hbf","evaNumber":"8000156"},"segmentDestination":{"name":"Bruchsal","evaNumber":"8000055"},"stops":[{"station":{"evaNumber":"8000156","name":"Heidelberg Hbf","coordinates":{"lng":8.67548,"lat":49.403582},"ril100":"RH"},"departure":{"platform":"8","scheduledTime":"2023-10-18T13:07:00.000Z","time":"2023-10-18T13:07:00.000Z","reihung":false}},{"station":{"evaNumber":"8006421","name":"Wiesloch-Walldorf","coordinates":{"lng":8.664217,"lat":49.291028},"ril100":"RWS"},"arrival":{"platform":"2","scheduledTime":"2023-10-18T13:14:00.000Z","time":"2023-10-18T13:14:00.000Z","reihung":false},"departure":{"platform":"2","scheduledTime":"2023-10-18T13:15:00.000Z","time":"2023-10-18T13:15:00.000Z","reihung":false}},{"station":{"evaNumber":"8004032","name":"Bad Schönborn-Kronau","coordinates":{"lng":8.646886,"lat":49.219564}},"arrival":{"platform":"2","scheduledTime":"2023-10-18T13:19:00.000Z","time":"2023-10-18T13:19:00.000Z","reihung":false},"departure":{"platform":"2","scheduledTime":"2023-10-18T13:20:00.000Z","time":"2023-10-18T13:20:00.000Z","reihung":false}},{"station":{"evaNumber":"8000055","name":"Bruchsal","coordinates":{"lng":8.589687,"lat":49.124592},"ril100":"RBR"},"arrival":{"platform":"4","scheduledTime":"2023-10-18T13:28:00.000Z","time":"2023-10-18T13:28:00.000Z","reihung":false}}],"finalDestination":"Karlsruhe Hbf","jid":"1|253002|0|80|18102023","messages":[{"type":"A","code":"FB","prio":260,"icoX":4,"txtN":"Fahrradmitnahme begrenzt möglich"},{"type":"A","code":"EH","prio":560,"icoX":5,"txtN":"Fahrzeuggebundene Einstiegshilfe vorhanden"},{"type":"A","code":"LS","prio":605,"icoX":5,"txtN":"Laptop-Steckdosen"},{"type":"A","code":"KL","prio":610,"icoX":5,"txtN":"Klimaanlage"}],"type":"JNY"},{"arrival":{"platform":"3","scheduledTime":"2023-10-18T13:54:00.000Z","time":"2023-10-18T13:54:00.000Z","reihung":false},"departure":{"platform":"5b","scheduledTime":"2023-10-18T13:30:00.000Z","time":"2023-10-18T13:30:00.000Z","reihung":false},"duration":1440000,"train":{"name":"RE 17b","line":"17b","admin":"SBSRE","number":"19649","type":"RE","operator":{"name":"SWEG Bahn Stuttgart GmbH","icoX":10}},"changeDuration":9,"segmentStart":{"name":"Bruchsal","evaNumber":"8000055"},"segmentDestination":{"name":"Mühlacker","evaNumber":"8000339"},"stops":[{"station":{"evaNumber":"8000055","name":"Bruchsal","coordinates":{"lng":8.589687,"lat":49.124592},"ril100":"RBR"},"departure":{"platform":"5b","scheduledTime":"2023-10-18T13:30:00.000Z","time":"2023-10-18T13:30:00.000Z","reihung":false}},{"station":{"evaNumber":"8000053","name":"Bretten","coordinates":{"lng":8.693144,"lat":49.036921},"ril100":"RBT"},"arrival":{"platform":"5","scheduledTime":"2023-10-18T13:43:00.000Z","time":"2023-10-18T13:43:00.000Z","reihung":false},"departure":{"platform":"5","scheduledTime":"2023-10-18T13:43:00.000Z","time":"2023-10-18T13:43:00.000Z","reihung":false}},{"station":{"evaNumber":"8000339","name":"Mühlacker","coordinates":{"lng":8.845826,"lat":48.953132},"ril100":"TM"},"arrival":{"platform":"3","scheduledTime":"2023-10-18T13:54:00.000Z","time":"2023-10-18T13:54:00.000Z","reihung":false}}],"finalDestination":"Mühlacker","jid":"1|1119558|0|80|18102023","messages":[{"type":"A","code":"FB","prio":260,"icoX":4,"txtN":"Fahrradmitnahme begrenzt möglich"},{"type":"A","code":"EH","prio":560,"icoX":5,"txtN":"Fahrzeuggebundene Einstiegshilfe vorhanden"},{"type":"A","code":"EA","prio":560,"icoX":5,"txtN":"Behindertengerechte Ausstattung"},{"type":"A","code":"KL","prio":610,"icoX":5,"txtN":"Klimaanlage"}],"type":"JNY"},{"arrival":{"platform":"4","scheduledTime":"2023-10-18T14:25:00.000Z","time":"2023-10-18T14:25:00.000Z","reihung":false},"departure":{"platform":"1","scheduledTime":"2023-10-18T14:03:00.000Z","time":"2023-10-18T14:03:00.000Z","reihung":false},"duration":1320000,"train":{"name":"IRE 1","line":"1","admin":"GAIRE","number":"19021","type":"IRE","operator":{"name":"Go-Ahead Baden-Württemberg GmbH","icoX":7}},"changeDuration":11,"segmentStart":{"name":"Mühlacker","evaNumber":"8000339"},"segmentDestination":{"name":"Stuttgart Hbf","evaNumber":"8000096"},"stops":[{"station":{"evaNumber":"8000339","name":"Mühlacker","coordinates":{"lng":8.845826,"lat":48.953132},"ril100":"TM"},"departure":{"platform":"1","scheduledTime":"2023-10-18T14:03:00.000Z","time":"2023-10-18T14:03:00.000Z","reihung":false}},{"station":{"evaNumber":"8006053","name":"Vaihingen(Enz)","coordinates":{"lng":8.959009,"lat":48.947271},"ril100":"TV"},"arrival":{"platform":"2","scheduledTime":"2023-10-18T14:08:00.000Z","time":"2023-10-18T14:08:00.000Z","reihung":false},"departure":{"platform":"2","scheduledTime":"2023-10-18T14:10:00.000Z","time":"2023-10-18T14:10:00.000Z","reihung":false}},{"station":{"evaNumber":"8000096","name":"Stuttgart Hbf","coordinates":{"lng":9.182589,"lat":48.785052},"ril100":"TS"},"arrival":{"platform":"4","scheduledTime":"2023-10-18T14:25:00.000Z","time":"2023-10-18T14:25:00.000Z","reihung":false}}],"finalDestination":"Stuttgart Hbf","jid":"1|398839|0|80|18102023","messages":[{"type":"A","code":"FB","prio":260,"icoX":4,"txtN":"Fahrradmitnahme begrenzt möglich"},{"type":"A","code":"GL","prio":330,"icoX":5,"txtN":"Beförderung von Gruppen eingeschränkt"},{"type":"A","code":"RG","prio":560,"icoX":5,"txtN":"Behindertengerechtes Fahrzeug"}],"type":"JNY"},{"arrival":{"platform":"5","scheduledTime":"2023-10-18T15:39:00.000Z","time":"2023-10-18T15:39:00.000Z","reihung":false},"departure":{"platform":"14","scheduledTime":"2023-10-18T14:36:00.000Z","time":"2023-10-18T14:36:00.000Z","reihung":false},"duration":3780000,"train":{"name":"MEX 12","line":"12","admin":"SBSMEX","number":"89477","type":"MEX","operator":{"name":"SWEG Bahn Stuttgart GmbH","icoX":10}},"segmentStart":{"name":"Stuttgart Hbf","evaNumber":"8000096"},"segmentDestination":{"name":"Tübingen Hbf","evaNumber":"8000141"},"stops":[{"station":{"evaNumber":"8000096","name":"Stuttgart Hbf","coordinates":{"lng":9.182589,"lat":48.785052},"ril100":"TS"},"departure":{"platform":"14","scheduledTime":"2023-10-18T14:36:00.000Z","time":"2023-10-18T14:36:00.000Z","reihung":false}},{"station":{"evaNumber":"8000302","name":"Plochingen","coordinates":{"lng":9.411113,"lat":48.712869},"ril100":"TP"},"arrival":{"platform":"10","scheduledTime":"2023-10-18T14:57:00.000Z","time":"2023-10-18T14:57:00.000Z","reihung":false},"departure":{"platform":"10","scheduledTime":"2023-10-18T14:58:00.000Z","time":"2023-10-18T14:58:00.000Z","reihung":false}},{"station":{"evaNumber":"8004488","name":"Nürtingen","coordinates":{"lng":9.342678,"lat":48.628082},"ril100":"TNU"},"arrival":{"platform":"1","scheduledTime":"2023-10-18T15:08:00.000Z","time":"2023-10-18T15:08:00.000Z","reihung":false},"departure":{"platform":"1","scheduledTime":"2023-10-18T15:09:00.000Z","time":"2023-10-18T15:09:00.000Z","reihung":false}},{"station":{"evaNumber":"8004009","name":"Metzingen(Württ)","coordinates":{"lng":9.290127,"lat":48.539754},"ril100":"TME"},"arrival":{"platform":"2","scheduledTime":"2023-10-18T15:17:00.000Z","time":"2023-10-18T15:17:00.000Z","reihung":false},"departure":{"platform":"2","scheduledTime":"2023-10-18T15:18:00.000Z","time":"2023-10-18T15:18:00.000Z","reihung":false}},{"station":{"evaNumber":"8000314","name":"Reutlingen Hbf","coordinates":{"lng":9.209188,"lat":48.496049},"ril100":"TRE"},"arrival":{"platform":"2","scheduledTime":"2023-10-18T15:24:00.000Z","time":"2023-10-18T15:24:00.000Z","reihung":false},"departure":{"platform":"2","scheduledTime":"2023-10-18T15:24:00.000Z","time":"2023-10-18T15:24:00.000Z","reihung":false}},{"station":{"evaNumber":"8000141","name":"Tübingen Hbf","coordinates":{"lng":9.056003,"lat":48.515663},"ril100":"TT"},"arrival":{"platform":"5","scheduledTime":"2023-10-18T15:39:00.000Z","time":"2023-10-18T15:39:00.000Z","reihung":false}}],"finalDestination":"Tübingen Hbf","jid":"1|1119942|0|80|18102023","messages":[{"type":"A","code":"FB","prio":260,"icoX":4,"txtN":"Fahrradmitnahme begrenzt möglich"},{"type":"A","code":"EZ","prio":400,"icoX":5,"txtN":"Ersatzzug"}],"type":"JNY"}],"segmentTypes":["RE","RE","IRE","MEX"]},{"checksum":"7245a314_3","cid":"C-3","date":"2023-10-17T22:00:00.000Z","duration":6000000,"changes":1,"isRideable":true,"arrival":{"platform":"5","scheduledTime":"2023-10-18T14:53:00.000Z","time":"2023-10-18T14:53:00.000Z","reihung":false},"departure":{"platform":"7","scheduledTime":"2023-10-18T13:13:00.000Z","time":"2023-10-18T13:13:00.000Z","reihung":false},"segments":[{"arrival":{"platform":"5","scheduledTime":"2023-10-18T13:58:00.000Z","time":"2023-10-18T13:58:00.000Z","reihung":false},"departure":{"platform":"7","scheduledTime":"2023-10-18T13:13:00.000Z","time":"2023-10-18T13:13:00.000Z","reihung":false},"duration":2700000,"train":{"name":"EC 117","line":"62","admin":"80","number":"117","type":"EC","operator":{"name":"DB Fernverkehr AG","icoX":14}},"changeDuration":5,"segmentStart":{"name":"Heidelberg Hbf","evaNumber":"8000156"},"segmentDestination":{"name":"Esslingen(Neckar)","evaNumber":"8001920"},"stops":[{"station":{"evaNumber":"8000156","name":"Heidelberg Hbf","coordinates":{"lng":8.67548,"lat":49.403582},"ril100":"RH"},"departure":{"platform":"7","scheduledTime":"2023-10-18T13:13:00.000Z","time":"2023-10-18T13:13:00.000Z","reihung":false},"auslastung":{"first":1,"second":1}},{"station":{"evaNumber":"8001920","name":"Esslingen(Neckar)","coordinates":{"lng":9.299952,"lat":48.738695},"ril100":"TE"},"arrival":{"platform":"5","scheduledTime":"2023-10-18T13:58:00.000Z","time":"2023-10-18T13:58:00.000Z","reihung":false}}],"finalDestination":"Klagenfurt Hbf","jid":"1|350215|0|80|18102023","auslastung":{"first":1,"second":1},"messages":[{"type":"A","code":"CK","prio":200,"icoX":5,"txtN":"Sicher & kontaktlos ohne Ticketkontrolle reisen mit Komfort Check-in"},{"type":"A","code":"FR","prio":260,"icoX":15,"txtN":"Fahrradmitnahme reservierungspflichtig"},{"type":"A","code":"FB","prio":260,"icoX":4,"txtN":"Fahrradmitnahme begrenzt möglich"},{"type":"A","code":"BT","prio":450,"icoX":16,"txtN":"Bordbistro"}],"type":"JNY"},{"arrival":{"platform":"5","scheduledTime":"2023-10-18T14:53:00.000Z","time":"2023-10-18T14:53:00.000Z","reihung":false},"departure":{"platform":"6","scheduledTime":"2023-10-18T14:03:00.000Z","time":"2023-10-18T14:03:00.000Z","reihung":false},"duration":3000000,"train":{"name":"MEX 12","line":"12","admin":"SBSMEX","number":"19229","type":"MEX","operator":{"name":"SWEG Bahn Stuttgart GmbH","icoX":10}},"segmentStart":{"name":"Esslingen(Neckar)","evaNumber":"8001920"},"segmentDestination":{"name":"Tübingen Hbf","evaNumber":"8000141"},"stops":[{"station":{"evaNumber":"8001920","name":"Esslingen(Neckar)","coordinates":{"lng":9.299952,"lat":48.738695},"ril100":"TE"},"departure":{"platform":"6","scheduledTime":"2023-10-18T14:03:00.000Z","time":"2023-10-18T14:03:00.000Z","reihung":false}},{"station":{"evaNumber":"8000302","name":"Plochingen","coordinates":{"lng":9.411113,"lat":48.712869},"ril100":"TP"},"arrival":{"platform":"9","scheduledTime":"2023-10-18T14:11:00.000Z","time":"2023-10-18T14:11:00.000Z","reihung":false},"departure":{"platform":"9","scheduledTime":"2023-10-18T14:12:00.000Z","time":"2023-10-18T14:12:00.000Z","reihung":false}},{"station":{"evaNumber":"8006331","name":"Wendlingen(Neckar)","coordinates":{"lng":9.373187,"lat":48.672588},"ril100":"TWD"},"arrival":{"platform":"2","scheduledTime":"2023-10-18T14:18:00.000Z","time":"2023-10-18T14:18:00.000Z","reihung":false},"departure":{"platform":"2","scheduledTime":"2023-10-18T14:18:00.000Z","time":"2023-10-18T14:18:00.000Z","reihung":false}},{"station":{"evaNumber":"8004517","name":"Oberboihingen","coordinates":{"lng":9.364279,"lat":48.647921},"ril100":"TOBB"},"arrival":{"platform":"2","scheduledTime":"2023-10-18T14:21:00.000Z","time":"2023-10-18T14:21:00.000Z","reihung":false},"departure":{"platform":"2","scheduledTime":"2023-10-18T14:21:00.000Z","time":"2023-10-18T14:21:00.000Z","reihung":false}},{"station":{"evaNumber":"8004488","name":"Nürtingen","coordinates":{"lng":9.342678,"lat":48.628082},"ril100":"TNU"},"arrival":{"platform":"1","scheduledTime":"2023-10-18T14:24:00.000Z","time":"2023-10-18T14:24:00.000Z","reihung":false},"departure":{"platform":"1","scheduledTime":"2023-10-18T14:24:00.000Z","time":"2023-10-18T14:24:00.000Z","reihung":false}},{"station":{"evaNumber":"8000865","name":"Bempflingen","coordinates":{"lng":9.273434,"lat":48.572583},"ril100":"TBEM"},"arrival":{"platform":"1","scheduledTime":"2023-10-18T14:31:00.000Z","time":"2023-10-18T14:31:00.000Z","reihung":false},"departure":{"platform":"1","scheduledTime":"2023-10-18T14:31:00.000Z","time":"2023-10-18T14:31:00.000Z","reihung":false}},{"station":{"evaNumber":"8004009","name":"Metzingen(Württ)","coordinates":{"lng":9.290127,"lat":48.539754},"ril100":"TME"},"arrival":{"platform":"2","scheduledTime":"2023-10-18T14:34:00.000Z","time":"2023-10-18T14:34:00.000Z","reihung":false},"departure":{"platform":"2","scheduledTime":"2023-10-18T14:35:00.000Z","time":"2023-10-18T14:35:00.000Z","reihung":false}},{"station":{"evaNumber":"8000314","name":"Reutlingen Hbf","coordinates":{"lng":9.209188,"lat":48.496049},"ril100":"TRE"},"arrival":{"platform":"2","scheduledTime":"2023-10-18T14:41:00.000Z","time":"2023-10-18T14:41:00.000Z","reihung":false},"departure":{"platform":"2","scheduledTime":"2023-10-18T14:42:00.000Z","time":"2023-10-18T14:42:00.000Z","reihung":false}},{"station":{"evaNumber":"8000141","name":"Tübingen Hbf","coordinates":{"lng":9.056003,"lat":48.515663},"ril100":"TT"},"arrival":{"platform":"5","scheduledTime":"2023-10-18T14:53:00.000Z","time":"2023-10-18T14:53:00.000Z","reihung":false}}],"finalDestination":"Tübingen Hbf","jid":"1|1118806|0|80|18102023","messages":[{"type":"A","code":"FB","prio":260,"icoX":4,"txtN":"Fahrradmitnahme begrenzt möglich"},{"type":"A","code":"EH","prio":560,"icoX":5,"txtN":"Fahrzeuggebundene Einstiegshilfe vorhanden"},{"type":"A","code":"EA","prio":560,"icoX":5,"txtN":"Behindertengerechte Ausstattung"},{"type":"A","code":"KL","prio":610,"icoX":5,"txtN":"Klimaanlage"}],"type":"JNY"}],"segmentTypes":["EC","MEX"]},{"checksum":"ef4f88cc_3","cid":"C-4","date":"2023-10-17T22:00:00.000Z","duration":9660000,"changes":2,"isRideable":true,"arrival":{"platform":"2","scheduledTime":"2023-10-18T15:59:00.000Z","time":"2023-10-18T15:59:00.000Z","reihung":false},"departure":{"platform":"8","scheduledTime":"2023-10-18T13:18:00.000Z","time":"2023-10-18T13:18:00.000Z","reihung":false},"segments":[{"arrival":{"platform":"6b","scheduledTime":"2023-10-18T13:54:00.000Z","time":"2023-10-18T13:54:00.000Z","reihung":false},"departure":{"platform":"8","scheduledTime":"2023-10-18T13:18:00.000Z","time":"2023-10-18T13:18:00.000Z","reihung":false},"duration":2160000,"train":{"name":"S 3","line":"3","admin":"801539","number":"38353","type":"S","operator":{"name":"DB Regio AG Mitte","icoX":2}},"changeDuration":16,"segmentStart":{"name":"Heidelberg Hbf","evaNumber":"8000156"},"segmentDestination":{"name":"Karlsruhe-Durlach","evaNumber":"8003184"},"stops":[{"station":{"evaNumber":"8000156","name":"Heidelberg Hbf","coordinates":{"lng":8.67548,"lat":49.403582},"ril100":"RH"},"departure":{"platform":"8","scheduledTime":"2023-10-18T13:18:00.000Z","time":"2023-10-18T13:18:00.000Z","reihung":false}},{"station":{"evaNumber":"8002686","name":"Heidelberg-Kirchheim/Rohrbach","coordinates":{"lng":8.675444,"lat":49.379913},"ril100":"RHKM"},"arrival":{"platform":"1","scheduledTime":"2023-10-18T13:20:00.000Z","time":"2023-10-18T13:20:00.000Z","reihung":false},"departure":{"platform":"1","scheduledTime":"2023-10-18T13:21:00.000Z","time":"2023-10-18T13:21:00.000Z","reihung":false}},{"station":{"evaNumber":"8005648","name":"St Ilgen-Sandhausen","coordinates":{"lng":8.668694,"lat":49.341125}},"arrival":{"platform":"2","scheduledTime":"2023-10-18T13:24:00.000Z","time":"2023-10-18T13:24:00.000Z","reihung":false},"departure":{"platform":"2","scheduledTime":"2023-10-18T13:24:00.000Z","time":"2023-10-18T13:24:00.000Z","reihung":false}},{"station":{"evaNumber":"8006421","name":"Wiesloch-Walldorf","coordinates":{"lng":8.664217,"lat":49.291028},"ril100":"RWS"},"arrival":{"platform":"2","scheduledTime":"2023-10-18T13:28:00.000Z","time":"2023-10-18T13:28:00.000Z","reihung":false},"departure":{"platform":"2","scheduledTime":"2023-10-18T13:28:00.000Z","time":"2023-10-18T13:28:00.000Z","reihung":false}},{"station":{"evaNumber":"8005181","name":"Rot-Malsch","coordinates":{"lng":8.652216,"lat":49.243367},"ril100":"RRM"},"arrival":{"platform":"1","scheduledTime":"2023-10-18T13:31:00.000Z","time":"2023-10-18T13:31:00.000Z","reihung":false},"departure":{"platform":"1","scheduledTime":"2023-10-18T13:32:00.000Z","time":"2023-10-18T13:32:00.000Z","reihung":false}},{"station":{"evaNumber":"8004032","name":"Bad Schönborn-Kronau","coordinates":{"lng":8.646886,"lat":49.219564}},"arrival":{"platform":"2","scheduledTime":"2023-10-18T13:34:00.000Z","time":"2023-10-18T13:34:00.000Z","reihung":false},"departure":{"platform":"2","scheduledTime":"2023-10-18T13:34:00.000Z","time":"2023-10-18T13:34:00.000Z","reihung":false}},{"station":{"evaNumber":"8003533","name":"Bad Schönborn Süd","coordinates":{"lng":8.641924,"lat":49.199994}},"arrival":{"platform":"2","scheduledTime":"2023-10-18T13:36:00.000Z","time":"2023-10-18T13:36:00.000Z","reihung":false},"departure":{"platform":"2","scheduledTime":"2023-10-18T13:37:00.000Z","time":"2023-10-18T13:37:00.000Z","reihung":false}},{"station":{"evaNumber":"8005933","name":"Stettfeld-Weiher","coordinates":{"lng":8.637159,"lat":49.183975},"ril100":"RSFW"},"arrival":{"platform":"2","scheduledTime":"2023-10-18T13:39:00.000Z","time":"2023-10-18T13:39:00.000Z","reihung":false},"departure":{"platform":"2","scheduledTime":"2023-10-18T13:39:00.000Z","time":"2023-10-18T13:39:00.000Z","reihung":false}},{"station":{"evaNumber":"8005931","name":"Ubstadt-Weiher","coordinates":{"lng":8.624017,"lat":49.167759}},"arrival":{"platform":"1","scheduledTime":"2023-10-18T13:41:00.000Z","time":"2023-10-18T13:41:00.000Z","reihung":false},"departure":{"platform":"1","scheduledTime":"2023-10-18T13:41:00.000Z","time":"2023-10-18T13:41:00.000Z","reihung":false}},{"station":{"evaNumber":"8000055","name":"Bruchsal","coordinates":{"lng":8.589687,"lat":49.124592},"ril100":"RBR"},"arrival":{"platform":"4","scheduledTime":"2023-10-18T13:45:00.000Z","time":"2023-10-18T13:45:00.000Z","reihung":false},"departure":{"platform":"4","scheduledTime":"2023-10-18T13:46:00.000Z","time":"2023-10-18T13:46:00.000Z","reihung":false}},{"station":{"evaNumber":"8003184","name":"Karlsruhe-Durlach","coordinates":{"lng":8.462292,"lat":49.002025},"ril100":"RKDU"},"arrival":{"platform":"6b","scheduledTime":"2023-10-18T13:54:00.000Z","time":"2023-10-18T13:54:00.000Z","reihung":false}}],"finalDestination":"Karlsruhe Hbf","jid":"1|254290|0|80|18102023","messages":[{"type":"A","code":"FB","prio":260,"icoX":4,"txtN":"Fahrradmitnahme begrenzt möglich"},{"type":"A","code":"EH","prio":560,"icoX":5,"txtN":"Fahrzeuggebundene Einstiegshilfe vorhanden"}],"type":"JNY"},{"arrival":{"platform":"15","scheduledTime":"2023-10-18T14:59:00.000Z","time":"2023-10-18T14:59:00.000Z","reihung":false},"departure":{"platform":"1","scheduledTime":"2023-10-18T14:10:00.000Z","time":"2023-10-18T14:10:00.000Z","reihung":false},"duration":2940000,"train":{"name":"IRE 1","line":"1","admin":"GAIRE","number":"19681","type":"IRE","operator":{"name":"Go-Ahead Baden-Württemberg GmbH","icoX":7}},"changeDuration":12,"segmentStart":{"name":"Karlsruhe-Durlach","evaNumber":"8003184"},"segmentDestination":{"name":"Stuttgart Hbf","evaNumber":"8000096"},"stops":[{"station":{"evaNumber":"8003184","name":"Karlsruhe-Durlach","coordinates":{"lng":8.462292,"lat":49.002025},"ril100":"RKDU"},"departure":{"platform":"1","scheduledTime":"2023-10-18T14:10:00.000Z","time":"2023-10-18T14:10:00.000Z","reihung":false}},{"station":{"evaNumber":"8000299","name":"Pforzheim Hbf","coordinates":{"lng":8.702969,"lat":48.894064},"ril100":"TPH"},"arrival":{"platform":"3","scheduledTime":"2023-10-18T14:26:00.000Z","time":"2023-10-18T14:26:00.000Z","reihung":false},"departure":{"platform":"3","scheduledTime":"2023-10-18T14:28:00.000Z","time":"2023-10-18T14:28:00.000Z","reihung":false}},{"station":{"evaNumber":"8000339","name":"Mühlacker","coordinates":{"lng":8.845826,"lat":48.953132},"ril100":"TM"},"arrival":{"platform":"1","scheduledTime":"2023-10-18T14:35:00.000Z","time":"2023-10-18T14:35:00.000Z","reihung":false},"departure":{"platform":"1","scheduledTime":"2023-10-18T14:36:00.000Z","time":"2023-10-18T14:36:00.000Z","reihung":false}},{"station":{"evaNumber":"8006053","name":"Vaihingen(Enz)","coordinates":{"lng":8.959009,"lat":48.947271},"ril100":"TV"},"arrival":{"platform":"2","scheduledTime":"2023-10-18T14:41:00.000Z","time":"2023-10-18T14:41:00.000Z","reihung":false},"departure":{"platform":"2","scheduledTime":"2023-10-18T14:42:00.000Z","time":"2023-10-18T14:42:00.000Z","reihung":false}},{"station":{"evaNumber":"8000096","name":"Stuttgart Hbf","coordinates":{"lng":9.182589,"lat":48.785052},"ril100":"TS"},"arrival":{"platform":"15","scheduledTime":"2023-10-18T14:59:00.000Z","time":"2023-10-18T14:59:00.000Z","reihung":false}}],"finalDestination":"Aalen Hbf","jid":"1|399433|0|80|18102023","messages":[{"type":"A","code":"FB","prio":260,"icoX":4,"txtN":"Fahrradmitnahme begrenzt möglich"},{"type":"A","code":"GL","prio":330,"icoX":5,"txtN":"Beförderung von Gruppen eingeschränkt"},{"type":"A","code":"RG","prio":560,"icoX":5,"txtN":"Behindertengerechtes Fahrzeug"}],"type":"JNY"},{"arrival":{"platform":"2","scheduledTime":"2023-10-18T15:59:00.000Z","time":"2023-10-18T15:59:00.000Z","reihung":false},"departure":{"platform":"13","scheduledTime":"2023-10-18T15:11:00.000Z","time":"2023-10-18T15:11:00.000Z","reihung":false},"duration":2880000,"train":{"name":"IRE 6","line":"6","admin":"SBSIRE","number":"19391","type":"IRE","operator":{"name":"SWEG Bahn Stuttgart GmbH","icoX":10}},"segmentStart":{"name":"Stuttgart Hbf","evaNumber":"8000096"},"segmentDestination":{"name":"Tübingen Hbf","evaNumber":"8000141"},"stops":[{"station":{"evaNumber":"8000096","name":"Stuttgart Hbf","coordinates":{"lng":9.182589,"lat":48.785052},"ril100":"TS"},"departure":{"platform":"13","scheduledTime":"2023-10-18T15:11:00.000Z","time":"2023-10-18T15:11:00.000Z","reihung":false}},{"station":{"evaNumber":"8004488","name":"Nürtingen","coordinates":{"lng":9.342678,"lat":48.628082},"ril100":"TNU"},"arrival":{"platform":"1","scheduledTime":"2023-10-18T15:32:00.000Z","time":"2023-10-18T15:32:00.000Z","reihung":false},"departure":{"platform":"1","scheduledTime":"2023-10-18T15:32:00.000Z","time":"2023-10-18T15:32:00.000Z","reihung":false}},{"station":{"evaNumber":"8004009","name":"Metzingen(Württ)","coordinates":{"lng":9.290127,"lat":48.539754},"ril100":"TME"},"arrival":{"platform":"2","scheduledTime":"2023-10-18T15:41:00.000Z","time":"2023-10-18T15:41:00.000Z","reihung":false},"departure":{"platform":"2","scheduledTime":"2023-10-18T15:42:00.000Z","time":"2023-10-18T15:42:00.000Z","reihung":false}},{"station":{"evaNumber":"8000314","name":"Reutlingen Hbf","coordinates":{"lng":9.209188,"lat":48.496049},"ril100":"TRE"},"arrival":{"platform":"2","scheduledTime":"2023-10-18T15:48:00.000Z","time":"2023-10-18T15:48:00.000Z","reihung":false},"departure":{"platform":"2","scheduledTime":"2023-10-18T15:48:00.000Z","time":"2023-10-18T15:48:00.000Z","reihung":false}},{"station":{"evaNumber":"8000141","name":"Tübingen Hbf","coordinates":{"lng":9.056003,"lat":48.515663},"ril100":"TT"},"arrival":{"platform":"2","scheduledTime":"2023-10-18T15:59:00.000Z","time":"2023-10-18T15:59:00.000Z","reihung":false}}],"finalDestination":"Tübingen Hbf","jid":"1|1119340|1|80|18102023","messages":[{"type":"A","code":"FB","prio":260,"icoX":4,"txtN":"Fahrradmitnahme begrenzt möglich"},{"type":"A","code":"EH","prio":560,"icoX":5,"txtN":"Fahrzeuggebundene Einstiegshilfe vorhanden"},{"type":"A","code":"EA","prio":560,"icoX":5,"txtN":"Behindertengerechte Ausstattung"},{"type":"A","code":"KL","prio":610,"icoX":5,"txtN":"Klimaanlage"}],"type":"JNY"}],"segmentTypes":["S","IRE","IRE"]},{"checksum":"1fc43435_3","cid":"C-5","date":"2023-10-17T22:00:00.000Z","duration":8280000,"changes":2,"isRideable":true,"arrival":{"platform":"5","scheduledTime":"2023-10-18T15:53:00.000Z","time":"2023-10-18T15:53:00.000Z","reihung":false},"departure":{"platform":"7","scheduledTime":"2023-10-18T13:35:00.000Z","time":"2023-10-18T13:35:00.000Z","reihung":false},"segments":[{"arrival":{"platform":"4","scheduledTime":"2023-10-18T13:57:00.000Z","time":"2023-10-18T13:57:00.000Z","reihung":false},"departure":{"platform":"7","scheduledTime":"2023-10-18T13:35:00.000Z","time":"2023-10-18T13:35:00.000Z","reihung":false},"duration":1320000,"train":{"name":"ICE 1944","line":"55","admin":"80","number":"1944","type":"ICE","operator":{"name":"DB Fernverkehr AG","icoX":14}},"changeDuration":20,"segmentStart":{"name":"Heidelberg Hbf","evaNumber":"8000156"},"segmentDestination":{"name":"Bruchsal","evaNumber":"8000055"},"stops":[{"station":{"evaNumber":"8000156","name":"Heidelberg Hbf","coordinates":{"lng":8.67548,"lat":49.403582},"ril100":"RH"},"departure":{"platform":"7","scheduledTime":"2023-10-18T13:35:00.000Z","time":"2023-10-18T13:35:00.000Z","reihung":false},"auslastung":{"first":1,"second":1}},{"station":{"evaNumber":"8000055","name":"Bruchsal","coordinates":{"lng":8.589687,"lat":49.124592},"ril100":"RBR"},"arrival":{"platform":"4","scheduledTime":"2023-10-18T13:57:00.000Z","time":"2023-10-18T13:57:00.000Z","reihung":false}}],"finalDestination":"Offenburg","jid":"1|199721|0|80|18102023","auslastung":{"first":1,"second":1},"messages":[{"type":"A","code":"CK","prio":200,"icoX":5,"txtN":"Sicher & kontaktlos ohne Ticketkontrolle reisen mit Komfort Check-in"}],"type":"JNY"},{"arrival":{"platform":"5","scheduledTime":"2023-10-18T14:57:00.000Z","time":"2023-10-18T14:57:00.000Z","reihung":false},"departure":{"platform":"3","scheduledTime":"2023-10-18T14:17:00.000Z","time":"2023-10-18T14:17:00.000Z","reihung":false},"duration":2400000,"train":{"name":"ICE 569","line":"60","admin":"80","number":"569","type":"ICE","operator":{"name":"DB Fernverkehr AG","icoX":14}},"changeDuration":8,"segmentStart":{"name":"Bruchsal","evaNumber":"8000055"},"segmentDestination":{"name":"Esslingen(Neckar)","evaNumber":"8001920"},"stops":[{"station":{"evaNumber":"8000055","name":"Bruchsal","coordinates":{"lng":8.589687,"lat":49.124592},"ril100":"RBR"},"departure":{"platform":"3","scheduledTime":"2023-10-18T14:17:00.000Z","time":"2023-10-18T14:17:00.000Z","reihung":false},"auslastung":{"first":1,"second":1}},{"station":{"evaNumber":"8001920","name":"Esslingen(Neckar)","coordinates":{"lng":9.299952,"lat":48.738695},"ril100":"TE"},"arrival":{"platform":"5","scheduledTime":"2023-10-18T14:57:00.000Z","time":"2023-10-18T14:57:00.000Z","reihung":false}}],"finalDestination":"München Hbf","jid":"1|206452|0|80|18102023","auslastung":{"first":1,"second":1},"messages":[{"type":"A","code":"CK","prio":200,"icoX":5,"txtN":"Sicher & kontaktlos ohne Ticketkontrolle reisen mit Komfort Check-in"},{"type":"A","code":"BR","prio":450,"icoX":17,"txtN":"Bordrestaurant"}],"type":"JNY"},{"arrival":{"platform":"5","scheduledTime":"2023-10-18T15:53:00.000Z","time":"2023-10-18T15:53:00.000Z","reihung":false},"departure":{"platform":"6","scheduledTime":"2023-10-18T15:05:00.000Z","time":"2023-10-18T15:05:00.000Z","reihung":false},"duration":2880000,"train":{"name":"MEX 12","line":"12","admin":"SBSMEX","number":"19231","type":"MEX","operator":{"name":"SWEG Bahn Stuttgart GmbH","icoX":10}},"segmentStart":{"name":"Esslingen(Neckar)","evaNumber":"8001920"},"segmentDestination":{"name":"Tübingen Hbf","evaNumber":"8000141"},"stops":[{"station":{"evaNumber":"8001920","name":"Esslingen(Neckar)","coordinates":{"lng":9.299952,"lat":48.738695},"ril100":"TE"},"departure":{"platform":"6","scheduledTime":"2023-10-18T15:05:00.000Z","time":"2023-10-18T15:05:00.000Z","reihung":false}},{"station":{"evaNumber":"8000302","name":"Plochingen","coordinates":{"lng":9.411113,"lat":48.712869},"ril100":"TP"},"arrival":{"platform":"9","scheduledTime":"2023-10-18T15:11:00.000Z","time":"2023-10-18T15:11:00.000Z","reihung":false},"departure":{"platform":"9","scheduledTime":"2023-10-18T15:12:00.000Z","time":"2023-10-18T15:12:00.000Z","reihung":false}},{"station":{"evaNumber":"8006331","name":"Wendlingen(Neckar)","coordinates":{"lng":9.373187,"lat":48.672588},"ril100":"TWD"},"arrival":{"platform":"2","scheduledTime":"2023-10-18T15:18:00.000Z","time":"2023-10-18T15:18:00.000Z","reihung":false},"departure":{"platform":"2","scheduledTime":"2023-10-18T15:18:00.000Z","time":"2023-10-18T15:18:00.000Z","reihung":false}},{"station":{"evaNumber":"8004517","name":"Oberboihingen","coordinates":{"lng":9.364279,"lat":48.647921},"ril100":"TOBB"},"arrival":{"platform":"2","scheduledTime":"2023-10-18T15:21:00.000Z","time":"2023-10-18T15:21:00.000Z","reihung":false},"departure":{"platform":"2","scheduledTime":"2023-10-18T15:21:00.000Z","time":"2023-10-18T15:21:00.000Z","reihung":false}},{"station":{"evaNumber":"8004488","name":"Nürtingen","coordinates":{"lng":9.342678,"lat":48.628082},"ril100":"TNU"},"arrival":{"platform":"1","scheduledTime":"2023-10-18T15:24:00.000Z","time":"2023-10-18T15:24:00.000Z","reihung":false},"departure":{"platform":"1","scheduledTime":"2023-10-18T15:24:00.000Z","time":"2023-10-18T15:24:00.000Z","reihung":false}},{"station":{"evaNumber":"8000865","name":"Bempflingen","coordinates":{"lng":9.273434,"lat":48.572583},"ril100":"TBEM"},"arrival":{"platform":"1","scheduledTime":"2023-10-18T15:31:00.000Z","time":"2023-10-18T15:31:00.000Z","reihung":false},"departure":{"platform":"1","scheduledTime":"2023-10-18T15:31:00.000Z","time":"2023-10-18T15:31:00.000Z","reihung":false}},{"station":{"evaNumber":"8004009","name":"Metzingen(Württ)","coordinates":{"lng":9.290127,"lat":48.539754},"ril100":"TME"},"arrival":{"platform":"2","scheduledTime":"2023-10-18T15:34:00.000Z","time":"2023-10-18T15:34:00.000Z","reihung":false},"departure":{"platform":"2","scheduledTime":"2023-10-18T15:35:00.000Z","time":"2023-10-18T15:35:00.000Z","reihung":false}},{"station":{"evaNumber":"8000314","name":"Reutlingen Hbf","coordinates":{"lng":9.209188,"lat":48.496049},"ril100":"TRE"},"arrival":{"platform":"2","scheduledTime":"2023-10-18T15:41:00.000Z","time":"2023-10-18T15:41:00.000Z","reihung":false},"departure":{"platform":"2","scheduledTime":"2023-10-18T15:42:00.000Z","time":"2023-10-18T15:42:00.000Z","reihung":false}},{"station":{"evaNumber":"8000141","name":"Tübingen Hbf","coordinates":{"lng":9.056003,"lat":48.515663},"ril100":"TT"},"arrival":{"platform":"5","scheduledTime":"2023-10-18T15:53:00.000Z","time":"2023-10-18T15:53:00.000Z","reihung":false}}],"finalDestination":"Tübingen Hbf","jid":"1|1118790|1|80|18102023","messages":[{"type":"A","code":"FB","prio":260,"icoX":4,"txtN":"Fahrradmitnahme begrenzt möglich"},{"type":"A","code":"EH","prio":560,"icoX":5,"txtN":"Fahrzeuggebundene Einstiegshilfe vorhanden"},{"type":"A","code":"EA","prio":560,"icoX":5,"txtN":"Behindertengerechte Ausstattung"},{"type":"A","code":"KL","prio":610,"icoX":5,"txtN":"Klimaanlage"}],"type":"JNY"}],"segmentTypes":["ICE","ICE","MEX"]}]}