{"context":{"earlier":"3|OB|MT#14#451600#451600#451730#451730#0#0#485#451576#1#0#251#0#0#-2147483648#1#2|PDH#bbe10b32f5270e429a5a473728022d1b|RD#18102023|RT#141653|US#0|RS#INIT","later":"3|OF|MT#14#451742#451742#451874#451874#0#0#485#451721#6#0#26#0#0#-2147483648#1#2|PDH#bbe10b32f5270e429a5a473728022d1b|RD#18102023|RT#141653|US#0|RS#INIT"},"routes":[{"checksum":"91a70e46_3","cid":"C-0","date":"2023-10-17T22:00:00.000Z","duration":7800000,"changes":1,"isRideable":true,"arrival":{"platform":"2","scheduledTime":"2023-10-18T14:50:00.000Z","time":"2023-10-18T14:50:00.000Z","reihung":false},"departure":{"platform":"8","scheduledTime":"2023-10-18T12:40:00.000Z","time":"2023-10-18T12:40:00.000Z","reihung":false},"segments":[{"arrival":{"platform":"3","scheduledTime":"2023-10-18T14:09:00.000Z","time":"2023-10-18T14:09:00.000Z","reihung":false},"departure":{"platform":"8","scheduledTime":"2023-10-18T12:40:00.000Z","time":"2023-10-18T12:40:00.000Z","reihung":false},"duration":5340000,"train":{"name":"S 10","line":"10","admin":"8006C6","number":"9721","type":"S","operator":{"name":"DB Regio AG Baden-Württemberg","icoX":2}},"changeDuration":7,"segmentStart":{"name":"Freiburg(Breisgau) Hbf","evaNumber":"8000107"},"segmentDestination":{"name":"Donaueschingen","evaNumber":"8000077"},"stops":[{"station":{"evaNumber":"8000107","name":"Freiburg(Breisgau) Hbf","coordinates":{"lng":7.841344,"lat":47.997974},"ril100":"RF"},"departure":{"platform":"8","scheduledTime":"2023-10-18T12:40:00.000Z","time":"2023-10-18T12:40:00.000Z","reihung":false}},{"station":{"evaNumber":"8002070","name":"Freiburg-Wiehre","coordinates":{"lng":7.854046,"lat":47.982261},"ril100":"RFWI"},"arrival":{"platform":"2","scheduledTime":"2023-10-18T12:44:00.000Z","time":"2023-10-18T12:44:00.000Z","reihung":false},"departure":{"platform":"2","scheduledTime":"2023-10-18T12:45:00.000Z","time":"2023-10-18T12:45:00.000Z","reihung":false}},{"station":{"evaNumber":"8002068","name":"Freiburg-Littenweiler","coordinates":{"lng":7.895145,"lat":47.981803},"ril100":"RFLT"},"arrival":{"platform":"1","scheduledTime":"2023-10-18T12:47:00.000Z","time":"2023-10-18T12:47:00.000Z","reihung":false},"departure":{"platform":"1","scheduledTime":"2023-10-18T12:48:00.000Z","time":"2023-10-18T12:48:00.000Z","reihung":false}},{"station":{"evaNumber":"8003293","name":"Kirchzarten","coordinates":{"lng":7.959103,"lat":47.967941},"ril100":"RKZ"},"arrival":{"platform":"1","scheduledTime":"2023-10-18T12:52:00.000Z","time":"2023-10-18T12:52:00.000Z","reihung":false},"departure":{"platform":"1","scheduledTime":"2023-10-18T12:53:00.000Z","time":"2023-10-18T12:53:00.000Z","reihung":false}},{"station":{"evaNumber":"8002844","name":"Himmelreich","coordinates":{"lng":7.991536,"lat":47.958638},"ril100":"RHIM"},"arrival":{"platform":"2","scheduledTime":"2023-10-18T12:56:00.000Z","time":"2023-10-18T12:56:00.000Z","reihung":false},"departure":{"platform":"2","scheduledTime":"2023-10-18T13:01:00.000Z","time":"2023-10-18T13:01:00.000Z","reihung":false}},{"station":{"evaNumber":"8002848","name":"Hinterzarten","coordinates":{"lng":8.106328,"lat":47.906159},"ril100":"RHIZ"},"arrival":{"platform":"1","scheduledTime":"2023-10-18T13:13:00.000Z","time":"2023-10-18T13:13:00.000Z","reihung":false},"departure":{"platform":"1","scheduledTime":"2023-10-18T13:15:00.000Z","time":"2023-10-18T13:15:00.000Z","reihung":false}},{"station":{"evaNumber":"8005876","name":"Titisee","coordinates":{"lng":8.154888,"lat":47.903075},"ril100":"RTIT"},"arrival":{"platform":"1","scheduledTime":"2023-10-18T13:19:00.000Z","time":"2023-10-18T13:19:00.000Z","reihung":false},"departure":{"platform":"1","scheduledTime":"2023-10-18T13:20:00.000Z","time":"2023-10-18T13:20:00.000Z","reihung":false}},{"station":{"evaNumber":"8004331","name":"Neustadt(Schwarzw)","coordinates":{"lng":8.210963,"lat":47.910285}},"arrival":{"platform":"2","scheduledTime":"2023-10-18T13:26:00.000Z","time":"2023-10-18T13:26:00.000Z","reihung":false},"departure":{"platform":"2","scheduledTime":"2023-10-18T13:30:00.000Z","time":"2023-10-18T13:30:00.000Z","reihung":false}},{"station":{"evaNumber":"8005136","name":"Rötenbach(Baden)","coordinates":{"lng":8.290176,"lat":47.892765},"ril100":"RROE"},"arrival":{"platform":"1","scheduledTime":"2023-10-18T13:39:00.000Z","time":"2023-10-18T13:39:00.000Z","reihung":false},"departure":{"platform":"1","scheduledTime":"2023-10-18T13:40:00.000Z","time":"2023-10-18T13:40:00.000Z","reihung":false}},{"station":{"evaNumber":"8003724","name":"Löffingen","coordinates":{"lng":8.341936,"lat":47.88356},"ril100":"RLGN"},"arrival":{"platform":"1","scheduledTime":"2023-10-18T13:43:00.000Z","time":"2023-10-18T13:43:00.000Z","reihung":false},"departure":{"platform":"1","scheduledTime":"2023-10-18T13:44:00.000Z","time":"2023-10-18T13:44:00.000Z","reihung":false}},{"station":{"evaNumber":"8000686","name":"Bachheim","coordinates":{"lng":8.399431,"lat":47.862067},"ril100":"RBH"},"arrival":{"platform":"1","scheduledTime":"2023-10-18T13:49:00.000Z","time":"2023-10-18T13:49:00.000Z","reihung":false},"departure":{"platform":"1","scheduledTime":"2023-10-18T13:50:00.000Z","time":"2023-10-18T13:50:00.000Z","reihung":false}},{"station":{"evaNumber":"8005963","name":"Unadingen","coordinates":{"lng":8.397965,"lat":47.881276}},"arrival":{"platform":"1","scheduledTime":"2023-10-18T13:52:00.000Z","time":"2023-10-18T13:52:00.000Z","reihung":false},"departure":{"platform":"1","scheduledTime":"2023-10-18T13:52:00.000Z","time":"2023-10-18T13:52:00.000Z","reihung":false}},{"station":{"evaNumber":"8001480","name":"Döggingen","coordinates":{"lng":8.441168,"lat":47.893637},"ril100":"RDGN"},"arrival":{"platform":"2","scheduledTime":"2023-10-18T13:57:00.000Z","time":"2023-10-18T13:57:00.000Z","reihung":false},"departure":{"platform":"2","scheduledTime":"2023-10-18T13:59:00.000Z","time":"2023-10-18T13:59:00.000Z","reihung":false}},{"station":{"evaNumber":"8003014","name":"Hüfingen Mitte","coordinates":{"lng":8.489979,"lat":47.928973},"ril100":"RHFM"},"arrival":{"platform":"2","scheduledTime":"2023-10-18T14:05:00.000Z","time":"2023-10-18T14:05:00.000Z","reihung":false},"departure":{"platform":"2","scheduledTime":"2023-10-18T14:06:00.000Z","time":"2023-10-18T14:06:00.000Z","reihung":false}},{"station":{"evaNumber":"8000077","name":"Donaueschingen","coordinates":{"lng":8.498869,"lat":47.947958},"ril100":"RDO"},"arrival":{"platform":"3","scheduledTime":"2023-10-18T14:09:00.000Z","time":"2023-10-18T14:09:00.000Z","reihung":false}}],"finalDestination":"Villingen(Schwarzw)","jid":"1|263805|7|80|18102023","messages":[{"type":"A","code":"FB","prio":260,"icoX":6,"txtN":"Fahrradmitnahme begrenzt möglich"},{"type":"A","code":"TV","prio":400,"icoX":7,"txtN":"Vorderer Zugteil (Titisee - Donaueschingen)"},{"type":"A","code":"EH","prio":560,"icoX":7,"txtN":"Fahrzeuggebundene Einstiegshilfe vorhanden"},{"type":"M","code":"","icoX":8,"txtS":"S 10: Freiburg(Breisgau) Hbf->Titisee: Information.","txtN":"Erfahrungsgemäß hat dieser Zug eine mittlere bis hohe Auslastung.","sIdx":0}],"type":"JNY"},{"arrival":{"platform":"2","scheduledTime":"2023-10-18T14:50:00.000Z","time":"2023-10-18T14:50:00.000Z","reihung":false},"departure":{"platform":"2","scheduledTime":"2023-10-18T14:16:00.000Z","time":"2023-10-18T14:16:00.000Z","reihung":false},"duration":2040000,"train":{"name":"RE 2","line":"2","admin":"800647","number":"4729","type":"RE","operator":{"name":"DB Regio AG Baden-Württemberg","icoX":2}},"segmentStart":{"name":"Donaueschingen","evaNumber":"8000077"},"segmentDestination":{"name":"Singen(Hohentwiel)","evaNumber":"8000073"},"stops":[{"station":{"evaNumber":"8000077","name":"Donaueschingen","coordinates":{"lng":8.498869,"lat":47.947958},"ril100":"RDO"},"departure":{"platform":"2","scheduledTime":"2023-10-18T14:16:00.000Z","time":"2023-10-18T14:16:00.000Z","reihung":false}},{"station":{"evaNumber":"8000182","name":"Immendingen","coordinates":{"lng":8.729488,"lat":47.93621},"ril100":"RIM"},"arrival":{"platform":"4","scheduledTime":"2023-10-18T14:27:00.000Z","time":"2023-10-18T14:27:00.000Z","reihung":false},"departure":{"platform":"4","scheduledTime":"2023-10-18T14:28:00.000Z","time":"2023-10-18T14:28:00.000Z","reihung":false}},{"station":{"evaNumber":"8001790","name":"Engen","coordinates":{"lng":8.772789,"lat":47.856349},"ril100":"RENG"},"arrival":{"platform":"3","scheduledTime":"2023-10-18T14:40:00.000Z","time":"2023-10-18T14:40:00.000Z","reihung":false},"departure":{"platform":"3","scheduledTime":"2023-10-18T14:40:00.000Z","time":"2023-10-18T14:40:00.000Z","reihung":false}},{"station":{"evaNumber":"8000073","name":"Singen(Hohentwiel)","coordinates":{"lng":8.841116,"lat":47.758888},"ril100":"RSI"},"arrival":{"platform":"2","scheduledTime":"2023-10-18T14:50:00.000Z","time":"2023-10-18T14:50:00.000Z","reihung":false}}],"finalDestination":"Konstanz-Petershausen","jid":"1|262496|1|80|18102023","messages":[{"type":"A","code":"FB","prio":260,"icoX":6,"txtN":"Fahrradmitnahme begrenzt möglich"},{"type":"A","code":"EH","prio":560,"icoX":7,"txtN":"Fahrzeuggebundene Einstiegshilfe vorhanden"}],"type":"JNY"}],"segmentTypes":["S","RE"]},{"checksum":"dc3f6e47_3","cid":"C-1","date":"2023-10-17T22:00:00.000Z","duration":7980000,"changes":1,"isRideable":true,"arrival":{"platform":"5","scheduledTime":"2023-10-18T15:14:00.000Z","time":"2023-10-18T15:14:00.000Z","reihung":false},"departure":{"platform":"3","scheduledTime":"2023-10-18T13:01:00.000Z","time":"2023-10-18T13:01:00.000Z","reihung":false},"segments":[{"arrival":{"platform":"3","scheduledTime":"2023-10-18T13:36:00.000Z","time":"2023-10-18T13:36:00.000Z","reihung":false},"departure":{"platform":"3","scheduledTime":"2023-10-18T13:01:00.000Z","time":"2023-10-18T13:01:00.000Z","reihung":false},"duration":2100000,"train":{"name":"ICE 279","line":"12","admin":"80","number":"279","type":"ICE","operator":{"name":"DB Fernverkehr AG","icoX":11}},"changeDuration":13,"segmentStart":{"name":"Freiburg(Breisgau) Hbf","evaNumber":"8000107"},"segmentDestination":{"name":"Basel Bad Bf","evaNumber":"8000026"},"stops":[{"station":{"evaNumber":"8000107","name":"Freiburg(Breisgau) Hbf","coordinates":{"lng":7.841344,"lat":47.997974},"ril100":"RF"},"departure":{"platform":"3","scheduledTime":"2023-10-18T13:01:00.000Z","time":"2023-10-18T13:01:00.000Z","reihung":false},"auslastung":{"first":1,"second":1}},{"station":{"evaNumber":"8000026","name":"Basel Bad Bf","coordinates":{"lng":7.607886,"lat":47.567679},"ril100":"RB"},"arrival":{"platform":"3","scheduledTime":"2023-10-18T13:36:00.000Z","time":"2023-10-18T13:36:00.000Z","reihung":false}}],"finalDestination":"Basel SBB","jid":"1|204304|0|80|18102023","auslastung":{"first":1,"second":1},"messages":[{"type":"A","code":"CK","prio":200,"icoX":7,"txtN":"Sicher & kontaktlos ohne Ticketkontrolle reisen mit Komfort Check-in"},{"type":"A","code":"FR","prio":260,"icoX":12,"txtN":"Fahrradmitnahme reservierungspflichtig"},{"type":"A","code":"FB","prio":260,"icoX":6,"txtN":"Fahrradmitnahme begrenzt möglich"},{"type":"A","code":"BR","prio":450,"icoX":13,"txtN":"Bordrestaurant"},{"type":"A","code":"EH","prio":560,"icoX":7,"txtN":"Fahrzeuggebundene Einstiegshilfe vorhanden"}],"type":"JNY"},{"arrival":{"platform":"5","scheduledTime":"2023-10-18T15:14:00.000Z","time":"2023-10-18T15:14:00.000Z","reihung":false},"departure":{"platform":"7","scheduledTime":"2023-10-18T13:49:00.000Z","time":"2023-10-18T13:49:00.000Z","reihung":false},"duration":5100000,"train":{"name":"IRE 3","line":"3","admin":"800693","number":"3065","type":"IRE","operator":{"name":"DB Regio AG Baden-Württemberg","icoX":2}},"segmentStart":{"name":"Basel Bad Bf","evaNumber":"8000026"},"segmentDestination":{"name":"Singen(Hohentwiel)","evaNumber":"8000073"},"stops":[{"station":{"evaNumber":"8000026","name":"Basel Bad Bf","coordinates":{"lng":7.607886,"lat":47.567679},"ril100":"RB"},"departure":{"platform":"7","scheduledTime":"2023-10-18T13:49:00.000Z","time":"2023-10-18T13:49:00.000Z","reihung":false}},{"station":{"evaNumber":"8005064","name":"Rheinfelden(Baden)","coordinates":{"lng":7.784622,"lat":47.556937},"ril100":"RRH"},"arrival":{"platform":"1","scheduledTime":"2023-10-18T13:57:00.000Z","time":"2023-10-18T13:57:00.000Z","reihung":false},"departure":{"platform":"1","scheduledTime":"2023-10-18T13:59:00.000Z","time":"2023-10-18T13:59:00.000Z","reihung":false}},{"station":{"evaNumber":"8005255","name":"Bad Säckingen","coordinates":{"lng":7.94864,"lat":47.555858},"ril100":"RSAE"},"arrival":{"platform":"1","scheduledTime":"2023-10-18T14:08:00.000Z","time":"2023-10-18T14:08:00.000Z","reihung":false},"departure":{"platform":"1","scheduledTime":"2023-10-18T14:09:00.000Z","time":"2023-10-18T14:09:00.000Z","reihung":false}},{"station":{"evaNumber":"8006167","name":"Waldshut","coordinates":{"lng":8.219512,"lat":47.621219},"ril100":"RWU"},"arrival":{"platform":"1","scheduledTime":"2023-10-18T14:25:00.000Z","time":"2023-10-18T14:25:00.000Z","reihung":false},"departure":{"platform":"1","scheduledTime":"2023-10-18T14:29:00.000Z","time":"2023-10-18T14:29:00.000Z","reihung":false}},{"station":{"evaNumber":"8005871","name":"Tiengen(Hochrhein)","coordinates":{"lng":8.272018,"lat":47.635448},"ril100":"RTI"},"arrival":{"platform":"1","scheduledTime":"2023-10-18T14:33:00.000Z","time":"2023-10-18T14:33:00.000Z","reihung":false},"departure":{"platform":"1","scheduledTime":"2023-10-18T14:34:00.000Z","time":"2023-10-18T14:34:00.000Z","reihung":false}},{"station":{"evaNumber":"8001865","name":"Erzingen(Baden)","coordinates":{"lng":8.430713,"lat":47.660205},"ril100":"RERZ"},"arrival":{"platform":"2","scheduledTime":"2023-10-18T14:42:00.000Z","time":"2023-10-18T14:42:00.000Z","reihung":false},"departure":{"platform":"2","scheduledTime":"2023-10-18T14:44:00.000Z","time":"2023-10-18T14:44:00.000Z","reihung":false}},{"station":{"evaNumber":"8503424","name":"Schaffhausen","coordinates":{"lng":8.632899,"lat":47.698921},"ril100":"XSS"},"arrival":{"platform":"4","scheduledTime":"2023-10-18T14:58:00.000Z","time":"2023-10-18T14:58:00.000Z","reihung":false},"departure":{"platform":"4","scheduledTime":"2023-10-18T15:00:00.000Z","time":"2023-10-18T15:00:00.000Z","reihung":false}},{"station":{"evaNumber":"8000073","name":"Singen(Hohentwiel)","coordinates":{"lng":8.841116,"lat":47.758888},"ril100":"RSI"},"arrival":{"platform":"5","scheduledTime":"2023-10-18T15:14:00.000Z","time":"2023-10-18T15:14:00.000Z","reihung":false}}],"finalDestination":"Ulm Hbf","jid":"1|1580066|0|80|18102023","messages":[{"type":"A","code":"FB","prio":260,"icoX":6,"txtN":"Fahrradmitnahme begrenzt möglich"},{"type":"A","code":"EH","prio":560,"icoX":7,"txtN":"Fahrzeuggebundene Einstiegshilfe vorhanden"}],"type":"JNY"}],"segmentTypes":["ICE","IRE"]},{"checksum":"1ce071b1_3","cid":"C-2","date":"2023-10-17T22:00:00.000Z","duration":7800000,"changes":1,"isRideable":true,"arrival":{"platform":"2","scheduledTime":"2023-10-18T15:50:00.000Z","time":"2023-10-18T15:50:00.000Z","reihung":false},"departure":{"platform":"8","scheduledTime":"2023-10-18T13:40:00.000Z","time":"2023-10-18T13:40:00.000Z","reihung":false},"segments":[{"arrival":{"platform":"3","scheduledTime":"2023-10-18T15:09:00.000Z","time":"2023-10-18T15:09:00.000Z","reihung":false},"departure":{"platform":"8","scheduledTime":"2023-10-18T13:40:00.000Z","time":"2023-10-18T13:40:00.000Z","reihung":false},"duration":5340000,"train":{"name":"S 10","line":"10","admin":"8006C6","number":"9723","type":"S","operator":{"name":"DB Regio AG Baden-Württemberg","icoX":2}},"changeDuration":7,"segmentStart":{"name":"Freiburg(Breisgau) Hbf","evaNumber":"8000107"},"segmentDestination":{"name":"Donaueschingen","evaNumber":"8000077"},"stops":[{"station":{"evaNumber":"8000107","name":"Freiburg(Breisgau) Hbf","coordinates":{"lng":7.841344,"lat":47.997974},"ril100":"RF"},"departure":{"platform":"8","scheduledTime":"2023-10-18T13:40:00.000Z","time":"2023-10-18T13:40:00.000Z","reihung":false}},{"station":{"evaNumber":"8002070","name":"Freiburg-Wiehre","coordinates":{"lng":7.854046,"lat":47.982261},"ril100":"RFWI"},"arrival":{"platform":"2","scheduledTime":"2023-10-18T13:44:00.000Z","time":"2023-10-18T13:44:00.000Z","reihung":false},"departure":{"platform":"2","scheduledTime":"2023-10-18T13:45:00.000Z","time":"2023-10-18T13:45:00.000Z","reihung":false}},{"station":{"evaNumber":"8002068","name":"Freiburg-Littenweiler","coordinates":{"lng":7.895145,"lat":47.981803},"ril100":"RFLT"},"arrival":{"platform":"1","scheduledTime":"2023-10-18T13:47:00.000Z","time":"2023-10-18T13:47:00.000Z","reihung":false},"departure":{"platform":"1","scheduledTime":"2023-10-18T13:48:00.000Z","time":"2023-10-18T13:48:00.000Z","reihung":false}},{"station":{"evaNumber":"8003293","name":"Kirchzarten","coordinates":{"lng":7.959103,"lat":47.967941},"ril100":"RKZ"},"arrival":{"platform":"1","scheduledTime":"2023-10-18T13:52:00.000Z","time":"2023-10-18T13:52:00.000Z","reihung":false},"departure":{"platform":"1","scheduledTime":"2023-10-18T13:53:00.000Z","time":"2023-10-18T13:53:00.000Z","reihung":false}},{"station":{"evaNumber":"8002844","name":"Himmelreich","coordinates":{"lng":7.991536,"lat":47.958638},"ril100":"RHIM"},"arrival":{"platform":"2","scheduledTime":"2023-10-18T13:56:00.000Z","time":"2023-10-18T13:56:00.000Z","reihung":false},"departure":{"platform":"2","scheduledTime":"2023-10-18T14:01:00.000Z","time":"2023-10-18T14:01:00.000Z","reihung":false}},{"station":{"evaNumber":"8002848","name":"Hinterzarten","coordinates":{"lng":8.106328,"lat":47.906159},"ril100":"RHIZ"},"arrival":{"platform":"1","scheduledTime":"2023-10-18T14:13:00.000Z","time":"2023-10-18T14:13:00.000Z","reihung":false},"departure":{"platform":"1","scheduledTime":"2023-10-18T14:15:00.000Z","time":"2023-10-18T14:15:00.000Z","reihung":false}},{"station":{"evaNumber":"8005876","name":"Titisee","coordinates":{"lng":8.154888,"lat":47.903075},"ril100":"RTIT"},"arrival":{"platform":"1","scheduledTime":"2023-10-18T14:19:00.000Z","time":"2023-10-18T14:19:00.000Z","reihung":false},"departure":{"platform":"1","scheduledTime":"2023-10-18T14:20:00.000Z","time":"2023-10-18T14:20:00.000Z","reihung":false}},{"station":{"evaNumber":"8004331","name":"Neustadt(Schwarzw)","coordinates":{"lng":8.210963,"lat":47.910285}},"arrival":{"platform":"2","scheduledTime":"2023-10-18T14:26:00.000Z","time":"2023-10-18T14:26:00.000Z","reihung":false},"departure":{"platform":"2","scheduledTime":"2023-10-18T14:30:00.000Z","time":"2023-10-18T14:30:00.000Z","reihung":false}},{"station":{"evaNumber":"8005136","name":"Rötenbach(Baden)","coordinates":{"lng":8.290176,"lat":47.892765},"ril100":"RROE"},"arrival":{"platform":"1","scheduledTime":"2023-10-18T14:39:00.000Z","time":"2023-10-18T14:39:00.000Z","reihung":false},"departure":{"platform":"1","scheduledTime":"2023-10-18T14:40:00.000Z","time":"2023-10-18T14:40:00.000Z","reihung":false}},{"station":{"evaNumber":"8003724","name":"Löffingen","coordinates":{"lng":8.341936,"lat":47.88356},"ril100":"RLGN"},"arrival":{"platform":"1","scheduledTime":"2023-10-18T14:43:00.000Z","time":"2023-10-18T14:43:00.000Z","reihung":false},"departure":{"platform":"1","scheduledTime":"2023-10-18T14:44:00.000Z","time":"2023-10-18T14:44:00.000Z","reihung":false}},{"station":{"evaNumber":"8000686","name":"Bachheim","coordinates":{"lng":8.399431,"lat":47.862067},"ril100":"RBH"},"arrival":{"platform":"1","scheduledTime":"2023-10-18T14:49:00.000Z","time":"2023-10-18T14:49:00.000Z","reihung":false},"departure":{"platform":"1","scheduledTime":"2023-10-18T14:50:00.000Z","time":"2023-10-18T14:50:00.000Z","reihung":false}},{"station":{"evaNumber":"8005963","name":"Unadingen","coordinates":{"lng":8.397965,"lat":47.881276}},"arrival":{"platform":"1","scheduledTime":"2023-10-18T14:52:00.000Z","time":"2023-10-18T14:52:00.000Z","reihung":false},"departure":{"platform":"1","scheduledTime":"2023-10-18T14:52:00.000Z","time":"2023-10-18T14:52:00.000Z","reihung":false}},{"station":{"evaNumber":"8001480","name":"Döggingen","coordinates":{"lng":8.441168,"lat":47.893637},"ril100":"RDGN"},"arrival":{"platform":"2","scheduledTime":"2023-10-18T14:57:00.000Z","time":"2023-10-18T14:57:00.000Z","reihung":false},"departure":{"platform":"2","scheduledTime":"2023-10-18T14:59:00.000Z","time":"2023-10-18T14:59:00.000Z","reihung":false}},{"station":{"evaNumber":"8003014","name":"Hüfingen Mitte","coordinates":{"lng":8.489979,"lat":47.928973},"ril100":"RHFM"},"arrival":{"platform":"2","scheduledTime":"2023-10-18T15:05:00.000Z","time":"2023-10-18T15:05:00.000Z","reihung":false},"departure":{"platform":"2","scheduledTime":"2023-10-18T15:06:00.000Z","time":"2023-10-18T15:06:00.000Z","reihung":false}},{"station":{"evaNumber":"8000077","name":"Donaueschingen","coordinates":{"lng":8.498869,"lat":47.947958},"ril100":"RDO"},"arrival":{"platform":"3","scheduledTime":"2023-10-18T15:09:00.000Z","time":"2023-10-18T15:09:00.000Z","reihung":false}}],"finalDestination":"Villingen(Schwarzw)","jid":"1|263805|8|80|18102023","messages":[{"type":"A","code":"FB","prio":260,"icoX":6,"txtN":"Fahrradmitnahme begrenzt möglich"},{"type":"A","code":"TV","prio":400,"icoX":7,"txtN":"Vorderer Zugteil (Titisee - Donaueschingen)"},{"type":"A","code":"EH","prio":560,"icoX":7,"txtN":"Fahrzeuggebundene Einstiegshilfe vorhanden"},{"type":"M","code":"","icoX":8,"txtS":"S 10: Freiburg(Breisgau) Hbf->Titisee: Information.","txtN":"Erfahrungsgemäß hat dieser Zug eine hohe Auslastung.","sIdx":0}],"type":"JNY"},{"arrival":{"platform":"2","scheduledTime":"2023-10-18T15:50:00.000Z","time":"2023-10-18T15:50:00.000Z","reihung":false},"departure":{"platform":"2","scheduledTime":"2023-10-18T15:16:00.000Z","time":"2023-10-18T15:16:00.000Z","reihung":false},"duration":2040000,"train":{"name":"RE 2","line":"2","admin":"800647","number":"4731","type":"RE","operator":{"name":"DB Regio AG Baden-Württemberg","icoX":2}},"segmentStart":{"name":"Donaueschingen","evaNumber":"8000077"},"segmentDestination":{"name":"Singen(Hohentwiel)","evaNumber":"8000073"},"stops":[{"station":{"evaNumber":"8000077","name":"Donaueschingen","coordinates":{"lng":8.498869,"lat":47.947958},"ril100":"RDO"},"departure":{"platform":"2","scheduledTime":"2023-10-18T15:16:00.000Z","time":"2023-10-18T15:16:00.000Z","reihung":false}},{"station":{"evaNumber":"8000182","name":"Immendingen","coordinates":{"lng":8.729488,"lat":47.93621},"ril100":"RIM"},"arrival":{"platform":"4","scheduledTime":"2023-10-18T15:27:00.000Z","time":"2023-10-18T15:27:00.000Z","reihung":false},"departure":{"platform":"4","scheduledTime":"2023-10-18T15:28:00.000Z","time":"2023-10-18T15:28:00.000Z","reihung":false}},{"station":{"evaNumber":"8001790","name":"Engen","coordinates":{"lng":8.772789,"lat":47.856349},"ril100":"RENG"},"arrival":{"platform":"3","scheduledTime":"2023-10-18T15:40:00.000Z","time":"2023-10-18T15:40:00.000Z","reihung":false},"departure":{"platform":"3","scheduledTime":"2023-10-18T15:40:00.000Z","time":"2023-10-18T15:40:00.000Z","reihung":false}},{"station":{"evaNumber":"8000073","name":"Singen(Hohentwiel)","coordinates":{"lng":8.841116,"lat":47.758888},"ril100":"RSI"},"arrival":{"platform":"2","scheduledTime":"2023-10-18T15:50:00.000Z","time":"2023-10-18T15:50:00.000Z","reihung":false}}],"finalDestination":"Konstanz-Petershausen","jid":"1|262509|0|80|18102023","messages":[{"type":"A","code":"FB","prio":260,"icoX":6,"txtN":"Fahrradmitnahme begrenzt möglich"},{"type":"A","code":"EH","prio":560,"icoX":7,"txtN":"Fahrzeuggebundene Einstiegshilfe vorhanden"}],"type":"JNY"}],"segmentTypes":["S","RE"]},{"checksum":"d27dcd70_3","cid":"C-3","date":"2023-10-17T22:00:00.000Z","duration":7920000,"changes":1,"isRideable":true,"arrival":{"platform":"6","scheduledTime":"2023-10-18T16:14:00.000Z","time":"2023-10-18T16:14:00.000Z","reihung":false},"departure":{"platform":"3","scheduledTime":"2023-10-18T14:02:00.000Z","time":"2023-10-18T14:02:00.000Z","reihung":false},"segments":[{"arrival":{"platform":"3","scheduledTime":"2023-10-18T14:36:00.000Z","time":"2023-10-18T14:36:00.000Z","reihung":false},"departure":{"platform":"3","scheduledTime":"2023-10-18T14:02:00.000Z","time":"2023-10-18T14:02:00.000Z","reihung":false},"duration":2040000,"train":{"name":"ICE 107","line":"43","admin":"80","number":"107","type":"ICE","operator":{"name":"DB Fernverkehr AG","icoX":11}},"changeDuration":13,"segmentStart":{"name":"Freiburg(Breisgau) Hbf","evaNumber":"8000107"},"segmentDestination":{"name":"Basel Bad Bf","evaNumber":"8000026"},"stops":[{"station":{"evaNumber":"8000107","name":"Freiburg(Breisgau) Hbf","coordinates":{"lng":7.841344,"lat":47.997974},"ril100":"RF"},"departure":{"platform":"3","scheduledTime":"2023-10-18T14:02:00.000Z","time":"2023-10-18T14:02:00.000Z","reihung":false},"auslastung":{"first":1,"second":1}},{"station":{"evaNumber":"8000026","name":"Basel Bad Bf","coordinates":{"lng":7.607886,"lat":47.567679},"ril100":"RB"},"arrival":{"platform":"3","scheduledTime":"2023-10-18T14:36:00.000Z","time":"2023-10-18T14:36:00.000Z","reihung":false}}],"finalDestination":"Basel SBB","jid":"1|196308|0|80|18102023","auslastung":{"first":1,"second":1},"messages":[{"type":"A","code":"CK","prio":200,"icoX":7,"txtN":"Sicher & kontaktlos ohne Ticketkontrolle reisen mit Komfort Check-in"},{"type":"A","code":"FR","prio":260,"icoX":12,"txtN":"Fahrradmitnahme reservierungspflichtig"},{"type":"A","code":"FB","prio":260,"icoX":6,"txtN":"Fahrradmitnahme begrenzt möglich"},{"type":"A","code":"BR","prio":450,"icoX":13,"txtN":"Bordrestaurant"},{"type":"A","code":"EH","prio":560,"icoX":7,"txtN":"Fahrzeuggebundene Einstiegshilfe vorhanden"}],"type":"JNY"},{"arrival":{"platform":"6","scheduledTime":"2023-10-18T16:14:00.000Z","time":"2023-10-18T16:14:00.000Z","reihung":false},"departure":{"platform":"7","scheduledTime":"2023-10-18T14:49:00.000Z","time":"2023-10-18T14:49:00.000Z","reihung":false},"duration":5100000,"train":{"name":"IRE 3","line":"3","admin":"800693","number":"3067","type":"IRE","operator":{"name":"DB Regio AG Baden-Württemberg","icoX":2}},"segmentStart":{"name":"Basel Bad Bf","evaNumber":"8000026"},"segmentDestination":{"name":"Singen(Hohentwiel)","evaNumber":"8000073"},"stops":[{"station":{"evaNumber":"8000026","name":"Basel Bad Bf","coordinates":{"lng":7.607886,"lat":47.567679},"ril100":"RB"},"departure":{"platform":"7","scheduledTime":"2023-10-18T14:49:00.000Z","time":"2023-10-18T14:49:00.000Z","reihung":false}},{"station":{"evaNumber":"8005064","name":"Rheinfelden(Baden)","coordinates":{"lng":7.784622,"lat":47.556937},"ril100":"RRH"},"arrival":{"platform":"1","scheduledTime":"2023-10-18T14:57:00.000Z","time":"2023-10-18T14:57:00.000Z","reihung":false},"departure":{"platform":"1","scheduledTime":"2023-10-18T14:59:00.000Z","time":"2023-10-18T14:59:00.000Z","reihung":false}},{"station":{"evaNumber":"8005255","name":"Bad Säckingen","coordinates":{"lng":7.94864,"lat":47.555858},"ril100":"RSAE"},"arrival":{"platform":"1","scheduledTime":"2023-10-18T15:08:00.000Z","time":"2023-10-18T15:08:00.000Z","reihung":false},"departure":{"platform":"1","scheduledTime":"2023-10-18T15:09:00.000Z","time":"2023-10-18T15:09:00.000Z","reihung":false}},{"station":{"evaNumber":"8006167","name":"Waldshut","coordinates":{"lng":8.219512,"lat":47.621219},"ril100":"RWU"},"arrival":{"platform":"1","scheduledTime":"2023-10-18T15:25:00.000Z","time":"2023-10-18T15:25:00.000Z","reihung":false},"departure":{"platform":"1","scheduledTime":"2023-10-18T15:29:00.000Z","time":"2023-10-18T15:29:00.000Z","reihung":false}},{"station":{"evaNumber":"8005871","name":"Tiengen(Hochrhein)","coordinates":{"lng":8.272018,"lat":47.635448},"ril100":"RTI"},"arrival":{"platform":"1","scheduledTime":"2023-10-18T15:33:00.000Z","time":"2023-10-18T15:33:00.000Z","reihung":false},"departure":{"platform":"1","scheduledTime":"2023-10-18T15:34:00.000Z","time":"2023-10-18T15:34:00.000Z","reihung":false}},{"station":{"evaNumber":"8001865","name":"Erzingen(Baden)","coordinates":{"lng":8.430713,"lat":47.660205},"ril100":"RERZ"},"arrival":{"platform":"2","scheduledTime":"2023-10-18T15:42:00.000Z","time":"2023-10-18T15:42:00.000Z","reihung":false},"departure":{"platform":"2","scheduledTime":"2023-10-18T15:44:00.000Z","time":"2023-10-18T15:44:00.000Z","reihung":false}},{"station":{"evaNumber":"8503424","name":"Schaffhausen","coordinates":{"lng":8.632899,"lat":47.698921},"ril100":"XSS"},"arrival":{"platform":"4","scheduledTime":"2023-10-18T15:58:00.000Z","time":"2023-10-18T15:58:00.000Z","reihung":false},"departure":{"platform":"4","scheduledTime":"2023-10-18T16:00:00.000Z","time":"2023-10-18T16:00:00.000Z","reihung":false}},{"station":{"evaNumber":"8000073","name":"Singen(Hohentwiel)","coordinates":{"lng":8.841116,"lat":47.758888},"ril100":"RSI"},"arrival":{"platform":"6","scheduledTime":"2023-10-18T16:14:00.000Z","time":"2023-10-18T16:14:00.000Z","reihung":false}}],"finalDestination":"Singen(Hohentwiel)","jid":"1|261372|0|80|18102023","messages":[{"type":"A","code":"FB","prio":260,"icoX":6,"txtN":"Fahrradmitnahme begrenzt möglich"},{"type":"A","code":"EH","prio":560,"icoX":7,"txtN":"Fahrzeuggebundene Einstiegshilfe vorhanden"}],"type":"JNY"}],"segmentTypes":["ICE","IRE"]},{"checksum":"6f99ad06_3","cid":"C-4","date":"2023-10-17T22:00:00.000Z","duration":7800000,"changes":1,"isRideable":true,"arrival":{"platform":"2","scheduledTime":"2023-10-18T16:50:00.000Z","time":"2023-10-18T16:50:00.000Z","reihung":false},"departure":{"platform":"8","scheduledTime":"2023-10-18T14:40:00.000Z","time":"2023-10-18T14:40:00.000Z","reihung":false},"segments":[{"arrival":{"platform":"3","scheduledTime":"2023-10-18T16:09:00.000Z","time":"2023-10-18T16:09:00.000Z","reihung":false},"departure":{"platform":"8","scheduledTime":"2023-10-18T14:40:00.000Z","time":"2023-10-18T14:40:00.000Z","reihung":false},"duration":5340000,"train":{"name":"S 10","line":"10","admin":"8006C6","number":"9725","type":"S","operator":{"name":"DB Regio AG Baden-Württemberg","icoX":2}},"changeDuration":7,"segmentStart":{"name":"Freiburg(Breisgau) Hbf","evaNumber":"8000107"},"segmentDestination":{"name":"Donaueschingen","evaNumber":"8000077"},"stops":[{"station":{"evaNumber":"8000107","name":"Freiburg(Breisgau) Hbf","coordinates":{"lng":7.841344,"lat":47.997974},"ril100":"RF"},"departure":{"platform":"8","scheduledTime":"2023-10-18T14:40:00.000Z","time":"2023-10-18T14:40:00.000Z","reihung":false}},{"station":{"evaNumber":"8002070","name":"Freiburg-Wiehre","coordinates":{"lng":7.854046,"lat":47.982261},"ril100":"RFWI"},"arrival":{"platform":"2","scheduledTime":"2023-10-18T14:44:00.000Z","time":"2023-10-18T14:44:00.000Z","reihung":false},"departure":{"platform":"2","scheduledTime":"2023-10-18T14:45:00.000Z","time":"2023-10-18T14:45:00.000Z","reihung":false}},{"station":{"evaNumber":"8002068","name":"Freiburg-Littenweiler","coordinates":{"lng":7.895145,"lat":47.981803},"ril100":"RFLT"},"arrival":{"platform":"1","scheduledTime":"2023-10-18T14:47:00.000Z","time":"2023-10-18T14:47:00.000Z","reihung":false},"departure":{"platform":"1","scheduledTime":"2023-10-18T14:48:00.000Z","time":"2023-10-18T14:48:00.000Z","reihung":false}},{"station":{"evaNumber":"8003293","name":"Kirchzarten","coordinates":{"lng":7.959103,"lat":47.967941},"ril100":"RKZ"},"arrival":{"platform":"1","scheduledTime":"2023-10-18T14:52:00.000Z","time":"2023-10-18T14:52:00.000Z","reihung":false},"departure":{"platform":"1","scheduledTime":"2023-10-18T14:53:00.000Z","time":"2023-10-18T14:53:00.000Z","reihung":false}},{"station":{"evaNumber":"8002844","name":"Himmelreich","coordinates":{"lng":7.991536,"lat":47.958638},"ril100":"RHIM"},"arrival":{"platform":"2","scheduledTime":"2023-10-18T14:56:00.000Z","time":"2023-10-18T14:56:00.000Z","reihung":false},"departure":{"platform":"2","scheduledTime":"2023-10-18T15:01:00.000Z","time":"2023-10-18T15:01:00.000Z","reihung":false}},{"station":{"evaNumber":"8002848","name":"Hinterzarten","coordinates":{"lng":8.106328,"lat":47.906159},"ril100":"RHIZ"},"arrival":{"platform":"1","scheduledTime":"2023-10-18T15:13:00.000Z","time":"2023-10-18T15:13:00.000Z","reihung":false},"departure":{"platform":"1","scheduledTime":"2023-10-18T15:15:00.000Z","time":"2023-10-18T15:15:00.000Z","reihung":false}},{"station":{"evaNumber":"8005876","name":"Titisee","coordinates":{"lng":8.154888,"lat":47.903075},"ril100":"RTIT"},"arrival":{"platform":"1","scheduledTime":"2023-10-18T15:19:00.000Z","time":"2023-10-18T15:19:00.000Z","reihung":false},"departure":{"platform":"1","scheduledTime":"2023-10-18T15:20:00.000Z","time":"2023-10-18T15:20:00.000Z","reihung":false}},{"station":{"evaNumber":"8004331","name":"Neustadt(Schwarzw)","coordinates":{"lng":8.210963,"lat":47.910285}},"arrival":{"platform":"2","scheduledTime":"2023-10-18T15:26:00.000Z","time":"2023-10-18T15:26:00.000Z","reihung":false},"departure":{"platform":"2","scheduledTime":"2023-10-18T15:30:00.000Z","time":"2023-10-18T15:30:00.000Z","reihung":false}},{"station":{"evaNumber":"8005136","name":"Rötenbach(Baden)","coordinates":{"lng":8.290176,"lat":47.892765},"ril100":"RROE"},"arrival":{"platform":"1","scheduledTime":"2023-10-18T15:39:00.000Z","time":"2023-10-18T15:39:00.000Z","reihung":false},"departure":{"platform":"1","scheduledTime":"2023-10-18T15:40:00.000Z","time":"2023-10-18T15:40:00.000Z","reihung":false}},{"station":{"evaNumber":"8003724","name":"Löffingen","coordinates":{"lng":8.341936,"lat":47.88356},"ril100":"RLGN"},"arrival":{"platform":"1","scheduledTime":"2023-10-18T15:43:00.000Z","time":"2023-10-18T15:43:00.000Z","reihung":false},"departure":{"platform":"1","scheduledTime":"2023-10-18T15:44:00.000Z","time":"2023-10-18T15:44:00.000Z","reihung":false}},{"station":{"evaNumber":"8000686","name":"Bachheim","coordinates":{"lng":8.399431,"lat":47.862067},"ril100":"RBH"},"arrival":{"platform":"1","scheduledTime":"2023-10-18T15:49:00.000Z","time":"2023-10-18T15:49:00.000Z","reihung":false},"departure":{"platform":"1","scheduledTime":"2023-10-18T15:50:00.000Z","time":"2023-10-18T15:50:00.000Z","reihung":false}},{"station":{"evaNumber":"8005963","name":"Unadingen","coordinates":{"lng":8.397965,"lat":47.881276}},"arrival":{"platform":"1","scheduledTime":"2023-10-18T15:52:00.000Z","time":"2023-10-18T15:52:00.000Z","reihung":false},"departure":{"platform":"1","scheduledTime":"2023-10-18T15:52:00.000Z","time":"2023-10-18T15:52:00.000Z","reihung":false}},{"station":{"evaNumber":"8001480","name":"Döggingen","coordinates":{"lng":8.441168,"lat":47.893637},"ril100":"RDGN"},"arrival":{"platform":"2","scheduledTime":"2023-10-18T15:57:00.000Z","time":"2023-10-18T15:57:00.000Z","reihung":false},"departure":{"platform":"2","scheduledTime":"2023-10-18T15:59:00.000Z","time":"2023-10-18T15:59:00.000Z","reihung":false}},{"station":{"evaNumber":"8003014","name":"Hüfingen Mitte","coordinates":{"lng":8.489979,"lat":47.928973},"ril100":"RHFM"},"arrival":{"platform":"2","scheduledTime":"2023-10-18T16:05:00.000Z","time":"2023-10-18T16:05:00.000Z","reihung":false},"departure":{"platform":"2","scheduledTime":"2023-10-18T16:06:00.000Z","time":"2023-10-18T16:06:00.000Z","reihung":false}},{"station":{"evaNumber":"8000077","name":"Donaueschingen","coordinates":{"lng":8.498869,"lat":47.947958},"ril100":"RDO"},"arrival":{"platform":"3","scheduledTime":"2023-10-18T16:09:00.000Z","time":"2023-10-18T16:09:00.000Z","reihung":false}}],"finalDestination":"Villingen(Schwarzw)","jid":"1|263805|9|80|18102023","messages":[{"type":"A","code":"FB","prio":260,"icoX":6,"txtN":"Fahrradmitnahme begrenzt möglich"},{"type":"A","code":"TV","prio":400,"icoX":7,"txtN":"Vorderer Zugteil (Titisee - Donaueschingen)"},{"type":"A","code":"EH","prio":560,"icoX":7,"txtN":"Fahrzeuggebundene Einstiegshilfe vorhanden"},{"type":"M","code":"","icoX":8,"txtS":"S 10: Freiburg(Breisgau) Hbf->Hinterzarten: Information.","txtN":"Erfahrungsgemäß hat dieser Zug eine mittlere bis hohe Auslastung.","sIdx":0}],"type":"JNY"},{"arrival":{"platform":"2","scheduledTime":"2023-10-18T16:50:00.000Z","time":"2023-10-18T16:50:00.000Z","reihung":false},"departure":{"platform":"2","scheduledTime":"2023-10-18T16:16:00.000Z","time":"2023-10-18T16:16:00.000Z","reihung":false},"duration":2040000,"train":{"name":"RE 2","line":"2","admin":"800647","number":"4733","type":"RE","operator":{"name":"DB Regio AG Baden-Württemberg","icoX":2}},"segmentStart":{"name":"Donaueschingen","evaNumber":"8000077"},"segmentDestination":{"name":"Singen(Hohentwiel)","evaNumber":"8000073"},"stops":[{"station":{"evaNumber":"8000077","name":"Donaueschingen","coordinates":{"lng":8.498869,"lat":47.947958},"ril100":"RDO"},"departure":{"platform":"2","scheduledTime":"2023-10-18T16:16:00.000Z","time":"2023-10-18T16:16:00.000Z","reihung":false}},{"station":{"evaNumber":"8000182","name":"Immendingen","coordinates":{"lng":8.729488,"lat":47.93621},"ril100":"RIM"},"arrival":{"platform":"4","scheduledTime":"2023-10-18T16:27:00.000Z","time":"2023-10-18T16:27:00.000Z","reihung":false},"departure":{"platform":"4","scheduledTime":"2023-10-18T16:28:00.000Z","time":"2023-10-18T16:28:00.000Z","reihung":false}},{"station":{"evaNumber":"8001790","name":"Engen","coordinates":{"lng":8.772789,"lat":47.856349},"ril100":"RENG"},"arrival":{"platform":"3","scheduledTime":"2023-10-18T16:40:00.000Z","time":"2023-10-18T16:40:00.000Z","reihung":false},"departure":{"platform":"3","scheduledTime":"2023-10-18T16:40:00.000Z","time":"2023-10-18T16:40:00.000Z","reihung":false}},{"station":{"evaNumber":"8000073","name":"Singen(Hohentwiel)","coordinates":{"lng":8.841116,"lat":47.758888},"ril100":"RSI"},"arrival":{"platform":"2","scheduledTime":"2023-10-18T16:50:00.000Z","time":"2023-10-18T16:50:00.000Z","reihung":false}}],"finalDestination":"Konstanz-Petershausen","jid":"1|262512|0|80|18102023","messages":[{"type":"A","code":"FB","prio":260,"icoX":6,"txtN":"Fahrradmitnahme begrenzt möglich"},{"type":"A","code":"EH","prio":560,"icoX":7,"txtN":"Fahrzeuggebundene Einstiegshilfe vorhanden"}],"type":"JNY"}],"segmentTypes":["S","RE"]},{"checksum":"f5890d89_3","cid":"C-5","date":"2023-10-17T22:00:00.000Z","duration":7920000,"changes":1,"isRideable":true,"arrival":{"platform":"5","scheduledTime":"2023-10-18T17:14:00.000Z","time":"2023-10-18T17:14:00.000Z","reihung":false},"departure":{"platform":"3","scheduledTime":"2023-10-18T15:02:00.000Z","time":"2023-10-18T15:02:00.000Z","reihung":false},"segments":[{"arrival":{"platform":"3","scheduledTime":"2023-10-18T15:36:00.000Z","time":"2023-10-18T15:36:00.000Z","reihung":false},"departure":{"platform":"3","scheduledTime":"2023-10-18T15:02:00.000Z","time":"2023-10-18T15:02:00.000Z","reihung":false},"duration":2040000,"train":{"name":"ICE 371","line":"12","admin":"80","number":"371","type":"ICE","operator":{"name":"DB Fernverkehr AG","icoX":11}},"changeDuration":13,"segmentStart":{"name":"Freiburg(Breisgau) Hbf","evaNumber":"8000107"},"segmentDestination":{"name":"Basel Bad Bf","evaNumber":"8000026"},"stops":[{"station":{"evaNumber":"8000107","name":"Freiburg(Breisgau) Hbf","coordinates":{"lng":7.841344,"lat":47.997974},"ril100":"RF"},"departure":{"platform":"3","scheduledTime":"2023-10-18T15:02:00.000Z","time":"2023-10-18T15:02:00.000Z","reihung":false},"auslastung":{"first":2,"second":1}},{"station":{"evaNumber":"8000026","name":"Basel Bad Bf","coordinates":{"lng":7.607886,"lat":47.567679},"ril100":"RB"},"arrival":{"platform":"3","scheduledTime":"2023-10-18T15:36:00.000Z","time":"2023-10-18T15:36:00.000Z","reihung":false}}],"finalDestination":"Interlaken Ost","jid":"1|357439|0|80|18102023","auslastung":{"first":2,"second":1},"messages":[{"type":"A","code":"CK","prio":200,"icoX":7,"txtN":"Sicher & kontaktlos ohne Ticketkontrolle reisen mit Komfort Check-in"},{"type":"A","code":"FR","prio":260,"icoX":12,"txtN":"Fahrradmitnahme reservierungspflichtig"},{"type":"A","code":"FB","prio":260,"icoX":6,"txtN":"Fahrradmitnahme begrenzt möglich"},{"type":"A","code":"BR","prio":450,"icoX":13,"txtN":"Bordrestaurant"},{"type":"A","code":"EH","prio":560,"icoX":7,"txtN":"Fahrzeuggebundene Einstiegshilfe vorhanden"}],"type":"JNY"},{"arrival":{"platform":"5","scheduledTime":"2023-10-18T17:14:00.000Z","time":"2023-10-18T17:14:00.000Z","reihung":false},"departure":{"platform":"7","scheduledTime":"2023-10-18T15:49:00.000Z","time":"2023-10-18T15:49:00.000Z","reihung":false},"duration":5100000,"train":{"name":"IRE 3","line":"3","admin":"800693","number":"3069","type":"IRE","operator":{"name":"DB Regio AG Baden-Württemberg","icoX":2}},"segmentStart":{"name":"Basel Bad Bf","evaNumber":"8000026"},"segmentDestination":{"name":"Singen(Hohentwiel)","evaNumber":"8000073"},"stops":[{"station":{"evaNumber":"8000026","name":"Basel Bad Bf","coordinates":{"lng":7.607886,"lat":47.567679},"ril100":"RB"},"departure":{"platform":"7","scheduledTime":"2023-10-18T15:49:00.000Z","time":"2023-10-18T15:49:00.000Z","reihung":false}},{"station":{"evaNumber":"8005064","name":"Rheinfelden(Baden)","coordinates":{"lng":7.784622,"lat":47.556937},"ril100":"RRH"},"arrival":{"platform":"1","scheduledTime":"2023-10-18T15:57:00.000Z","time":"2023-10-18T15:57:00.000Z","reihung":false},"departure":{"platform":"1","scheduledTime":"2023-10-18T15:59:00.000Z","time":"2023-10-18T15:59:00.000Z","reihung":false}},{"station":{"evaNumber":"8005255","name":"Bad Säckingen","coordinates":{"lng":7.94864,"lat":47.555858},"ril100":"RSAE"},"arrival":{"platform":"1","scheduledTime":"2023-10-18T16:08:00.000Z","time":"2023-10-18T16:08:00.000Z","reihung":false},"departure":{"platform":"1","scheduledTime":"2023-10-18T16:09:00.000Z","time":"2023-10-18T16:09:00.000Z","reihung":false}},{"station":{"evaNumber":"8006167","name":"Waldshut","coordinates":{"lng":8.219512,"lat":47.621219},"ril100":"RWU"},"arrival":{"platform":"1","scheduledTime":"2023-10-18T16:25:00.000Z","time":"2023-10-18T16:25:00.000Z","reihung":false},"departure":{"platform":"1","scheduledTime":"2023-10-18T16:29:00.000Z","time":"2023-10-18T16:29:00.000Z","reihung":false}},{"station":{"evaNumber":"8005871","name":"Tiengen(Hochrhein)","coordinates":{"lng":8.272018,"lat":47.635448},"ril100":"RTI"},"arrival":{"platform":"1","scheduledTime":"2023-10-18T16:33:00.000Z","time":"2023-10-18T16:33:00.000Z","reihung":false},"departure":{"platform":"1","scheduledTime":"2023-10-18T16:34:00.000Z","time":"2023-10-18T16:34:00.000Z","reihung":false}},{"station":{"evaNumber":"8001865","name":"Erzingen(Baden)","coordinates":{"lng":8.430713,"lat":47.660205},"ril100":"RERZ"},"arrival":{"platform":"2","scheduledTime":"2023-10-18T16:42:00.000Z","time":"2023-10-18T16:42:00.000Z","reihung":false},"departure":{"platform":"2","scheduledTime":"2023-10-18T16:44:00.000Z","time":"2023-10-18T16:44:00.000Z","reihung":false}},{"station":{"evaNumber":"8503424","name":"Schaffhausen","coordinates":{"lng":8.632899,"lat":47.698921},"ril100":"XSS"},"arrival":{"platform":"4","scheduledTime":"2023-10-18T16:58:00.000Z","time":"2023-10-18T16:58:00.000Z","reihung":false},"departure":{"platform":"4","scheduledTime":"2023-10-18T17:00:00.000Z","time":"2023-10-18T17:00:00.000Z","reihung":false}},{"station":{"evaNumber":"8000073","name":"Singen(Hohentwiel)","coordinates":{"lng":8.841116,"lat":47.758888},"ril100":"RSI"},"arrival":{"platform":"5","scheduledTime":"2023-10-18T17:14:00.000Z","time":"2023-10-18T17:14:00.000Z","reihung":false}}],"finalDestination":"Friedrichshafen Hafen","jid":"1|261354|1|80|18102023","messages":[{"type":"A","code":"FB","prio":260,"icoX":6,"txtN":"Fahrradmitnahme begrenzt möglich"},{"type":"A","code":"EH","prio":560,"icoX":7,"txtN":"Fahrzeuggebundene Einstiegshilfe vorhanden"}],"type":"JNY"}],"segmentTypes":["ICE","IRE"]}]}