{"context":{"earlier":"3|OB|MT#14#451627#451627#451758#451758#0#0#485#451576#1#0#1083#0#0#-2147483648#1#2|PDH#bbe10b32f5270e429a5a473728022d1b|RD#18102023|RT#141653|US#0|RS#INIT","later":"3|OF|MT#14#451793#451793#451963#451963#0#0#485#451736#7#0#27#0#0#-2147483648#1#2|PDH#bbe10b32f5270e429a5a473728022d1b|RD#18102023|RT#141653|US#0|RS#INIT"},"routes":[{"checksum":"260cb128_3","cid":"C-0","date":"2023-10-17T22:00:00.000Z","duration":7860000,"changes":0,"isRideable":true,"arrival":{"platform":"3a/b","scheduledTime":"2023-10-18T15:18:00.000Z","time":"2023-10-18T15:18:00.000Z","reihung":false},"departure":{"platform":"1","scheduledTime":"2023-10-18T13:07:00.000Z","time":"2023-10-18T13:07:00.000Z","reihung":false},"segments":[{"arrival":{"platform":"3a/b","scheduledTime":"2023-10-18T15:18:00.000Z","time":"2023-10-18T15:18:00.000Z","reihung":false},"departure":{"platform":"1","scheduledTime":"2023-10-18T13:07:00.000Z","time":"2023-10-18T13:07:00.000Z","reihung":false},"duration":7860000,"train":{"name":"EC 6","line":"43","admin":"80","number":"6","type":"EC","operator":{"name":"DB Fernverkehr AG","icoX":2}},"segmentStart":{"name":"Freiburg(Breisgau) Hbf","evaNumber":"8000107"},"segmentDestination":{"name":"Mainz Hbf","evaNumber":"8000240"},"stops":[{"station":{"evaNumber":"8000107","name":"Freiburg(Breisgau) Hbf","coordinates":{"lng":7.841344,"lat":47.997974},"ril100":"RF"},"departure":{"platform":"1","scheduledTime":"2023-10-18T13:07:00.000Z","time":"2023-10-18T13:07:00.000Z","reihung":false},"auslastung":{"first":1,"second":1}},{"station":{"evaNumber":"8000191","name":"Karlsruhe Hbf","coordinates":{"lng":8.401939,"lat":48.99353},"ril100":"RK"},"arrival":{"platform":"3","scheduledTime":"2023-10-18T14:11:00.000Z","time":"2023-10-18T14:11:00.000Z","reihung":false},"departure":{"platform":"3","scheduledTime":"2023-10-18T14:13:00.000Z","time":"2023-10-18T14:13:00.000Z","reihung":false},"auslastung":{"first":1,"second":1}},{"station":{"evaNumber":"8000244","name":"Mannheim Hbf","coordinates":{"lng":8.469268,"lat":49.479181},"ril100":"RM"},"arrival":{"platform":"2","scheduledTime":"2023-10-18T14:37:00.000Z","time":"2023-10-18T14:37:00.000Z","reihung":false},"departure":{"platform":"2","scheduledTime":"2023-10-18T14:39:00.000Z","time":"2023-10-18T14:39:00.000Z","reihung":false},"auslastung":{"first":1,"second":1}},{"station":{"evaNumber":"8000240","name":"Mainz Hbf","coordinates":{"lng":8.258453,"lat":50.001239},"ril100":"FMZ"},"arrival":{"platform":"3a/b","scheduledTime":"2023-10-18T15:18:00.000Z","time":"2023-10-18T15:18:00.000Z","reihung":false}}],"finalDestination":"Münster(Westf)Hbf","jid":"1|362423|0|80|18102023","auslastung":{"first":1,"second":1},"messages":[{"type":"A","code":"FR","prio":260,"icoX":4,"txtN":"Fahrradmitnahme reservierungspflichtig"},{"type":"A","code":"FB","prio":260,"icoX":5,"txtN":"Fahrradmitnahme begrenzt möglich"}],"type":"JNY"}],"segmentTypes":["EC"]},{"checksum":"f8aa9c4c_3","cid":"C-1","date":"2023-10-17T22:00:00.000Z","duration":8400000,"changes":1,"isRideable":true,"arrival":{"platform":"2a/b","scheduledTime":"2023-10-18T16:15:00.000Z","time":"2023-10-18T16:15:00.000Z","reihung":false},"departure":{"platform":"1","scheduledTime":"2023-10-18T13:55:00.000Z","time":"2023-10-18T13:55:00.000Z","reihung":false},"segments":[{"arrival":{"platform":"3","scheduledTime":"2023-10-18T15:24:00.000Z","time":"2023-10-18T15:24:00.000Z","reihung":false},"departure":{"platform":"1","scheduledTime":"2023-10-18T13:55:00.000Z","time":"2023-10-18T13:55:00.000Z","reihung":false},"duration":5340000,"wings":[{"train":{"name":"ICE 104","line":"43","admin":"80","number":"104","type":"ICE","operator":{"name":"DB Fernverkehr AG","icoX":2}},"segmentStart":{"name":"Freiburg(Breisgau) Hbf","evaNumber":"8000107"},"segmentDestination":{"name":"Mannheim Hbf","evaNumber":"8000244"},"stops":[{"station":{"evaNumber":"8000107","name":"Freiburg(Breisgau) Hbf","coordinates":{"lng":7.841344,"lat":47.997974},"ril100":"RF"},"departure":{"platform":"1","scheduledTime":"2023-10-18T13:55:00.000Z","time":"2023-10-18T13:55:00.000Z","reihung":false},"auslastung":{"first":1,"second":1}},{"station":{"evaNumber":"8000290","name":"Offenburg","coordinates":{"lng":7.94677,"lat":48.476506},"ril100":"RO"},"arrival":{"platform":"3","scheduledTime":"2023-10-18T14:26:00.000Z","time":"2023-10-18T14:26:00.000Z","reihung":false},"auslastung":{"first":1,"second":1}},{"station":{"evaNumber":"8000191","name":"Karlsruhe Hbf","coordinates":{"lng":8.401939,"lat":48.99353},"ril100":"RK"},"arrival":{"platform":"3","scheduledTime":"2023-10-18T14:58:00.000Z","time":"2023-10-18T14:58:00.000Z","reihung":false},"auslastung":{"first":2,"second":1}},{"station":{"evaNumber":"8000244","name":"Mannheim Hbf","coordinates":{"lng":8.469268,"lat":49.479181},"ril100":"RM"},"arrival":{"platform":"3","scheduledTime":"2023-10-18T15:24:00.000Z","time":"2023-10-18T15:24:00.000Z","reihung":false}}],"finalDestination":"Amsterdam Centraal","jid":"1|349066|0|80|18102023","auslastung":{"first":2,"second":1}}],"train":{"name":"ICE 204","line":"43","admin":"80","number":"204","type":"ICE","operator":{"name":"DB Fernverkehr AG","icoX":2}},"changeDuration":14,"segmentStart":{"name":"Freiburg(Breisgau) Hbf","evaNumber":"8000107"},"segmentDestination":{"name":"Mannheim Hbf","evaNumber":"8000244"},"stops":[{"station":{"evaNumber":"8000107","name":"Freiburg(Breisgau) Hbf","coordinates":{"lng":7.841344,"lat":47.997974},"ril100":"RF"},"departure":{"platform":"1","scheduledTime":"2023-10-18T13:55:00.000Z","time":"2023-10-18T13:55:00.000Z","reihung":false},"auslastung":{"first":1,"second":1}},{"station":{"evaNumber":"8000290","name":"Offenburg","coordinates":{"lng":7.94677,"lat":48.476506},"ril100":"RO"},"arrival":{"platform":"3","scheduledTime":"2023-10-18T14:26:00.000Z","time":"2023-10-18T14:26:00.000Z","reihung":false},"departure":{"platform":"3","scheduledTime":"2023-10-18T14:28:00.000Z","time":"2023-10-18T14:28:00.000Z","reihung":false},"auslastung":{"first":1,"second":1}},{"station":{"evaNumber":"8000191","name":"Karlsruhe Hbf","coordinates":{"lng":8.401939,"lat":48.99353},"ril100":"RK"},"arrival":{"platform":"3","scheduledTime":"2023-10-18T14:58:00.000Z","time":"2023-10-18T14:58:00.000Z","reihung":false},"departure":{"platform":"3","scheduledTime":"2023-10-18T15:00:00.000Z","time":"2023-10-18T15:00:00.000Z","reihung":false},"auslastung":{"first":2,"second":1}},{"station":{"evaNumber":"8000244","name":"Mannheim Hbf","coordinates":{"lng":8.469268,"lat":49.479181},"ril100":"RM"},"arrival":{"platform":"3","scheduledTime":"2023-10-18T15:24:00.000Z","time":"2023-10-18T15:24:00.000Z","reihung":false}}],"finalDestination":"Dortmund Hbf","jid":"1|200621|0|80|18102023","auslastung":{"first":2,"second":1},"messages":[{"type":"A","code":"CK","prio":200,"icoX":6,"txtN":"Sicher & kontaktlos ohne Ticketkontrolle reisen mit Komfort Check-in"},{"type":"A","code":"BR","prio":450,"icoX":7,"txtN":"Bordrestaurant"}],"type":"JNY"},{"arrival":{"platform":"2a/b","scheduledTime":"2023-10-18T16:15:00.000Z","time":"2023-10-18T16:15:00.000Z","reihung":false},"departure":{"platform":"1","scheduledTime":"2023-10-18T15:38:00.000Z","time":"2023-10-18T15:38:00.000Z","reihung":false},"duration":2220000,"train":{"name":"ICE 1512","line":"32","admin":"80","number":"1512","type":"ICE","operator":{"name":"DB Fernverkehr AG","icoX":2}},"segmentStart":{"name":"Mannheim Hbf","evaNumber":"8000244"},"segmentDestination":{"name":"Mainz Hbf","evaNumber":"8000240"},"stops":[{"station":{"evaNumber":"8000244","name":"Mannheim Hbf","coordinates":{"lng":8.469268,"lat":49.479181},"ril100":"RM"},"departure":{"platform":"1","scheduledTime":"2023-10-18T15:38:00.000Z","time":"2023-10-18T15:38:00.000Z","reihung":false},"auslastung":{"first":1,"second":1}},{"station":{"evaNumber":"8000240","name":"Mainz Hbf","coordinates":{"lng":8.258453,"lat":50.001239},"ril100":"FMZ"},"arrival":{"platform":"2a/b","scheduledTime":"2023-10-18T16:15:00.000Z","time":"2023-10-18T16:15:00.000Z","reihung":false}}],"finalDestination":"Wiesbaden Hbf","jid":"1|197755|0|80|18102023","auslastung":{"first":1,"second":1},"messages":[{"type":"A","code":"CK","prio":200,"icoX":6,"txtN":"Sicher & kontaktlos ohne Ticketkontrolle reisen mit Komfort Check-in"},{"type":"A","code":"FR","prio":260,"icoX":4,"txtN":"Fahrradmitnahme reservierungspflichtig"},{"type":"A","code":"FB","prio":260,"icoX":5,"txtN":"Fahrradmitnahme begrenzt möglich"},{"type":"A","code":"BR","prio":450,"icoX":7,"txtN":"Bordrestaurant"}],"type":"JNY"}],"segmentTypes":["ICE","ICE"]},{"checksum":"eeedc748_3","cid":"C-2","date":"2023-10-17T22:00:00.000Z","duration":16560000,"changes":3,"isRideable":true,"arrival":{"platform":"6a","scheduledTime":"2023-10-18T18:36:00.000Z","time":"2023-10-18T18:36:00.000Z","reihung":false},"departure":{"platform":"2","scheduledTime":"2023-10-18T14:00:00.000Z","time":"2023-10-18T14:00:00.000Z","reihung":false},"segments":[{"arrival":{"platform":"2","scheduledTime":"2023-10-18T14:52:00.000Z","time":"2023-10-18T14:52:00.000Z","reihung":false},"departure":{"platform":"2","scheduledTime":"2023-10-18T14:00:00.000Z","time":"2023-10-18T14:00:00.000Z","reihung":false},"duration":3120000,"train":{"name":"RB 26","line":"26","admin":"8006C4","number":"17122","type":"RB","operator":{"name":"DB Regio AG Baden-Württemberg","icoX":9}},"changeDuration":10,"segmentStart":{"name":"Freiburg(Breisgau) Hbf","evaNumber":"8000107"},"segmentDestination":{"name":"Offenburg","evaNumber":"8000290"},"stops":[{"station":{"evaNumber":"8000107","name":"Freiburg(Breisgau) Hbf","coordinates":{"lng":7.841344,"lat":47.997974},"ril100":"RF"},"departure":{"platform":"2","scheduledTime":"2023-10-18T14:00:00.000Z","time":"2023-10-18T14:00:00.000Z","reihung":false}},{"station":{"evaNumber":"8002465","name":"Gundelfingen(Breisgau)","coordinates":{"lng":7.874317,"lat":48.044413},"ril100":"RGDN"},"arrival":{"platform":"1","scheduledTime":"2023-10-18T14:04:00.000Z","time":"2023-10-18T14:04:00.000Z","reihung":false},"departure":{"platform":"1","scheduledTime":"2023-10-18T14:04:00.000Z","time":"2023-10-18T14:04:00.000Z","reihung":false}},{"station":{"evaNumber":"8001415","name":"Denzlingen","coordinates":{"lng":7.881697,"lat":48.068648},"ril100":"RDZ"},"arrival":{"platform":"1","scheduledTime":"2023-10-18T14:06:00.000Z","time":"2023-10-18T14:06:00.000Z","reihung":false},"departure":{"platform":"1","scheduledTime":"2023-10-18T14:07:00.000Z","time":"2023-10-18T14:07:00.000Z","reihung":false}},{"station":{"evaNumber":"8003398","name":"Kollmarsreute","coordinates":{"lng":7.887099,"lat":48.098141},"ril100":"RKLR"},"arrival":{"platform":"1","scheduledTime":"2023-10-18T14:09:00.000Z","time":"2023-10-18T14:09:00.000Z","reihung":false},"departure":{"platform":"1","scheduledTime":"2023-10-18T14:10:00.000Z","time":"2023-10-18T14:10:00.000Z","reihung":false}},{"station":{"evaNumber":"8001771","name":"Emmendingen","coordinates":{"lng":7.847924,"lat":48.119302},"ril100":"REMM"},"arrival":{"platform":"1","scheduledTime":"2023-10-18T14:12:00.000Z","time":"2023-10-18T14:12:00.000Z","reihung":false},"departure":{"platform":"1","scheduledTime":"2023-10-18T14:15:00.000Z","time":"2023-10-18T14:15:00.000Z","reihung":false}},{"station":{"evaNumber":"8005836","name":"Teningen-Mundingen","coordinates":{"lng":7.824274,"lat":48.128821},"ril100":"RTMU"},"arrival":{"platform":"1","scheduledTime":"2023-10-18T14:17:00.000Z","time":"2023-10-18T14:17:00.000Z","reihung":false},"departure":{"platform":"1","scheduledTime":"2023-10-18T14:17:00.000Z","time":"2023-10-18T14:17:00.000Z","reihung":false}},{"station":{"evaNumber":"8003374","name":"Köndringen","coordinates":{"lng":7.803086,"lat":48.137352},"ril100":"RKOE"},"arrival":{"platform":"1","scheduledTime":"2023-10-18T14:19:00.000Z","time":"2023-10-18T14:19:00.000Z","reihung":false},"departure":{"platform":"1","scheduledTime":"2023-10-18T14:19:00.000Z","time":"2023-10-18T14:19:00.000Z","reihung":false}},{"station":{"evaNumber":"8005090","name":"Riegel-Malterdingen","coordinates":{"lng":7.770734,"lat":48.152059},"ril100":"RRL"},"arrival":{"platform":"2","scheduledTime":"2023-10-18T14:22:00.000Z","time":"2023-10-18T14:22:00.000Z","reihung":false},"departure":{"platform":"2","scheduledTime":"2023-10-18T14:22:00.000Z","time":"2023-10-18T14:22:00.000Z","reihung":false}},{"station":{"evaNumber":"8003233","name":"Kenzingen","coordinates":{"lng":7.764199,"lat":48.194452},"ril100":"RKN"},"arrival":{"platform":"2","scheduledTime":"2023-10-18T14:25:00.000Z","time":"2023-10-18T14:25:00.000Z","reihung":false},"departure":{"platform":"2","scheduledTime":"2023-10-18T14:26:00.000Z","time":"2023-10-18T14:26:00.000Z","reihung":false}},{"station":{"evaNumber":"8002763","name":"Herbolzheim(Breisg)","coordinates":{"lng":7.76784,"lat":48.223837},"ril100":"RHZ"},"arrival":{"platform":"2","scheduledTime":"2023-10-18T14:28:00.000Z","time":"2023-10-18T14:28:00.000Z","reihung":false},"departure":{"platform":"2","scheduledTime":"2023-10-18T14:29:00.000Z","time":"2023-10-18T14:29:00.000Z","reihung":false}},{"station":{"evaNumber":"8005101","name":"Ringsheim/Europa-Park","coordinates":{"lng":7.773197,"lat":48.248926},"ril100":"RRI"},"arrival":{"platform":"2","scheduledTime":"2023-10-18T14:31:00.000Z","time":"2023-10-18T14:31:00.000Z","reihung":false},"departure":{"platform":"2","scheduledTime":"2023-10-18T14:32:00.000Z","time":"2023-10-18T14:32:00.000Z","reihung":false}},{"station":{"evaNumber":"8004683","name":"Orschweier","coordinates":{"lng":7.790286,"lat":48.274195},"ril100":"RORW"},"arrival":{"platform":"2","scheduledTime":"2023-10-18T14:34:00.000Z","time":"2023-10-18T14:34:00.000Z","reihung":false},"departure":{"platform":"2","scheduledTime":"2023-10-18T14:34:00.000Z","time":"2023-10-18T14:34:00.000Z","reihung":false}},{"station":{"evaNumber":"8003494","name":"Lahr(Schwarzw)","coordinates":{"lng":7.835295,"lat":48.340571},"ril100":"RLSW"},"arrival":{"platform":"2","scheduledTime":"2023-10-18T14:39:00.000Z","time":"2023-10-18T14:39:00.000Z","reihung":false},"departure":{"platform":"2","scheduledTime":"2023-10-18T14:40:00.000Z","time":"2023-10-18T14:40:00.000Z","reihung":false}},{"station":{"evaNumber":"8002123","name":"Friesenheim(Baden)","coordinates":{"lng":7.863161,"lat":48.381553},"ril100":"RFH"},"arrival":{"platform":"2","scheduledTime":"2023-10-18T14:43:00.000Z","time":"2023-10-18T14:43:00.000Z","reihung":false},"departure":{"platform":"2","scheduledTime":"2023-10-18T14:43:00.000Z","time":"2023-10-18T14:43:00.000Z","reihung":false}},{"station":{"evaNumber":"8000290","name":"Offenburg","coordinates":{"lng":7.94677,"lat":48.476506},"ril100":"RO"},"arrival":{"platform":"2","scheduledTime":"2023-10-18T14:52:00.000Z","time":"2023-10-18T14:52:00.000Z","reihung":false}}],"finalDestination":"Offenburg","jid":"1|259577|0|80|18102023","messages":[{"type":"A","code":"FB","prio":260,"icoX":5,"txtN":"Fahrradmitnahme begrenzt möglich"},{"type":"A","code":"EH","prio":560,"icoX":6,"txtN":"Fahrzeuggebundene Einstiegshilfe vorhanden"},{"type":"M","code":"","icoX":11,"txtS":"RB 17122: Freiburg(Breisgau) Hbf->Kenzingen: Information.","txtN":"Erfahrungsgemäß hat dieser Zug eine mittlere bis hohe Auslastung.","sIdx":0}],"type":"JNY"},{"arrival":{"platform":"14","scheduledTime":"2023-10-18T15:49:00.000Z","time":"2023-10-18T15:49:00.000Z","reihung":false},"departure":{"platform":"6","scheduledTime":"2023-10-18T15:02:00.000Z","time":"2023-10-18T15:02:00.000Z","reihung":false},"duration":2820000,"train":{"name":"RE 2","line":"2","admin":"800647","number":"4728","type":"RE","operator":{"name":"DB Regio AG Baden-Württemberg","icoX":9}},"changeDuration":7,"segmentStart":{"name":"Offenburg","evaNumber":"8000290"},"segmentDestination":{"name":"Karlsruhe Hbf","evaNumber":"8000191"},"stops":[{"station":{"evaNumber":"8000290","name":"Offenburg","coordinates":{"lng":7.94677,"lat":48.476506},"ril100":"RO"},"departure":{"platform":"6","scheduledTime":"2023-10-18T15:02:00.000Z","time":"2023-10-18T15:02:00.000Z","reihung":false}},{"station":{"evaNumber":"8000596","name":"Appenweier","coordinates":{"lng":7.973387,"lat":48.54193},"ril100":"RAP"},"arrival":{"platform":"1","scheduledTime":"2023-10-18T15:06:00.000Z","time":"2023-10-18T15:06:00.000Z","reihung":false},"departure":{"platform":"1","scheduledTime":"2023-10-18T15:07:00.000Z","time":"2023-10-18T15:07:00.000Z","reihung":false}},{"station":{"evaNumber":"8005037","name":"Renchen","coordinates":{"lng":8.007222,"lat":48.592728},"ril100":"RR"},"arrival":{"platform":"1","scheduledTime":"2023-10-18T15:11:00.000Z","time":"2023-10-18T15:11:00.000Z","reihung":false},"departure":{"platform":"1","scheduledTime":"2023-10-18T15:11:00.000Z","time":"2023-10-18T15:11:00.000Z","reihung":false}},{"station":{"evaNumber":"8000412","name":"Achern","coordinates":{"lng":8.065275,"lat":48.633997},"ril100":"RAH"},"arrival":{"platform":"2","scheduledTime":"2023-10-18T15:15:00.000Z","time":"2023-10-18T15:15:00.000Z","reihung":false},"departure":{"platform":"2","scheduledTime":"2023-10-18T15:16:00.000Z","time":"2023-10-18T15:16:00.000Z","reihung":false}},{"station":{"evaNumber":"8001252","name":"Bühl(Baden)","coordinates":{"lng":8.129314,"lat":48.696508},"ril100":"RBUE"},"arrival":{"platform":"1","scheduledTime":"2023-10-18T15:20:00.000Z","time":"2023-10-18T15:20:00.000Z","reihung":false},"departure":{"platform":"1","scheduledTime":"2023-10-18T15:21:00.000Z","time":"2023-10-18T15:21:00.000Z","reihung":false}},{"station":{"evaNumber":"8000774","name":"Baden-Baden","coordinates":{"lng":8.190773,"lat":48.790392},"ril100":"RBB"},"arrival":{"platform":"2","scheduledTime":"2023-10-18T15:27:00.000Z","time":"2023-10-18T15:27:00.000Z","reihung":false},"departure":{"platform":"2","scheduledTime":"2023-10-18T15:28:00.000Z","time":"2023-10-18T15:28:00.000Z","reihung":false}},{"station":{"evaNumber":"8000306","name":"Rastatt","coordinates":{"lng":8.215763,"lat":48.860597},"ril100":"RRA"},"arrival":{"platform":"4","scheduledTime":"2023-10-18T15:34:00.000Z","time":"2023-10-18T15:34:00.000Z","reihung":false},"departure":{"platform":"4","scheduledTime":"2023-10-18T15:34:00.000Z","time":"2023-10-18T15:34:00.000Z","reihung":false}},{"station":{"evaNumber":"8000191","name":"Karlsruhe Hbf","coordinates":{"lng":8.401939,"lat":48.99353},"ril100":"RK"},"arrival":{"platform":"14","scheduledTime":"2023-10-18T15:49:00.000Z","time":"2023-10-18T15:49:00.000Z","reihung":false}}],"finalDestination":"Karlsruhe Hbf","jid":"1|262502|0|80|18102023","messages":[{"type":"A","code":"FB","prio":260,"icoX":5,"txtN":"Fahrradmitnahme begrenzt möglich"},{"type":"A","code":"EH","prio":560,"icoX":6,"txtN":"Fahrzeuggebundene Einstiegshilfe vorhanden"}],"type":"JNY"},{"arrival":{"platform":"1","scheduledTime":"2023-10-18T17:01:00.000Z","time":"2023-10-18T17:01:00.000Z","reihung":false},"departure":{"platform":"9","scheduledTime":"2023-10-18T15:56:00.000Z","time":"2023-10-18T15:56:00.000Z","reihung":false},"duration":3900000,"train":{"name":"S 3","line":"3","admin":"801539","number":"38354","type":"S","operator":{"name":"DB Regio AG Mitte","icoX":14}},"changeDuration":14,"segmentStart":{"name":"Karlsruhe Hbf","evaNumber":"8000191"},"segmentDestination":{"name":"Mannheim Hbf","evaNumber":"8000244"},"stops":[{"station":{"evaNumber":"8000191","name":"Karlsruhe Hbf","coordinates":{"lng":8.401939,"lat":48.99353},"ril100":"RK"},"departure":{"platform":"9","scheduledTime":"2023-10-18T15:56:00.000Z","time":"2023-10-18T15:56:00.000Z","reihung":false}},{"station":{"evaNumber":"8003184","name":"Karlsruhe-Durlach","coordinates":{"lng":8.462292,"lat":49.002025},"ril100":"RKDU"},"arrival":{"platform":"1","scheduledTime":"2023-10-18T16:00:00.000Z","time":"2023-10-18T16:00:00.000Z","reihung":false},"departure":{"platform":"1","scheduledTime":"2023-10-18T16:00:00.000Z","time":"2023-10-18T16:00:00.000Z","reihung":false}},{"station":{"evaNumber":"8000055","name":"Bruchsal","coordinates":{"lng":8.589687,"lat":49.124592},"ril100":"RBR"},"arrival":{"platform":"3b","scheduledTime":"2023-10-18T16:08:00.000Z","time":"2023-10-18T16:08:00.000Z","reihung":false},"departure":{"platform":"3b","scheduledTime":"2023-10-18T16:10:00.000Z","time":"2023-10-18T16:10:00.000Z","reihung":false}},{"station":{"evaNumber":"8005931","name":"Ubstadt-Weiher","coordinates":{"lng":8.624017,"lat":49.167759},"ril100":"RUW"},"arrival":{"platform":"2","scheduledTime":"2023-10-18T16:13:00.000Z","time":"2023-10-18T16:13:00.000Z","reihung":false},"departure":{"platform":"2","scheduledTime":"2023-10-18T16:14:00.000Z","time":"2023-10-18T16:14:00.000Z","reihung":false}},{"station":{"evaNumber":"8005933","name":"Stettfeld-Weiher","coordinates":{"lng":8.637159,"lat":49.183975},"ril100":"RSFW"},"arrival":{"platform":"1","scheduledTime":"2023-10-18T16:16:00.000Z","time":"2023-10-18T16:16:00.000Z","reihung":false},"departure":{"platform":"1","scheduledTime":"2023-10-18T16:16:00.000Z","time":"2023-10-18T16:16:00.000Z","reihung":false}},{"station":{"evaNumber":"8003533","name":"Bad Schönborn Süd","coordinates":{"lng":8.641924,"lat":49.199994},"ril100":"RBS"},"arrival":{"platform":"1","scheduledTime":"2023-10-18T16:18:00.000Z","time":"2023-10-18T16:18:00.000Z","reihung":false},"departure":{"platform":"1","scheduledTime":"2023-10-18T16:19:00.000Z","time":"2023-10-18T16:19:00.000Z","reihung":false}},{"station":{"evaNumber":"8004032","name":"Bad Schönborn-Kronau","coordinates":{"lng":8.646886,"lat":49.219564}},"arrival":{"platform":"1","scheduledTime":"2023-10-18T16:21:00.000Z","time":"2023-10-18T16:21:00.000Z","reihung":false},"departure":{"platform":"1","scheduledTime":"2023-10-18T16:21:00.000Z","time":"2023-10-18T16:21:00.000Z","reihung":false}},{"station":{"evaNumber":"8005181","name":"Rot-Malsch","coordinates":{"lng":8.652216,"lat":49.243367},"ril100":"RRM"},"arrival":{"platform":"2","scheduledTime":"2023-10-18T16:24:00.000Z","time":"2023-10-18T16:24:00.000Z","reihung":false},"departure":{"platform":"2","scheduledTime":"2023-10-18T16:24:00.000Z","time":"2023-10-18T16:24:00.000Z","reihung":false}},{"station":{"evaNumber":"8006421","name":"Wiesloch-Walldorf","coordinates":{"lng":8.664217,"lat":49.291028},"ril100":"RWS"},"arrival":{"platform":"1","scheduledTime":"2023-10-18T16:28:00.000Z","time":"2023-10-18T16:28:00.000Z","reihung":false},"departure":{"platform":"1","scheduledTime":"2023-10-18T16:29:00.000Z","time":"2023-10-18T16:29:00.000Z","reihung":false}},{"station":{"evaNumber":"8005648","name":"St Ilgen-Sandhausen","coordinates":{"lng":8.668694,"lat":49.341125}},"arrival":{"platform":"1","scheduledTime":"2023-10-18T16:33:00.000Z","time":"2023-10-18T16:33:00.000Z","reihung":false},"departure":{"platform":"1","scheduledTime":"2023-10-18T16:33:00.000Z","time":"2023-10-18T16:33:00.000Z","reihung":false}},{"station":{"evaNumber":"8002686","name":"Heidelberg-Kirchheim/Rohrbach","coordinates":{"lng":8.675444,"lat":49.379913},"ril100":"RHKM"},"arrival":{"platform":"2","scheduledTime":"2023-10-18T16:37:00.000Z","time":"2023-10-18T16:37:00.000Z","reihung":false},"departure":{"platform":"2","scheduledTime":"2023-10-18T16:38:00.000Z","time":"2023-10-18T16:38:00.000Z","reihung":false}},{"station":{"evaNumber":"8000156","name":"Heidelberg Hbf","coordinates":{"lng":8.67548,"lat":49.403582},"ril100":"RH"},"arrival":{"platform":"5","scheduledTime":"2023-10-18T16:41:00.000Z","time":"2023-10-18T16:41:00.000Z","reihung":false},"departure":{"platform":"5","scheduledTime":"2023-10-18T16:43:00.000Z","time":"2023-10-18T16:43:00.000Z","reihung":false}},{"station":{"evaNumber":"8002687","name":"Heidelberg-Pfaffengrund/Wieblingen","coordinates":{"lng":8.641474,"lat":49.411969},"ril100":"RHBP"},"arrival":{"platform":"1","scheduledTime":"2023-10-18T16:45:00.000Z","time":"2023-10-18T16:45:00.000Z","reihung":false},"departure":{"platform":"1","scheduledTime":"2023-10-18T16:46:00.000Z","time":"2023-10-18T16:46:00.000Z","reihung":false}},{"station":{"evaNumber":"8003842","name":"Mannheim-Friedrichsfeld Süd","coordinates":{"lng":8.572239,"lat":49.438217},"ril100":"RMFS"},"arrival":{"platform":"1","scheduledTime":"2023-10-18T16:50:00.000Z","time":"2023-10-18T16:50:00.000Z","reihung":false},"departure":{"platform":"1","scheduledTime":"2023-10-18T16:50:00.000Z","time":"2023-10-18T16:50:00.000Z","reihung":false}},{"station":{"evaNumber":"8003847","name":"Mannheim-Seckenheim","coordinates":{"lng":8.538098,"lat":49.451413},"ril100":"RMSE"},"arrival":{"platform":"1","scheduledTime":"2023-10-18T16:52:00.000Z","time":"2023-10-18T16:52:00.000Z","reihung":false},"departure":{"platform":"1","scheduledTime":"2023-10-18T16:53:00.000Z","time":"2023-10-18T16:53:00.000Z","reihung":false}},{"station":{"evaNumber":"8003841","name":"Mannheim ARENA/Maimarkt","coordinates":{"lng":8.515922,"lat":49.45998},"ril100":"RMSM"},"arrival":{"platform":"1","scheduledTime":"2023-10-18T16:55:00.000Z","time":"2023-10-18T16:55:00.000Z","reihung":false},"departure":{"platform":"1","scheduledTime":"2023-10-18T16:55:00.000Z","time":"2023-10-18T16:55:00.000Z","reihung":false}},{"station":{"evaNumber":"8000244","name":"Mannheim Hbf","coordinates":{"lng":8.469268,"lat":49.479181},"ril100":"RM"},"arrival":{"platform":"1","scheduledTime":"2023-10-18T17:01:00.000Z","time":"2023-10-18T17:01:00.000Z","reihung":false}}],"finalDestination":"Schifferstadt","jid":"1|254291|0|80|18102023","messages":[{"type":"A","code":"FB","prio":260,"icoX":5,"txtN":"Fahrradmitnahme begrenzt möglich"},{"type":"A","code":"EH","prio":560,"icoX":6,"txtN":"Fahrzeuggebundene Einstiegshilfe vorhanden"}],"type":"JNY"},{"arrival":{"platform":"6a","scheduledTime":"2023-10-18T18:36:00.000Z","time":"2023-10-18T18:36:00.000Z","reihung":false},"departure":{"platform":"1","scheduledTime":"2023-10-18T17:15:00.000Z","time":"2023-10-18T17:15:00.000Z","reihung":false},"duration":4860000,"train":{"name":"S 6","line":"6","admin":"801518","number":"38696","type":"S","operator":{"name":"DB Regio AG Mitte","icoX":14}},"segmentStart":{"name":"Mannheim Hbf","evaNumber":"8000244"},"segmentDestination":{"name":"Mainz Hbf","evaNumber":"8000240"},"stops":[{"station":{"evaNumber":"8000244","name":"Mannheim Hbf","coordinates":{"lng":8.469268,"lat":49.479181},"ril100":"RM"},"departure":{"platform":"1","scheduledTime":"2023-10-18T17:15:00.000Z","time":"2023-10-18T17:15:00.000Z","reihung":false}},{"station":{"evaNumber":"8003759","name":"Ludwigshafen(Rhein) Mitte","coordinates":{"lng":8.452215,"lat":49.478938},"ril100":"RLSM"},"arrival":{"platform":"1","scheduledTime":"2023-10-18T17:17:00.000Z","time":"2023-10-18T17:17:00.000Z","reihung":false},"departure":{"platform":"1","scheduledTime":"2023-10-18T17:17:00.000Z","time":"2023-10-18T17:17:00.000Z","reihung":false}},{"station":{"evaNumber":"8000236","name":"Ludwigshafen(Rh)Hbf","coordinates":{"lng":8.433769,"lat":49.477257},"ril100":"RL"},"arrival":{"platform":"1","scheduledTime":"2023-10-18T17:19:00.000Z","time":"2023-10-18T17:19:00.000Z","reihung":false},"departure":{"platform":"1","scheduledTime":"2023-10-18T17:20:00.000Z","time":"2023-10-18T17:20:00.000Z","reihung":false}},{"station":{"evaNumber":"8003766","name":"Ludwigshafen-Oggersheim","coordinates":{"lng":8.381587,"lat":49.49324},"ril100":"RLO"},"arrival":{"platform":"2","scheduledTime":"2023-10-18T17:23:00.000Z","time":"2023-10-18T17:23:00.000Z","reihung":false},"departure":{"platform":"2","scheduledTime":"2023-10-18T17:24:00.000Z","time":"2023-10-18T17:24:00.000Z","reihung":false}},{"station":{"evaNumber":"8002025","name":"Frankenthal Süd","coordinates":{"lng":8.349559,"lat":49.522698},"ril100":"RFTS"},"arrival":{"platform":"1","scheduledTime":"2023-10-18T17:27:00.000Z","time":"2023-10-18T17:27:00.000Z","reihung":false},"departure":{"platform":"1","scheduledTime":"2023-10-18T17:27:00.000Z","time":"2023-10-18T17:27:00.000Z","reihung":false}},{"station":{"evaNumber":"8000332","name":"Frankenthal Hbf","coordinates":{"lng":8.349657,"lat":49.535633},"ril100":"RFT"},"arrival":{"platform":"1","scheduledTime":"2023-10-18T17:29:00.000Z","time":"2023-10-18T17:29:00.000Z","reihung":false},"departure":{"platform":"1","scheduledTime":"2023-10-18T17:29:00.000Z","time":"2023-10-18T17:29:00.000Z","reihung":false}},{"station":{"evaNumber":"8001032","name":"Bobenheim","coordinates":{"lng":8.35035,"lat":49.588139},"ril100":"RBOB"},"arrival":{"platform":"1","scheduledTime":"2023-10-18T17:32:00.000Z","time":"2023-10-18T17:32:00.000Z","reihung":false},"departure":{"platform":"1","scheduledTime":"2023-10-18T17:33:00.000Z","time":"2023-10-18T17:33:00.000Z","reihung":false}},{"station":{"evaNumber":"8000257","name":"Worms Hbf","coordinates":{"lng":8.356633,"lat":49.634973},"ril100":"FWOR"},"arrival":{"platform":"5","scheduledTime":"2023-10-18T17:37:00.000Z","time":"2023-10-18T17:37:00.000Z","reihung":false},"departure":{"platform":"5","scheduledTime":"2023-10-18T17:55:00.000Z","time":"2023-10-18T17:55:00.000Z","reihung":false}},{"station":{"evaNumber":"8004714","name":"Osthofen","coordinates":{"lng":8.326267,"lat":49.705071},"ril100":"FOHF"},"arrival":{"platform":"2","scheduledTime":"2023-10-18T18:01:00.000Z","time":"2023-10-18T18:01:00.000Z","reihung":false},"departure":{"platform":"2","scheduledTime":"2023-10-18T18:01:00.000Z","time":"2023-10-18T18:01:00.000Z","reihung":false}},{"station":{"evaNumber":"8004003","name":"Mettenheim","coordinates":{"lng":8.334133,"lat":49.739697},"ril100":"FMET"},"arrival":{"platform":"2","scheduledTime":"2023-10-18T18:04:00.000Z","time":"2023-10-18T18:04:00.000Z","reihung":false},"departure":{"platform":"2","scheduledTime":"2023-10-18T18:04:00.000Z","time":"2023-10-18T18:04:00.000Z","reihung":false}},{"station":{"evaNumber":"8000506","name":"Alsheim","coordinates":{"lng":8.342565,"lat":49.765487},"ril100":"FAHM"},"arrival":{"platform":"2","scheduledTime":"2023-10-18T18:07:00.000Z","time":"2023-10-18T18:07:00.000Z","reihung":false},"departure":{"platform":"2","scheduledTime":"2023-10-18T18:07:00.000Z","time":"2023-10-18T18:07:00.000Z","reihung":false}},{"station":{"evaNumber":"8002474","name":"Guntersblum","coordinates":{"lng":8.351177,"lat":49.791862},"ril100":"FGUB"},"arrival":{"platform":"1","scheduledTime":"2023-10-18T18:10:00.000Z","time":"2023-10-18T18:10:00.000Z","reihung":false},"departure":{"platform":"1","scheduledTime":"2023-10-18T18:10:00.000Z","time":"2023-10-18T18:10:00.000Z","reihung":false}},{"station":{"evaNumber":"8001448","name":"Dienheim","coordinates":{"lng":8.357271,"lat":49.841887},"ril100":"FDHM"},"arrival":{"platform":"2","scheduledTime":"2023-10-18T18:14:00.000Z","time":"2023-10-18T18:14:00.000Z","reihung":false},"departure":{"platform":"2","scheduledTime":"2023-10-18T18:14:00.000Z","time":"2023-10-18T18:14:00.000Z","reihung":false}},{"station":{"evaNumber":"8004680","name":"Oppenheim","coordinates":{"lng":8.358098,"lat":49.857564},"ril100":"FOPP"},"arrival":{"platform":"1","scheduledTime":"2023-10-18T18:16:00.000Z","time":"2023-10-18T18:16:00.000Z","reihung":false},"departure":{"platform":"1","scheduledTime":"2023-10-18T18:17:00.000Z","time":"2023-10-18T18:17:00.000Z","reihung":false}},{"station":{"evaNumber":"8004432","name":"Nierstein","coordinates":{"lng":8.342682,"lat":49.872117},"ril100":"FNIR"},"arrival":{"platform":"1","scheduledTime":"2023-10-18T18:19:00.000Z","time":"2023-10-18T18:19:00.000Z","reihung":false},"departure":{"platform":"1","scheduledTime":"2023-10-18T18:19:00.000Z","time":"2023-10-18T18:19:00.000Z","reihung":false}},{"station":{"evaNumber":"8004193","name":"Nackenheim","coordinates":{"lng":8.341882,"lat":49.919104},"ril100":"FNAC"},"arrival":{"platform":"2","scheduledTime":"2023-10-18T18:23:00.000Z","time":"2023-10-18T18:23:00.000Z","reihung":false},"departure":{"platform":"2","scheduledTime":"2023-10-18T18:23:00.000Z","time":"2023-10-18T18:23:00.000Z","reihung":false}},{"station":{"evaNumber":"8000359","name":"Bodenheim","coordinates":{"lng":8.311229,"lat":49.930529},"ril100":"FBOD"},"arrival":{"platform":"2","scheduledTime":"2023-10-18T18:25:00.000Z","time":"2023-10-18T18:25:00.000Z","reihung":false},"departure":{"platform":"2","scheduledTime":"2023-10-18T18:26:00.000Z","time":"2023-10-18T18:26:00.000Z","reihung":false}},{"station":{"evaNumber":"8003819","name":"Mainz-Laubenheim","coordinates":{"lng":8.314159,"lat":49.961192},"ril100":"FML"},"arrival":{"platform":"2","scheduledTime":"2023-10-18T18:29:00.000Z","time":"2023-10-18T18:29:00.000Z","reihung":false},"departure":{"platform":"2","scheduledTime":"2023-10-18T18:29:00.000Z","time":"2023-10-18T18:29:00.000Z","reihung":false}},{"station":{"evaNumber":"8003816","name":"Mainz Römisches Theater","coordinates":{"lng":8.277393,"lat":49.993517},"ril100":"FMS"},"arrival":{"platform":"1","scheduledTime":"2023-10-18T18:32:00.000Z","time":"2023-10-18T18:32:00.000Z","reihung":false},"departure":{"platform":"1","scheduledTime":"2023-10-18T18:33:00.000Z","time":"2023-10-18T18:33:00.000Z","reihung":false}},{"station":{"evaNumber":"8000240","name":"Mainz Hbf","coordinates":{"lng":8.258453,"lat":50.001239},"ril100":"FMZ"},"arrival":{"platform":"6a","scheduledTime":"2023-10-18T18:36:00.000Z","time":"2023-10-18T18:36:00.000Z","reihung":false}}],"finalDestination":"Mainz Hbf","jid":"1|254875|0|80|18102023","messages":[{"type":"A","code":"FB","prio":260,"icoX":5,"txtN":"Fahrradmitnahme begrenzt möglich"},{"type":"A","code":"EH","prio":560,"icoX":6,"txtN":"Fahrzeuggebundene Einstiegshilfe vorhanden"},{"type":"A","code":"LS","prio":605,"icoX":6,"txtN":"Laptop-Steckdosen"},{"type":"A","code":"KL","prio":610,"icoX":6,"txtN":"Klimaanlage"}],"type":"JNY"}],"segmentTypes":["RB","RE","S","S"]},{"checksum":"bccdc956_3","cid":"C-3","date":"2023-10-17T22:00:00.000Z","duration":14460000,"changes":2,"isRideable":true,"arrival":{"platform":"1a","scheduledTime":"2023-10-18T18:43:00.000Z","time":"2023-10-18T18:43:00.000Z","reihung":false},"departure":{"platform":"1","scheduledTime":"2023-10-18T14:42:00.000Z","time":"2023-10-18T14:42:00.000Z","reihung":false},"segments":[{"arrival":{"platform":"10","scheduledTime":"2023-10-18T16:21:00.000Z","time":"2023-10-18T16:21:00.000Z","reihung":false},"departure":{"platform":"1","scheduledTime":"2023-10-18T14:42:00.000Z","time":"2023-10-18T14:42:00.000Z","reihung":false},"duration":5940000,"train":{"name":"RE 7","line":"7","admin":"8006C5","number":"17024","type":"RE","operator":{"name":"DB Regio AG Baden-Württemberg","icoX":9}},"changeDuration":7,"segmentStart":{"name":"Freiburg(Breisgau) Hbf","evaNumber":"8000107"},"segmentDestination":{"name":"Karlsruhe Hbf","evaNumber":"8000191"},"stops":[{"station":{"evaNumber":"8000107","name":"Freiburg(Breisgau) Hbf","coordinates":{"lng":7.841344,"lat":47.997974},"ril100":"RF"},"departure":{"platform":"1","scheduledTime":"2023-10-18T14:42:00.000Z","time":"2023-10-18T14:42:00.000Z","reihung":false}},{"station":{"evaNumber":"8001415","name":"Denzlingen","coordinates":{"lng":7.881697,"lat":48.068648},"ril100":"RDZ"},"arrival":{"platform":"1","scheduledTime":"2023-10-18T14:46:00.000Z","time":"2023-10-18T14:46:00.000Z","reihung":false},"departure":{"platform":"1","scheduledTime":"2023-10-18T14:47:00.000Z","time":"2023-10-18T14:47:00.000Z","reihung":false}},{"station":{"evaNumber":"8001771","name":"Emmendingen","coordinates":{"lng":7.847924,"lat":48.119302},"ril100":"REMM"},"arrival":{"platform":"1","scheduledTime":"2023-10-18T14:51:00.000Z","time":"2023-10-18T14:51:00.000Z","reihung":false},"departure":{"platform":"1","scheduledTime":"2023-10-18T14:52:00.000Z","time":"2023-10-18T14:52:00.000Z","reihung":false}},{"station":{"evaNumber":"8005090","name":"Riegel-Malterdingen","coordinates":{"lng":7.770734,"lat":48.152059},"ril100":"RRL"},"arrival":{"platform":"2","scheduledTime":"2023-10-18T14:56:00.000Z","time":"2023-10-18T14:56:00.000Z","reihung":false},"departure":{"platform":"2","scheduledTime":"2023-10-18T14:56:00.000Z","time":"2023-10-18T14:56:00.000Z","reihung":false}},{"station":{"evaNumber":"8003233","name":"Kenzingen","coordinates":{"lng":7.764199,"lat":48.194452},"ril100":"RKN"},"arrival":{"platform":"2","scheduledTime":"2023-10-18T14:59:00.000Z","time":"2023-10-18T14:59:00.000Z","reihung":false},"departure":{"platform":"2","scheduledTime":"2023-10-18T15:00:00.000Z","time":"2023-10-18T15:00:00.000Z","reihung":false}},{"station":{"evaNumber":"8002763","name":"Herbolzheim(Breisg)","coordinates":{"lng":7.76784,"lat":48.223837},"ril100":"RHZ"},"arrival":{"platform":"2","scheduledTime":"2023-10-18T15:02:00.000Z","time":"2023-10-18T15:02:00.000Z","reihung":false},"departure":{"platform":"2","scheduledTime":"2023-10-18T15:03:00.000Z","time":"2023-10-18T15:03:00.000Z","reihung":false}},{"station":{"evaNumber":"8003494","name":"Lahr(Schwarzw)","coordinates":{"lng":7.835295,"lat":48.340571},"ril100":"RLSW"},"arrival":{"platform":"2","scheduledTime":"2023-10-18T15:10:00.000Z","time":"2023-10-18T15:10:00.000Z","reihung":false},"departure":{"platform":"2","scheduledTime":"2023-10-18T15:11:00.000Z","time":"2023-10-18T15:11:00.000Z","reihung":false}},{"station":{"evaNumber":"8000290","name":"Offenburg","coordinates":{"lng":7.94677,"lat":48.476506},"ril100":"RO"},"arrival":{"platform":"6","scheduledTime":"2023-10-18T15:22:00.000Z","time":"2023-10-18T15:22:00.000Z","reihung":false},"departure":{"platform":"6","scheduledTime":"2023-10-18T15:34:00.000Z","time":"2023-10-18T15:34:00.000Z","reihung":false}},{"station":{"evaNumber":"8000596","name":"Appenweier","coordinates":{"lng":7.973387,"lat":48.54193},"ril100":"RAP"},"arrival":{"platform":"1","scheduledTime":"2023-10-18T15:38:00.000Z","time":"2023-10-18T15:38:00.000Z","reihung":false},"departure":{"platform":"1","scheduledTime":"2023-10-18T15:39:00.000Z","time":"2023-10-18T15:39:00.000Z","reihung":false}},{"station":{"evaNumber":"8005037","name":"Renchen","coordinates":{"lng":8.007222,"lat":48.592728},"ril100":"RR"},"arrival":{"platform":"1","scheduledTime":"2023-10-18T15:43:00.000Z","time":"2023-10-18T15:43:00.000Z","reihung":false},"departure":{"platform":"1","scheduledTime":"2023-10-18T15:44:00.000Z","time":"2023-10-18T15:44:00.000Z","reihung":false}},{"station":{"evaNumber":"8000412","name":"Achern","coordinates":{"lng":8.065275,"lat":48.633997},"ril100":"RAH"},"arrival":{"platform":"2","scheduledTime":"2023-10-18T15:48:00.000Z","time":"2023-10-18T15:48:00.000Z","reihung":false},"departure":{"platform":"2","scheduledTime":"2023-10-18T15:49:00.000Z","time":"2023-10-18T15:49:00.000Z","reihung":false}},{"station":{"evaNumber":"8001252","name":"Bühl(Baden)","coordinates":{"lng":8.129314,"lat":48.696508},"ril100":"RBUE"},"arrival":{"platform":"1","scheduledTime":"2023-10-18T15:53:00.000Z","time":"2023-10-18T15:53:00.000Z","reihung":false},"departure":{"platform":"1","scheduledTime":"2023-10-18T15:54:00.000Z","time":"2023-10-18T15:54:00.000Z","reihung":false}},{"station":{"evaNumber":"8000774","name":"Baden-Baden","coordinates":{"lng":8.190773,"lat":48.790392},"ril100":"RBB"},"arrival":{"platform":"2","scheduledTime":"2023-10-18T16:00:00.000Z","time":"2023-10-18T16:00:00.000Z","reihung":false},"departure":{"platform":"2","scheduledTime":"2023-10-18T16:01:00.000Z","time":"2023-10-18T16:01:00.000Z","reihung":false}},{"station":{"evaNumber":"8000306","name":"Rastatt","coordinates":{"lng":8.215763,"lat":48.860597},"ril100":"RRA"},"arrival":{"platform":"4","scheduledTime":"2023-10-18T16:07:00.000Z","time":"2023-10-18T16:07:00.000Z","reihung":false},"departure":{"platform":"4","scheduledTime":"2023-10-18T16:08:00.000Z","time":"2023-10-18T16:08:00.000Z","reihung":false}},{"station":{"evaNumber":"8000191","name":"Karlsruhe Hbf","coordinates":{"lng":8.401939,"lat":48.99353},"ril100":"RK"},"arrival":{"platform":"10","scheduledTime":"2023-10-18T16:21:00.000Z","time":"2023-10-18T16:21:00.000Z","reihung":false}}],"finalDestination":"Karlsruhe Hbf","jid":"1|259386|0|80|18102023","messages":[{"type":"A","code":"FB","prio":260,"icoX":5,"txtN":"Fahrradmitnahme begrenzt möglich"},{"type":"A","code":"EH","prio":560,"icoX":6,"txtN":"Fahrzeuggebundene Einstiegshilfe vorhanden"}],"type":"JNY"},{"arrival":{"platform":"12","scheduledTime":"2023-10-18T17:20:00.000Z","time":"2023-10-18T17:20:00.000Z","reihung":false},"departure":{"platform":"3","scheduledTime":"2023-10-18T16:28:00.000Z","time":"2023-10-18T16:28:00.000Z","reihung":false},"duration":3120000,"train":{"name":"S 9","line":"9","admin":"801518","number":"38972","type":"S","operator":{"name":"DB Regio AG Mitte","icoX":14}},"changeDuration":31,"segmentStart":{"name":"Karlsruhe Hbf","evaNumber":"8000191"},"segmentDestination":{"name":"Mannheim Hbf","evaNumber":"8000244"},"stops":[{"station":{"evaNumber":"8000191","name":"Karlsruhe Hbf","coordinates":{"lng":8.401939,"lat":48.99353},"ril100":"RK"},"departure":{"platform":"3","scheduledTime":"2023-10-18T16:28:00.000Z","time":"2023-10-18T16:28:00.000Z","reihung":false}},{"station":{"evaNumber":"8003185","name":"Karlsruhe-Hagsfeld","coordinates":{"lng":8.453312,"lat":49.024794},"ril100":"RKHA"},"arrival":{"platform":"2","scheduledTime":"2023-10-18T16:32:00.000Z","time":"2023-10-18T16:32:00.000Z","reihung":false},"departure":{"platform":"2","scheduledTime":"2023-10-18T16:32:00.000Z","time":"2023-10-18T16:32:00.000Z","reihung":false}},{"station":{"evaNumber":"8001009","name":"Blankenloch","coordinates":{"lng":8.464683,"lat":49.066351},"ril100":"RBAN"},"arrival":{"platform":"1","scheduledTime":"2023-10-18T16:35:00.000Z","time":"2023-10-18T16:35:00.000Z","reihung":false},"departure":{"platform":"1","scheduledTime":"2023-10-18T16:36:00.000Z","time":"2023-10-18T16:36:00.000Z","reihung":false}},{"station":{"evaNumber":"8002116","name":"Friedrichstal(Baden)","coordinates":{"lng":8.473996,"lat":49.100241}},"arrival":{"platform":"2","scheduledTime":"2023-10-18T16:38:00.000Z","time":"2023-10-18T16:38:00.000Z","reihung":false},"departure":{"platform":"2","scheduledTime":"2023-10-18T16:39:00.000Z","time":"2023-10-18T16:39:00.000Z","reihung":false}},{"station":{"evaNumber":"8000131","name":"Graben-Neudorf","coordinates":{"lng":8.490617,"lat":49.162284},"ril100":"RGN"},"arrival":{"platform":"2","scheduledTime":"2023-10-18T16:43:00.000Z","time":"2023-10-18T16:43:00.000Z","reihung":false},"departure":{"platform":"2","scheduledTime":"2023-10-18T16:44:00.000Z","time":"2023-10-18T16:44:00.000Z","reihung":false}},{"station":{"evaNumber":"8006417","name":"Wiesental","coordinates":{"lng":8.502465,"lat":49.22591},"ril100":"RWI"},"arrival":{"platform":"1","scheduledTime":"2023-10-18T16:49:00.000Z","time":"2023-10-18T16:49:00.000Z","reihung":false},"departure":{"platform":"1","scheduledTime":"2023-10-18T16:49:00.000Z","time":"2023-10-18T16:49:00.000Z","reihung":false}},{"station":{"evaNumber":"8006137","name":"Waghäusel","coordinates":{"lng":8.50811,"lat":49.248014},"ril100":"RWG"},"arrival":{"platform":"2","scheduledTime":"2023-10-18T16:51:00.000Z","time":"2023-10-18T16:51:00.000Z","reihung":false},"departure":{"platform":"2","scheduledTime":"2023-10-18T16:52:00.000Z","time":"2023-10-18T16:52:00.000Z","reihung":false}},{"station":{"evaNumber":"8004304","name":"Neulußheim","coordinates":{"lng":8.530161,"lat":49.291972},"ril100":"RNL"},"arrival":{"platform":"1","scheduledTime":"2023-10-18T16:55:00.000Z","time":"2023-10-18T16:55:00.000Z","reihung":false},"departure":{"platform":"1","scheduledTime":"2023-10-18T16:56:00.000Z","time":"2023-10-18T16:56:00.000Z","reihung":false}},{"station":{"evaNumber":"8002883","name":"Hockenheim","coordinates":{"lng":8.537154,"lat":49.317438},"ril100":"RHK"},"arrival":{"platform":"1","scheduledTime":"2023-10-18T16:58:00.000Z","time":"2023-10-18T16:58:00.000Z","reihung":false},"departure":{"platform":"1","scheduledTime":"2023-10-18T16:59:00.000Z","time":"2023-10-18T16:59:00.000Z","reihung":false}},{"station":{"evaNumber":"8004658","name":"Oftersheim","coordinates":{"lng":8.579206,"lat":49.373657},"ril100":"ROFH"},"arrival":{"platform":"1","scheduledTime":"2023-10-18T17:03:00.000Z","time":"2023-10-18T17:03:00.000Z","reihung":false},"departure":{"platform":"1","scheduledTime":"2023-10-18T17:03:00.000Z","time":"2023-10-18T17:03:00.000Z","reihung":false}},{"station":{"evaNumber":"8005494","name":"Schwetzingen","coordinates":{"lng":8.578712,"lat":49.383428},"ril100":"RSZ"},"arrival":{"platform":"2","scheduledTime":"2023-10-18T17:05:00.000Z","time":"2023-10-18T17:05:00.000Z","reihung":false},"departure":{"platform":"2","scheduledTime":"2023-10-18T17:05:00.000Z","time":"2023-10-18T17:05:00.000Z","reihung":false}},{"station":{"evaNumber":"8005493","name":"Schwetzingen-Hirschacker","coordinates":{"lng":8.556337,"lat":49.4068},"ril100":"RHKR"},"arrival":{"platform":"2","scheduledTime":"2023-10-18T17:09:00.000Z","time":"2023-10-18T17:09:00.000Z","reihung":false},"departure":{"platform":"2","scheduledTime":"2023-10-18T17:09:00.000Z","time":"2023-10-18T17:09:00.000Z","reihung":false}},{"station":{"evaNumber":"8003845","name":"Mannheim-Rheinau","coordinates":{"lng":8.534997,"lat":49.42405},"ril100":"RMA"},"arrival":{"platform":"1","scheduledTime":"2023-10-18T17:11:00.000Z","time":"2023-10-18T17:11:00.000Z","reihung":false},"departure":{"platform":"1","scheduledTime":"2023-10-18T17:12:00.000Z","time":"2023-10-18T17:12:00.000Z","reihung":false}},{"station":{"evaNumber":"8003844","name":"Mannheim-Neckarau","coordinates":{"lng":8.49477,"lat":49.45553},"ril100":"RMN"},"arrival":{"platform":"2","scheduledTime":"2023-10-18T17:15:00.000Z","time":"2023-10-18T17:15:00.000Z","reihung":false},"departure":{"platform":"2","scheduledTime":"2023-10-18T17:15:00.000Z","time":"2023-10-18T17:15:00.000Z","reihung":false}},{"station":{"evaNumber":"8000244","name":"Mannheim Hbf","coordinates":{"lng":8.469268,"lat":49.479181},"ril100":"RM"},"arrival":{"platform":"12","scheduledTime":"2023-10-18T17:20:00.000Z","time":"2023-10-18T17:20:00.000Z","reihung":false}}],"finalDestination":"Ludwigshafen(Rh)Hbf","jid":"1|255151|0|80|18102023","messages":[{"type":"A","code":"FB","prio":260,"icoX":5,"txtN":"Fahrradmitnahme begrenzt möglich"},{"type":"A","code":"EH","prio":560,"icoX":6,"txtN":"Fahrzeuggebundene Einstiegshilfe vorhanden"},{"type":"A","code":"LS","prio":605,"icoX":6,"txtN":"Laptop-Steckdosen"},{"type":"A","code":"KL","prio":610,"icoX":6,"txtN":"Klimaanlage"}],"type":"JNY"},{"arrival":{"platform":"1a","scheduledTime":"2023-10-18T18:43:00.000Z","time":"2023-10-18T18:43:00.000Z","reihung":false},"departure":{"platform":"3","scheduledTime":"2023-10-18T17:51:00.000Z","time":"2023-10-18T17:51:00.000Z","reihung":false},"duration":3120000,"train":{"name":"RE 14","line":"14","admin":"800640","number":"4498","type":"RE","operator":{"name":"DB Regio AG Mitte SÜWEX","icoX":15}},"segmentStart":{"name":"Mannheim Hbf","evaNumber":"8000244"},"segmentDestination":{"name":"Mainz Hbf","evaNumber":"8000240"},"stops":[{"station":{"evaNumber":"8000244","name":"Mannheim Hbf","coordinates":{"lng":8.469268,"lat":49.479181},"ril100":"RM"},"departure":{"platform":"3","scheduledTime":"2023-10-18T17:51:00.000Z","time":"2023-10-18T17:51:00.000Z","reihung":false}},{"station":{"evaNumber":"8003759","name":"Ludwigshafen(Rhein) Mitte","coordinates":{"lng":8.452215,"lat":49.478938},"ril100":"RLSM"},"arrival":{"platform":"1","scheduledTime":"2023-10-18T17:53:00.000Z","time":"2023-10-18T17:53:00.000Z","reihung":false},"departure":{"platform":"1","scheduledTime":"2023-10-18T17:54:00.000Z","time":"2023-10-18T17:54:00.000Z","reihung":false}},{"station":{"evaNumber":"8000332","name":"Frankenthal Hbf","coordinates":{"lng":8.349657,"lat":49.535633},"ril100":"RFT"},"arrival":{"platform":"1","scheduledTime":"2023-10-18T18:07:00.000Z","time":"2023-10-18T18:07:00.000Z","reihung":false},"departure":{"platform":"1","scheduledTime":"2023-10-18T18:08:00.000Z","time":"2023-10-18T18:08:00.000Z","reihung":false}},{"station":{"evaNumber":"8000257","name":"Worms Hbf","coordinates":{"lng":8.356633,"lat":49.634973},"ril100":"FWOR"},"arrival":{"platform":"1","scheduledTime":"2023-10-18T18:16:00.000Z","time":"2023-10-18T18:16:00.000Z","reihung":false},"departure":{"platform":"1","scheduledTime":"2023-10-18T18:17:00.000Z","time":"2023-10-18T18:17:00.000Z","reihung":false}},{"station":{"evaNumber":"8000240","name":"Mainz Hbf","coordinates":{"lng":8.258453,"lat":50.001239},"ril100":"FMZ"},"arrival":{"platform":"1a","scheduledTime":"2023-10-18T18:43:00.000Z","time":"2023-10-18T18:43:00.000Z","reihung":false}}],"finalDestination":"Frankfurt(Main)Hbf","jid":"1|255984|0|80|18102023","messages":[{"type":"A","code":"FB","prio":260,"icoX":5,"txtN":"Fahrradmitnahme begrenzt möglich"},{"type":"A","code":"RC","prio":320,"icoX":6,"txtN":"Reservierung an DB-Automaten/Reisezentren/vielen DB-Agenturen möglich"},{"type":"A","code":"RO","prio":560,"icoX":16,"txtN":"Rollstuhlstellplatz"},{"type":"A","code":"EH","prio":560,"icoX":6,"txtN":"Fahrzeuggebundene Einstiegshilfe vorhanden"},{"type":"A","code":"LS","prio":605,"icoX":6,"txtN":"Laptop-Steckdosen"},{"type":"A","code":"KL","prio":610,"icoX":6,"txtN":"Klimaanlage"}],"type":"JNY"}],"segmentTypes":["RE","S","RE"]},{"checksum":"10f91a1c_3","cid":"C-4","date":"2023-10-17T22:00:00.000Z","duration":8580000,"changes":1,"isRideable":true,"arrival":{"platform":"3a/b","scheduledTime":"2023-10-18T17:18:00.000Z","time":"2023-10-18T17:18:00.000Z","reihung":false},"departure":{"platform":"1","scheduledTime":"2023-10-18T14:55:00.000Z","time":"2023-10-18T14:55:00.000Z","reihung":false},"segments":[{"arrival":{"platform":"2","scheduledTime":"2023-10-18T16:24:00.000Z","time":"2023-10-18T16:24:00.000Z","reihung":false},"departure":{"platform":"1","scheduledTime":"2023-10-18T14:55:00.000Z","time":"2023-10-18T14:55:00.000Z","reihung":false},"duration":5340000,"train":{"name":"ICE 274","line":"12","admin":"80","number":"274","type":"ICE","operator":{"name":"DB Fernverkehr AG","icoX":2}},"changeDuration":15,"segmentStart":{"name":"Freiburg(Breisgau) Hbf","evaNumber":"8000107"},"segmentDestination":{"name":"Mannheim Hbf","evaNumber":"8000244"},"stops":[{"station":{"evaNumber":"8000107","name":"Freiburg(Breisgau) Hbf","coordinates":{"lng":7.841344,"lat":47.997974},"ril100":"RF"},"departure":{"platform":"1","scheduledTime":"2023-10-18T14:55:00.000Z","time":"2023-10-18T14:55:00.000Z","reihung":false},"auslastung":{"first":1,"second":1}},{"station":{"evaNumber":"8000290","name":"Offenburg","coordinates":{"lng":7.94677,"lat":48.476506},"ril100":"RO"},"arrival":{"platform":"3","scheduledTime":"2023-10-18T15:26:00.000Z","time":"2023-10-18T15:26:00.000Z","reihung":false},"departure":{"platform":"3","scheduledTime":"2023-10-18T15:27:00.000Z","time":"2023-10-18T15:27:00.000Z","reihung":false},"auslastung":{"first":1,"second":1}},{"station":{"evaNumber":"8000191","name":"Karlsruhe Hbf","coordinates":{"lng":8.401939,"lat":48.99353},"ril100":"RK"},"arrival":{"platform":"3","scheduledTime":"2023-10-18T15:58:00.000Z","time":"2023-10-18T15:58:00.000Z","reihung":false},"departure":{"platform":"3","scheduledTime":"2023-10-18T16:00:00.000Z","time":"2023-10-18T16:00:00.000Z","reihung":false},"auslastung":{"first":1,"second":1}},{"station":{"evaNumber":"8000244","name":"Mannheim Hbf","coordinates":{"lng":8.469268,"lat":49.479181},"ril100":"RM"},"arrival":{"platform":"2","scheduledTime":"2023-10-18T16:24:00.000Z","time":"2023-10-18T16:24:00.000Z","reihung":false}}],"finalDestination":"Hamburg-Altona","jid":"1|204229|0|80|18102023","auslastung":{"first":1,"second":1},"messages":[{"type":"A","code":"CK","prio":200,"icoX":6,"txtN":"Sicher & kontaktlos ohne Ticketkontrolle reisen mit Komfort Check-in"},{"type":"A","code":"FR","prio":260,"icoX":4,"txtN":"Fahrradmitnahme reservierungspflichtig"},{"type":"A","code":"FB","prio":260,"icoX":5,"txtN":"Fahrradmitnahme begrenzt möglich"},{"type":"A","code":"BR","prio":450,"icoX":7,"txtN":"Bordrestaurant"},{"type":"A","code":"EH","prio":560,"icoX":6,"txtN":"Fahrzeuggebundene Einstiegshilfe vorhanden"}],"type":"JNY"},{"arrival":{"platform":"3a/b","scheduledTime":"2023-10-18T17:18:00.000Z","time":"2023-10-18T17:18:00.000Z","reihung":false},"departure":{"platform":"2","scheduledTime":"2023-10-18T16:39:00.000Z","time":"2023-10-18T16:39:00.000Z","reihung":false},"duration":2340000,"train":{"name":"ICE 1549","line":"55","admin":"80","number":"1549","type":"ICE","operator":{"name":"DB Fernverkehr AG","icoX":2}},"segmentStart":{"name":"Mannheim Hbf","evaNumber":"8000244"},"segmentDestination":{"name":"Mainz Hbf","evaNumber":"8000240"},"stops":[{"station":{"evaNumber":"8000244","name":"Mannheim Hbf","coordinates":{"lng":8.469268,"lat":49.479181},"ril100":"RM"},"departure":{"platform":"2","scheduledTime":"2023-10-18T16:39:00.000Z","time":"2023-10-18T16:39:00.000Z","reihung":false},"auslastung":{"first":1,"second":1}},{"station":{"evaNumber":"8000240","name":"Mainz Hbf","coordinates":{"lng":8.258453,"lat":50.001239},"ril100":"FMZ"},"arrival":{"platform":"3a/b","scheduledTime":"2023-10-18T17:18:00.000Z","time":"2023-10-18T17:18:00.000Z","reihung":false}}],"finalDestination":"Dortmund Hbf","jid":"1|197935|0|80|18102023","auslastung":{"first":1,"second":1},"messages":[{"type":"A","code":"CK","prio":200,"icoX":6,"txtN":"Sicher & kontaktlos ohne Ticketkontrolle reisen mit Komfort Check-in"},{"type":"A","code":"FR","prio":260,"icoX":4,"txtN":"Fahrradmitnahme reservierungspflichtig"},{"type":"A","code":"FB","prio":260,"icoX":5,"txtN":"Fahrradmitnahme begrenzt möglich"},{"type":"A","code":"BR","prio":450,"icoX":7,"txtN":"Bordrestaurant"}],"type":"JNY"}],"segmentTypes":["ICE","ICE"]},{"checksum":"161301a1_3","cid":"C-5","date":"2023-10-17T22:00:00.000Z","duration":14400000,"changes":2,"isRideable":true,"arrival":{"platform":"3a/b","scheduledTime":"2023-10-18T19:18:00.000Z","time":"2023-10-18T19:18:00.000Z","reihung":false},"departure":{"platform":"1","scheduledTime":"2023-10-18T15:18:00.000Z","time":"2023-10-18T15:18:00.000Z","reihung":false},"segments":[{"arrival":{"platform":"12","scheduledTime":"2023-10-18T16:49:00.000Z","time":"2023-10-18T16:49:00.000Z","reihung":false},"departure":{"platform":"1","scheduledTime":"2023-10-18T15:18:00.000Z","time":"2023-10-18T15:18:00.000Z","reihung":false},"duration":5460000,"train":{"name":"RE 2","line":"2","admin":"800647","number":"4748","type":"RE","operator":{"name":"DB Regio AG Baden-Württemberg","icoX":9}},"changeDuration":39,"segmentStart":{"name":"Freiburg(Breisgau) Hbf","evaNumber":"8000107"},"segmentDestination":{"name":"Karlsruhe Hbf","evaNumber":"8000191"},"stops":[{"station":{"evaNumber":"8000107","name":"Freiburg(Breisgau) Hbf","coordinates":{"lng":7.841344,"lat":47.997974},"ril100":"RF"},"departure":{"platform":"1","scheduledTime":"2023-10-18T15:18:00.000Z","time":"2023-10-18T15:18:00.000Z","reihung":false}},{"station":{"evaNumber":"8001771","name":"Emmendingen","coordinates":{"lng":7.847924,"lat":48.119302},"ril100":"REMM"},"arrival":{"platform":"1","scheduledTime":"2023-10-18T15:27:00.000Z","time":"2023-10-18T15:27:00.000Z","reihung":false},"departure":{"platform":"1","scheduledTime":"2023-10-18T15:29:00.000Z","time":"2023-10-18T15:29:00.000Z","reihung":false}},{"station":{"evaNumber":"8005101","name":"Ringsheim/Europa-Park","coordinates":{"lng":7.773197,"lat":48.248926},"ril100":"RRI"},"arrival":{"platform":"2","scheduledTime":"2023-10-18T15:39:00.000Z","time":"2023-10-18T15:39:00.000Z","reihung":false},"departure":{"platform":"2","scheduledTime":"2023-10-18T15:40:00.000Z","time":"2023-10-18T15:40:00.000Z","reihung":false}},{"station":{"evaNumber":"8003494","name":"Lahr(Schwarzw)","coordinates":{"lng":7.835295,"lat":48.340571},"ril100":"RLSW"},"arrival":{"platform":"2","scheduledTime":"2023-10-18T15:46:00.000Z","time":"2023-10-18T15:46:00.000Z","reihung":false},"departure":{"platform":"2","scheduledTime":"2023-10-18T15:47:00.000Z","time":"2023-10-18T15:47:00.000Z","reihung":false}},{"station":{"evaNumber":"8000290","name":"Offenburg","coordinates":{"lng":7.94677,"lat":48.476506},"ril100":"RO"},"arrival":{"platform":"4","scheduledTime":"2023-10-18T15:58:00.000Z","time":"2023-10-18T15:58:00.000Z","reihung":false},"departure":{"platform":"4","scheduledTime":"2023-10-18T16:02:00.000Z","time":"2023-10-18T16:02:00.000Z","reihung":false}},{"station":{"evaNumber":"8000596","name":"Appenweier","coordinates":{"lng":7.973387,"lat":48.54193},"ril100":"RAP"},"arrival":{"platform":"1","scheduledTime":"2023-10-18T16:06:00.000Z","time":"2023-10-18T16:06:00.000Z","reihung":false},"departure":{"platform":"1","scheduledTime":"2023-10-18T16:07:00.000Z","time":"2023-10-18T16:07:00.000Z","reihung":false}},{"station":{"evaNumber":"8005037","name":"Renchen","coordinates":{"lng":8.007222,"lat":48.592728},"ril100":"RR"},"arrival":{"platform":"1","scheduledTime":"2023-10-18T16:11:00.000Z","time":"2023-10-18T16:11:00.000Z","reihung":false},"departure":{"platform":"1","scheduledTime":"2023-10-18T16:11:00.000Z","time":"2023-10-18T16:11:00.000Z","reihung":false}},{"station":{"evaNumber":"8000412","name":"Achern","coordinates":{"lng":8.065275,"lat":48.633997},"ril100":"RAH"},"arrival":{"platform":"2","scheduledTime":"2023-10-18T16:15:00.000Z","time":"2023-10-18T16:15:00.000Z","reihung":false},"departure":{"platform":"2","scheduledTime":"2023-10-18T16:16:00.000Z","time":"2023-10-18T16:16:00.000Z","reihung":false}},{"station":{"evaNumber":"8001252","name":"Bühl(Baden)","coordinates":{"lng":8.129314,"lat":48.696508},"ril100":"RBUE"},"arrival":{"platform":"1","scheduledTime":"2023-10-18T16:20:00.000Z","time":"2023-10-18T16:20:00.000Z","reihung":false},"departure":{"platform":"1","scheduledTime":"2023-10-18T16:21:00.000Z","time":"2023-10-18T16:21:00.000Z","reihung":false}},{"station":{"evaNumber":"8000774","name":"Baden-Baden","coordinates":{"lng":8.190773,"lat":48.790392},"ril100":"RBB"},"arrival":{"platform":"2","scheduledTime":"2023-10-18T16:27:00.000Z","time":"2023-10-18T16:27:00.000Z","reihung":false},"departure":{"platform":"2","scheduledTime":"2023-10-18T16:28:00.000Z","time":"2023-10-18T16:28:00.000Z","reihung":false}},{"station":{"evaNumber":"8000306","name":"Rastatt","coordinates":{"lng":8.215763,"lat":48.860597},"ril100":"RRA"},"arrival":{"platform":"4","scheduledTime":"2023-10-18T16:34:00.000Z","time":"2023-10-18T16:34:00.000Z","reihung":false},"departure":{"platform":"4","scheduledTime":"2023-10-18T16:34:00.000Z","time":"2023-10-18T16:34:00.000Z","reihung":false}},{"station":{"evaNumber":"8000191","name":"Karlsruhe Hbf","coordinates":{"lng":8.401939,"lat":48.99353},"ril100":"RK"},"arrival":{"platform":"12","scheduledTime":"2023-10-18T16:49:00.000Z","time":"2023-10-18T16:49:00.000Z","reihung":false}}],"finalDestination":"Karlsruhe Hbf","jid":"1|262552|0|80|18102023","messages":[{"type":"A","code":"FB","prio":260,"icoX":5,"txtN":"Fahrradmitnahme begrenzt möglich"},{"type":"A","code":"EH","prio":560,"icoX":6,"txtN":"Fahrzeuggebundene Einstiegshilfe vorhanden"}],"type":"JNY"},{"arrival":{"platform":"12","scheduledTime":"2023-10-18T18:22:00.000Z","time":"2023-10-18T18:22:00.000Z","reihung":false},"departure":{"platform":"3","scheduledTime":"2023-10-18T17:28:00.000Z","time":"2023-10-18T17:28:00.000Z","reihung":false},"duration":3240000,"train":{"name":"S 9","line":"9","admin":"801518","number":"38978","type":"S","operator":{"name":"DB Regio AG Mitte","icoX":14}},"changeDuration":17,"segmentStart":{"name":"Karlsruhe Hbf","evaNumber":"8000191"},"segmentDestination":{"name":"Mannheim Hbf","evaNumber":"8000244"},"stops":[{"station":{"evaNumber":"8000191","name":"Karlsruhe Hbf","coordinates":{"lng":8.401939,"lat":48.99353},"ril100":"RK"},"departure":{"platform":"3","scheduledTime":"2023-10-18T17:28:00.000Z","time":"2023-10-18T17:28:00.000Z","reihung":false}},{"station":{"evaNumber":"8003185","name":"Karlsruhe-Hagsfeld","coordinates":{"lng":8.453312,"lat":49.024794},"ril100":"RKHA"},"arrival":{"platform":"2","scheduledTime":"2023-10-18T17:32:00.000Z","time":"2023-10-18T17:32:00.000Z","reihung":false},"departure":{"platform":"2","scheduledTime":"2023-10-18T17:32:00.000Z","time":"2023-10-18T17:32:00.000Z","reihung":false}},{"station":{"evaNumber":"8001009","name":"Blankenloch","coordinates":{"lng":8.464683,"lat":49.066351},"ril100":"RBAN"},"arrival":{"platform":"1","scheduledTime":"2023-10-18T17:35:00.000Z","time":"2023-10-18T17:35:00.000Z","reihung":false},"departure":{"platform":"1","scheduledTime":"2023-10-18T17:36:00.000Z","time":"2023-10-18T17:36:00.000Z","reihung":false}},{"station":{"evaNumber":"8002116","name":"Friedrichstal(Baden)","coordinates":{"lng":8.473996,"lat":49.100241}},"arrival":{"platform":"2","scheduledTime":"2023-10-18T17:38:00.000Z","time":"2023-10-18T17:38:00.000Z","reihung":false},"departure":{"platform":"2","scheduledTime":"2023-10-18T17:39:00.000Z","time":"2023-10-18T17:39:00.000Z","reihung":false}},{"station":{"evaNumber":"8000131","name":"Graben-Neudorf","coordinates":{"lng":8.490617,"lat":49.162284},"ril100":"RGN"},"arrival":{"platform":"2","scheduledTime":"2023-10-18T17:44:00.000Z","time":"2023-10-18T17:44:00.000Z","reihung":false},"departure":{"platform":"2","scheduledTime":"2023-10-18T17:45:00.000Z","time":"2023-10-18T17:45:00.000Z","reihung":false}},{"station":{"evaNumber":"8006417","name":"Wiesental","coordinates":{"lng":8.502465,"lat":49.22591},"ril100":"RWI"},"arrival":{"platform":"1","scheduledTime":"2023-10-18T17:49:00.000Z","time":"2023-10-18T17:49:00.000Z","reihung":false},"departure":{"platform":"1","scheduledTime":"2023-10-18T17:49:00.000Z","time":"2023-10-18T17:49:00.000Z","reihung":false}},{"station":{"evaNumber":"8006137","name":"Waghäusel","coordinates":{"lng":8.50811,"lat":49.248014},"ril100":"RWG"},"arrival":{"platform":"2","scheduledTime":"2023-10-18T17:51:00.000Z","time":"2023-10-18T17:51:00.000Z","reihung":false},"departure":{"platform":"2","scheduledTime":"2023-10-18T17:52:00.000Z","time":"2023-10-18T17:52:00.000Z","reihung":false}},{"station":{"evaNumber":"8004304","name":"Neulußheim","coordinates":{"lng":8.530161,"lat":49.291972},"ril100":"RNL"},"arrival":{"platform":"1","scheduledTime":"2023-10-18T17:55:00.000Z","time":"2023-10-18T17:55:00.000Z","reihung":false},"departure":{"platform":"1","scheduledTime":"2023-10-18T17:56:00.000Z","time":"2023-10-18T17:56:00.000Z","reihung":false}},{"station":{"evaNumber":"8002883","name":"Hockenheim","coordinates":{"lng":8.537154,"lat":49.317438},"ril100":"RHK"},"arrival":{"platform":"1","scheduledTime":"2023-10-18T17:58:00.000Z","time":"2023-10-18T17:58:00.000Z","reihung":false},"departure":{"platform":"1","scheduledTime":"2023-10-18T17:59:00.000Z","time":"2023-10-18T17:59:00.000Z","reihung":false}},{"station":{"evaNumber":"8004658","name":"Oftersheim","coordinates":{"lng":8.579206,"lat":49.373657},"ril100":"ROFH"},"arrival":{"platform":"1","scheduledTime":"2023-10-18T18:03:00.000Z","time":"2023-10-18T18:03:00.000Z","reihung":false},"departure":{"platform":"1","scheduledTime":"2023-10-18T18:03:00.000Z","time":"2023-10-18T18:03:00.000Z","reihung":false}},{"station":{"evaNumber":"8005494","name":"Schwetzingen","coordinates":{"lng":8.578712,"lat":49.383428},"ril100":"RSZ"},"arrival":{"platform":"2","scheduledTime":"2023-10-18T18:05:00.000Z","time":"2023-10-18T18:05:00.000Z","reihung":false},"departure":{"platform":"2","scheduledTime":"2023-10-18T18:05:00.000Z","time":"2023-10-18T18:05:00.000Z","reihung":false}},{"station":{"evaNumber":"8005493","name":"Schwetzingen-Hirschacker","coordinates":{"lng":8.556337,"lat":49.4068},"ril100":"RHKR"},"arrival":{"platform":"2","scheduledTime":"2023-10-18T18:09:00.000Z","time":"2023-10-18T18:09:00.000Z","reihung":false},"departure":{"platform":"2","scheduledTime":"2023-10-18T18:09:00.000Z","time":"2023-10-18T18:09:00.000Z","reihung":false}},{"station":{"evaNumber":"8003845","name":"Mannheim-Rheinau","coordinates":{"lng":8.534997,"lat":49.42405},"ril100":"RMA"},"arrival":{"platform":"1","scheduledTime":"2023-10-18T18:11:00.000Z","time":"2023-10-18T18:11:00.000Z","reihung":false},"departure":{"platform":"1","scheduledTime":"2023-10-18T18:12:00.000Z","time":"2023-10-18T18:12:00.000Z","reihung":false}},{"station":{"evaNumber":"8003844","name":"Mannheim-Neckarau","coordinates":{"lng":8.49477,"lat":49.45553},"ril100":"RMN"},"arrival":{"platform":"2","scheduledTime":"2023-10-18T18:15:00.000Z","time":"2023-10-18T18:15:00.000Z","reihung":false},"departure":{"platform":"2","scheduledTime":"2023-10-18T18:15:00.000Z","time":"2023-10-18T18:15:00.000Z","reihung":false}},{"station":{"evaNumber":"8000244","name":"Mannheim Hbf","coordinates":{"lng":8.469268,"lat":49.479181},"ril100":"RM"},"arrival":{"platform":"12","scheduledTime":"2023-10-18T18:22:00.000Z","time":"2023-10-18T18:22:00.000Z","reihung":false}}],"finalDestination":"Mannheim Hbf","jid":"1|255157|0|80|18102023","messages":[{"type":"A","code":"FB","prio":260,"icoX":5,"txtN":"Fahrradmitnahme begrenzt möglich"},{"type":"A","code":"EH","prio":560,"icoX":6,"txtN":"Fahrzeuggebundene Einstiegshilfe vorhanden"},{"type":"A","code":"LS","prio":605,"icoX":6,"txtN":"Laptop-Steckdosen"},{"type":"A","code":"KL","prio":610,"icoX":6,"txtN":"Klimaanlage"}],"type":"JNY"},{"arrival":{"platform":"3a/b","scheduledTime":"2023-10-18T19:18:00.000Z","time":"2023-10-18T19:18:00.000Z","reihung":false},"departure":{"platform":"2","scheduledTime":"2023-10-18T18:39:00.000Z","time":"2023-10-18T18:39:00.000Z","reihung":false},"duration":2340000,"train":{"name":"IC 2343","line":"55","admin":"80","number":"2343","type":"IC","operator":{"name":"DB Fernverkehr AG","icoX":2}},"segmentStart":{"name":"Mannheim Hbf","evaNumber":"8000244"},"segmentDestination":{"name":"Mainz Hbf","evaNumber":"8000240"},"stops":[{"station":{"evaNumber":"8000244","name":"Mannheim Hbf","coordinates":{"lng":8.469268,"lat":49.479181},"ril100":"RM"},"departure":{"platform":"2","scheduledTime":"2023-10-18T18:39:00.000Z","time":"2023-10-18T18:39:00.000Z","reihung":false},"auslastung":{"first":1,"second":1}},{"station":{"evaNumber":"8000240","name":"Mainz Hbf","coordinates":{"lng":8.258453,"lat":50.001239},"ril100":"FMZ"},"arrival":{"platform":"3a/b","scheduledTime":"2023-10-18T19:18:00.000Z","time":"2023-10-18T19:18:00.000Z","reihung":false}}],"finalDestination":"Köln Hbf","jid":"1|202858|0|80|18102023","auslastung":{"first":1,"second":1},"messages":[{"type":"A","code":"CK","prio":200,"icoX":6,"txtN":"Sicher & kontaktlos ohne Ticketkontrolle reisen mit Komfort Check-in"},{"type":"A","code":"FR","prio":260,"icoX":4,"txtN":"Fahrradmitnahme reservierungspflichtig"},{"type":"A","code":"FB","prio":260,"icoX":5,"txtN":"Fahrradmitnahme begrenzt möglich"},{"type":"A","code":"MP","prio":460,"icoX":6,"txtN":"Snacks und Getränke am Platz"},{"type":"A","code":"EH","prio":560,"icoX":6,"txtN":"Fahrzeuggebundene Einstiegshilfe vorhanden"},{"type":"A","code":"IZ","prio":800,"icoX":6,"txtN":"Intercity 2: Info unter www.bahn.de/ic2"}],"type":"JNY"}],"segmentTypes":["RE","S","IC"]},{"checksum":"63481114_3","cid":"C-6","date":"2023-10-17T22:00:00.000Z","duration":10200000,"changes":1,"isRideable":true,"arrival":{"platform":"1a","scheduledTime":"2023-10-18T18:43:00.000Z","time":"2023-10-18T18:43:00.000Z","reihung":false},"departure":{"platform":"1","scheduledTime":"2023-10-18T15:53:00.000Z","time":"2023-10-18T15:53:00.000Z","reihung":false},"segments":[{"arrival":{"platform":"3","scheduledTime":"2023-10-18T17:24:00.000Z","time":"2023-10-18T17:24:00.000Z","reihung":false},"departure":{"platform":"1","scheduledTime":"2023-10-18T15:53:00.000Z","time":"2023-10-18T15:53:00.000Z","reihung":false},"duration":5460000,"train":{"name":"ICE 102","line":"43","admin":"80","number":"102","type":"ICE","operator":{"name":"DB Fernverkehr AG","icoX":2}},"changeDuration":27,"segmentStart":{"name":"Freiburg(Breisgau) Hbf","evaNumber":"8000107"},"segmentDestination":{"name":"Mannheim Hbf","evaNumber":"8000244"},"stops":[{"station":{"evaNumber":"8000107","name":"Freiburg(Breisgau) Hbf","coordinates":{"lng":7.841344,"lat":47.997974},"ril100":"RF"},"departure":{"platform":"1","scheduledTime":"2023-10-18T15:53:00.000Z","time":"2023-10-18T15:53:00.000Z","reihung":false},"auslastung":{"first":1,"second":1}},{"station":{"evaNumber":"8000290","name":"Offenburg","coordinates":{"lng":7.94677,"lat":48.476506},"ril100":"RO"},"arrival":{"platform":"3","scheduledTime":"2023-10-18T16:24:00.000Z","time":"2023-10-18T16:24:00.000Z","reihung":false},"departure":{"platform":"3","scheduledTime":"2023-10-18T16:26:00.000Z","time":"2023-10-18T16:26:00.000Z","reihung":false},"auslastung":{"first":1,"second":1}},{"station":{"evaNumber":"8000774","name":"Baden-Baden","coordinates":{"lng":8.190773,"lat":48.790392},"ril100":"RBB"},"arrival":{"platform":"4","scheduledTime":"2023-10-18T16:40:00.000Z","time":"2023-10-18T16:40:00.000Z","reihung":false},"departure":{"platform":"4","scheduledTime":"2023-10-18T16:41:00.000Z","time":"2023-10-18T16:41:00.000Z","reihung":false},"auslastung":{"first":1,"second":1}},{"station":{"evaNumber":"8000191","name":"Karlsruhe Hbf","coordinates":{"lng":8.401939,"lat":48.99353},"ril100":"RK"},"arrival":{"platform":"3","scheduledTime":"2023-10-18T16:58:00.000Z","time":"2023-10-18T16:58:00.000Z","reihung":false},"departure":{"platform":"3","scheduledTime":"2023-10-18T17:00:00.000Z","time":"2023-10-18T17:00:00.000Z","reihung":false},"auslastung":{"first":1,"second":1}},{"station":{"evaNumber":"8000244","name":"Mannheim Hbf","coordinates":{"lng":8.469268,"lat":49.479181},"ril100":"RM"},"arrival":{"platform":"3","scheduledTime":"2023-10-18T17:24:00.000Z","time":"2023-10-18T17:24:00.000Z","reihung":false}}],"finalDestination":"Köln Hbf","jid":"1|195496|0|80|18102023","auslastung":{"first":1,"second":1},"messages":[{"type":"A","code":"CK","prio":200,"icoX":6,"txtN":"Sicher & kontaktlos ohne Ticketkontrolle reisen mit Komfort Check-in"},{"type":"A","code":"FR","prio":260,"icoX":4,"txtN":"Fahrradmitnahme reservierungspflichtig"},{"type":"A","code":"FB","prio":260,"icoX":5,"txtN":"Fahrradmitnahme begrenzt möglich"},{"type":"A","code":"BR","prio":450,"icoX":7,"txtN":"Bordrestaurant"},{"type":"A","code":"EH","prio":560,"icoX":6,"txtN":"Fahrzeuggebundene Einstiegshilfe vorhanden"}],"type":"JNY"},{"arrival":{"platform":"1a","scheduledTime":"2023-10-18T18:43:00.000Z","time":"2023-10-18T18:43:00.000Z","reihung":false},"departure":{"platform":"3","scheduledTime":"2023-10-18T17:51:00.000Z","time":"2023-10-18T17:51:00.000Z","reihung":false},"duration":3120000,"train":{"name":"RE 14","line":"14","admin":"800640","number":"4498","type":"RE","operator":{"name":"DB Regio AG Mitte SÜWEX","icoX":15}},"segmentStart":{"name":"Mannheim Hbf","evaNumber":"8000244"},"segmentDestination":{"name":"Mainz Hbf","evaNumber":"8000240"},"stops":[{"station":{"evaNumber":"8000244","name":"Mannheim Hbf","coordinates":{"lng":8.469268,"lat":49.479181},"ril100":"RM"},"departure":{"platform":"3","scheduledTime":"2023-10-18T17:51:00.000Z","time":"2023-10-18T17:51:00.000Z","reihung":false}},{"station":{"evaNumber":"8003759","name":"Ludwigshafen(Rhein) Mitte","coordinates":{"lng":8.452215,"lat":49.478938},"ril100":"RLSM"},"arrival":{"platform":"1","scheduledTime":"2023-10-18T17:53:00.000Z","time":"2023-10-18T17:53:00.000Z","reihung":false},"departure":{"platform":"1","scheduledTime":"2023-10-18T17:54:00.000Z","time":"2023-10-18T17:54:00.000Z","reihung":false}},{"station":{"evaNumber":"8000332","name":"Frankenthal Hbf","coordinates":{"lng":8.349657,"lat":49.535633},"ril100":"RFT"},"arrival":{"platform":"1","scheduledTime":"2023-10-18T18:07:00.000Z","time":"2023-10-18T18:07:00.000Z","reihung":false},"departure":{"platform":"1","scheduledTime":"2023-10-18T18:08:00.000Z","time":"2023-10-18T18:08:00.000Z","reihung":false}},{"station":{"evaNumber":"8000257","name":"Worms Hbf","coordinates":{"lng":8.356633,"lat":49.634973},"ril100":"FWOR"},"arrival":{"platform":"1","scheduledTime":"2023-10-18T18:16:00.000Z","time":"2023-10-18T18:16:00.000Z","reihung":false},"departure":{"platform":"1","scheduledTime":"2023-10-18T18:17:00.000Z","time":"2023-10-18T18:17:00.000Z","reihung":false}},{"station":{"evaNumber":"8000240","name":"Mainz Hbf","coordinates":{"lng":8.258453,"lat":50.001239},"ril100":"FMZ"},"arrival":{"platform":"1a","scheduledTime":"2023-10-18T18:43:00.000Z","time":"2023-10-18T18:43:00.000Z","reihung":false}}],"finalDestination":"Frankfurt(Main)Hbf","jid":"1|255984|0|80|18102023","messages":[{"type":"A","code":"FB","prio":260,"icoX":5,"txtN":"Fahrradmitnahme begrenzt möglich"},{"type":"A","code":"RC","prio":320,"icoX":6,"txtN":"Reservierung an DB-Automaten/Reisezentren/vielen DB-Agenturen möglich"},{"type":"A","code":"RO","prio":560,"icoX":16,"txtN":"Rollstuhlstellplatz"},{"type":"A","code":"EH","prio":560,"icoX":6,"txtN":"Fahrzeuggebundene Einstiegshilfe vorhanden"},{"type":"A","code":"LS","prio":605,"icoX":6,"txtN":"Laptop-Steckdosen"},{"type":"A","code":"KL","prio":610,"icoX":6,"txtN":"Klimaanlage"}],"type":"JNY"}],"segmentTypes":["ICE","RE"]}]}