{"context":{"earlier":"3|OB|MT#14#451630#451606#451850#451850#0#0#485#451576#1#0#35#0#0#-2147483648#1#2|PDH#bbe10b32f5270e429a5a473728022d1b|RD#18102023|RT#141653|US#0|RS#INIT","later":"3|OF|MT#14#451726#451726#451931#451967#0#0#485#451691#8#0#3#0#0#-2147483648#1#2|PDH#bbe10b32f5270e429a5a473728022d1b|RD#18102023|RT#141653|US#0|RS#INIT"},"routes":[{"checksum":"2883869e_3","cid":"C-0","date":"2023-10-17T22:00:00.000Z","duration":14640000,"changes":1,"isRideable":true,"arrival":{"platform":"7","scheduledTime":"2023-10-18T16:50:00.000Z","time":"2023-10-18T16:50:00.000Z","reihung":false},"departure":{"platform":"3","scheduledTime":"2023-10-18T12:46:00.000Z","time":"2023-10-18T12:46:00.000Z","reihung":false},"segments":[{"arrival":{"platform":"13","scheduledTime":"2023-10-18T13:56:00.000Z","time":"2023-10-18T13:56:00.000Z","reihung":false},"departure":{"platform":"3","scheduledTime":"2023-10-18T12:46:00.000Z","time":"2023-10-18T12:46:00.000Z","reihung":false},"duration":4200000,"train":{"name":"EC 2518","line":"62","admin":"80","number":"2518","type":"EC","operator":{"name":"DB Fernverkehr AG","icoX":2}},"changeDuration":24,"segmentStart":{"name":"Heidelberg Hbf","evaNumber":"8000156"},"segmentDestination":{"name":"Frankfurt(Main)Hbf","evaNumber":"8000105"},"stops":[{"station":{"evaNumber":"8000156","name":"Heidelberg Hbf","coordinates":{"lng":8.67548,"lat":49.403582},"ril100":"RH"},"departure":{"platform":"3","scheduledTime":"2023-10-18T12:46:00.000Z","time":"2023-10-18T12:46:00.000Z","reihung":false},"auslastung":{"first":1,"second":1}},{"station":{"evaNumber":"8000377","name":"Weinheim(Bergstr)Hbf","coordinates":{"lng":8.66561,"lat":49.553738},"ril100":"RWE"},"arrival":{"platform":"2","scheduledTime":"2023-10-18T12:58:00.000Z","time":"2023-10-18T12:58:00.000Z","reihung":false},"departure":{"platform":"2","scheduledTime":"2023-10-18T13:00:00.000Z","time":"2023-10-18T13:00:00.000Z","reihung":false},"auslastung":{"first":1,"second":1}},{"station":{"evaNumber":"8000031","name":"Bensheim","coordinates":{"lng":8.616646,"lat":49.68142},"ril100":"FBH"},"arrival":{"platform":"1","scheduledTime":"2023-10-18T13:08:00.000Z","time":"2023-10-18T13:08:00.000Z","reihung":false},"departure":{"platform":"1","scheduledTime":"2023-10-18T13:09:00.000Z","time":"2023-10-18T13:09:00.000Z","reihung":false},"auslastung":{"first":1,"second":1}},{"station":{"evaNumber":"8000068","name":"Darmstadt Hbf","coordinates":{"lng":8.629707,"lat":49.872549},"ril100":"FD"},"arrival":{"platform":"5","scheduledTime":"2023-10-18T13:22:00.000Z","time":"2023-10-18T13:22:00.000Z","reihung":false},"departure":{"platform":"5","scheduledTime":"2023-10-18T13:36:00.000Z","time":"2023-10-18T13:36:00.000Z","reihung":false},"auslastung":{"first":1,"second":1}},{"station":{"evaNumber":"8000105","name":"Frankfurt(Main)Hbf","coordinates":{"lng":8.663003,"lat":50.106817},"ril100":"FF"},"arrival":{"platform":"13","scheduledTime":"2023-10-18T13:56:00.000Z","time":"2023-10-18T13:56:00.000Z","reihung":false}}],"finalDestination":"Frankfurt(Main)Hbf","jid":"1|203745|0|80|18102023","auslastung":{"first":1,"second":1},"messages":[{"type":"A","code":"EZ","prio":400,"icoX":4,"txtN":"Ersatzzug"}],"type":"JNY"},{"arrival":{"platform":"7","scheduledTime":"2023-10-18T16:50:00.000Z","time":"2023-10-18T16:50:00.000Z","reihung":false},"departure":{"platform":"16","scheduledTime":"2023-10-18T14:20:00.000Z","time":"2023-10-18T14:20:00.000Z","reihung":false},"duration":9000000,"train":{"name":"HLB RE98","line":"RE98","admin":"K4RE","number":"24416","type":"HLB","operator":{"name":"HLB Hessenbahn GmbH","icoX":6}},"segmentStart":{"name":"Frankfurt(Main)Hbf","evaNumber":"8000105"},"segmentDestination":{"name":"Kassel Hbf","evaNumber":"8000193"},"stops":[{"station":{"evaNumber":"8000105","name":"Frankfurt(Main)Hbf","coordinates":{"lng":8.663003,"lat":50.106817},"ril100":"FF"},"departure":{"platform":"16","scheduledTime":"2023-10-18T14:20:00.000Z","time":"2023-10-18T14:20:00.000Z","reihung":false}},{"station":{"evaNumber":"8002042","name":"Frankfurt(Main)West","coordinates":{"lng":8.639371,"lat":50.11924},"ril100":"FFW"},"arrival":{"platform":"4","scheduledTime":"2023-10-18T14:24:00.000Z","time":"2023-10-18T14:24:00.000Z","reihung":false},"departure":{"platform":"4","scheduledTime":"2023-10-18T14:24:00.000Z","time":"2023-10-18T14:24:00.000Z","reihung":false}},{"station":{"evaNumber":"8000111","name":"Friedberg(Hess)","coordinates":{"lng":8.761327,"lat":50.332842},"ril100":"FFG"},"arrival":{"platform":"4","scheduledTime":"2023-10-18T14:44:00.000Z","time":"2023-10-18T14:44:00.000Z","reihung":false},"departure":{"platform":"4","scheduledTime":"2023-10-18T14:45:00.000Z","time":"2023-10-18T14:45:00.000Z","reihung":false}},{"station":{"evaNumber":"8000124","name":"Gießen","coordinates":{"lng":8.662842,"lat":50.579371},"ril100":"FG"},"arrival":{"platform":"1","scheduledTime":"2023-10-18T15:02:00.000Z","time":"2023-10-18T15:02:00.000Z","reihung":false},"departure":{"platform":"1","scheduledTime":"2023-10-18T15:05:00.000Z","time":"2023-10-18T15:05:00.000Z","reihung":false}},{"station":{"evaNumber":"8000337","name":"Marburg(Lahn)","coordinates":{"lng":8.775081,"lat":50.819275},"ril100":"FMBG"},"arrival":{"platform":"5","scheduledTime":"2023-10-18T15:19:00.000Z","time":"2023-10-18T15:19:00.000Z","reihung":false},"departure":{"platform":"5","scheduledTime":"2023-10-18T15:20:00.000Z","time":"2023-10-18T15:20:00.000Z","reihung":false}},{"station":{"evaNumber":"8000065","name":"Cölbe","coordinates":{"lng":8.787369,"lat":50.848166}},"arrival":{"platform":"4","scheduledTime":"2023-10-18T15:24:00.000Z","time":"2023-10-18T15:24:00.000Z","reihung":false},"departure":{"platform":"4","scheduledTime":"2023-10-18T15:24:00.000Z","time":"2023-10-18T15:24:00.000Z","reihung":false}},{"station":{"evaNumber":"8000435","name":"Kirchhain(Bz Kassel)","coordinates":{"lng":8.921398,"lat":50.823913},"ril100":"FKIH"},"arrival":{"platform":"2","scheduledTime":"2023-10-18T15:31:00.000Z","time":"2023-10-18T15:31:00.000Z","reihung":false},"departure":{"platform":"2","scheduledTime":"2023-10-18T15:32:00.000Z","time":"2023-10-18T15:32:00.000Z","reihung":false}},{"station":{"evaNumber":"8005661","name":"Stadtallendorf","coordinates":{"lng":9.015228,"lat":50.825352},"ril100":"FSTA"},"arrival":{"platform":"2","scheduledTime":"2023-10-18T15:37:00.000Z","time":"2023-10-18T15:37:00.000Z","reihung":false},"departure":{"platform":"2","scheduledTime":"2023-10-18T15:37:00.000Z","time":"2023-10-18T15:37:00.000Z","reihung":false}},{"station":{"evaNumber":"8004328","name":"Neustadt(Kr Marburg)","coordinates":{"lng":9.120887,"lat":50.850584},"ril100":"FNSM"},"arrival":{"platform":"3","scheduledTime":"2023-10-18T15:43:00.000Z","time":"2023-10-18T15:43:00.000Z","reihung":false},"departure":{"platform":"3","scheduledTime":"2023-10-18T15:44:00.000Z","time":"2023-10-18T15:44:00.000Z","reihung":false}},{"station":{"evaNumber":"8006401","name":"Schwalmstadt-Wiera","coordinates":{"lng":9.136465,"lat":50.881921},"ril100":"FWRA"},"arrival":{"platform":"1","scheduledTime":"2023-10-18T15:47:00.000Z","time":"2023-10-18T15:47:00.000Z","reihung":false},"departure":{"platform":"1","scheduledTime":"2023-10-18T15:48:00.000Z","time":"2023-10-18T15:48:00.000Z","reihung":false}},{"station":{"evaNumber":"8000129","name":"Treysa","coordinates":{"lng":9.185807,"lat":50.910632},"ril100":"FTS"},"arrival":{"platform":"3","scheduledTime":"2023-10-18T15:53:00.000Z","time":"2023-10-18T15:53:00.000Z","reihung":false},"departure":{"platform":"3","scheduledTime":"2023-10-18T15:58:00.000Z","time":"2023-10-18T15:58:00.000Z","reihung":false}},{"station":{"evaNumber":"8005365","name":"Schlierbach(Schwalm-Eder-Kr.)","coordinates":{"lng":9.201089,"lat":50.968631},"ril100":"FSBA"},"arrival":{"platform":"2","scheduledTime":"2023-10-18T16:03:00.000Z","time":"2023-10-18T16:03:00.000Z","reihung":false},"departure":{"platform":"2","scheduledTime":"2023-10-18T16:03:00.000Z","time":"2023-10-18T16:03:00.000Z","reihung":false}},{"station":{"evaNumber":"8006663","name":"Zimmersrode","coordinates":{"lng":9.225243,"lat":51.008075},"ril100":"FZM"},"arrival":{"platform":"2","scheduledTime":"2023-10-18T16:07:00.000Z","time":"2023-10-18T16:07:00.000Z","reihung":false},"departure":{"platform":"2","scheduledTime":"2023-10-18T16:07:00.000Z","time":"2023-10-18T16:07:00.000Z","reihung":false}},{"station":{"evaNumber":"8001098","name":"Borken(Hess)","coordinates":{"lng":9.276724,"lat":51.050648},"ril100":"FBOK"},"arrival":{"platform":"1","scheduledTime":"2023-10-18T16:11:00.000Z","time":"2023-10-18T16:11:00.000Z","reihung":false},"departure":{"platform":"1","scheduledTime":"2023-10-18T16:12:00.000Z","time":"2023-10-18T16:12:00.000Z","reihung":false}},{"station":{"evaNumber":"8005576","name":"Singlis","coordinates":{"lng":9.323935,"lat":51.058712},"ril100":"FSL"},"arrival":{"platform":"2","scheduledTime":"2023-10-18T16:14:00.000Z","time":"2023-10-18T16:14:00.000Z","reihung":false},"departure":{"platform":"2","scheduledTime":"2023-10-18T16:15:00.000Z","time":"2023-10-18T16:15:00.000Z","reihung":false}},{"station":{"evaNumber":"8000368","name":"Wabern(Bz Kassel)","coordinates":{"lng":9.358274,"lat":51.103073},"ril100":"FWAB"},"arrival":{"platform":"5","scheduledTime":"2023-10-18T16:18:00.000Z","time":"2023-10-18T16:18:00.000Z","reihung":false},"departure":{"platform":"5","scheduledTime":"2023-10-18T16:19:00.000Z","time":"2023-10-18T16:19:00.000Z","reihung":false}},{"station":{"evaNumber":"8002236","name":"Felsberg-Gensungen","coordinates":{"lng":9.435698,"lat":51.131237},"ril100":"FGEF"},"arrival":{"platform":"2","scheduledTime":"2023-10-18T16:23:00.000Z","time":"2023-10-18T16:23:00.000Z","reihung":false},"departure":{"platform":"2","scheduledTime":"2023-10-18T16:23:00.000Z","time":"2023-10-18T16:23:00.000Z","reihung":false}},{"station":{"evaNumber":"8000520","name":"Felsberg-Altenbrunslar","coordinates":{"lng":9.445469,"lat":51.16518},"ril100":"FABL"},"arrival":{"platform":"2","scheduledTime":"2023-10-18T16:26:00.000Z","time":"2023-10-18T16:26:00.000Z","reihung":false},"departure":{"platform":"2","scheduledTime":"2023-10-18T16:26:00.000Z","time":"2023-10-18T16:26:00.000Z","reihung":false}},{"station":{"evaNumber":"8006546","name":"Felsberg-Wolfershausen","coordinates":{"lng":9.450099,"lat":51.186601},"ril100":"FWON"},"arrival":{"platform":"2","scheduledTime":"2023-10-18T16:29:00.000Z","time":"2023-10-18T16:29:00.000Z","reihung":false},"departure":{"platform":"2","scheduledTime":"2023-10-18T16:30:00.000Z","time":"2023-10-18T16:30:00.000Z","reihung":false}},{"station":{"evaNumber":"8002374","name":"Edermünde-Grifte","coordinates":{"lng":9.44893,"lat":51.210081},"ril100":"FGRF"},"arrival":{"platform":"1","scheduledTime":"2023-10-18T16:32:00.000Z","time":"2023-10-18T16:32:00.000Z","reihung":false},"departure":{"platform":"1","scheduledTime":"2023-10-18T16:33:00.000Z","time":"2023-10-18T16:33:00.000Z","reihung":false}},{"station":{"evaNumber":"8000140","name":"Baunatal-Guntershausen","coordinates":{"lng":9.46716,"lat":51.229929},"ril100":"FGTH"},"arrival":{"platform":"3","scheduledTime":"2023-10-18T16:36:00.000Z","time":"2023-10-18T16:36:00.000Z","reihung":false},"departure":{"platform":"3","scheduledTime":"2023-10-18T16:36:00.000Z","time":"2023-10-18T16:36:00.000Z","reihung":false}},{"station":{"evaNumber":"8003200","name":"Kassel-Wilhelmshöhe","coordinates":{"lng":9.446845,"lat":51.312998},"ril100":"FKW"},"arrival":{"platform":"9","scheduledTime":"2023-10-18T16:44:00.000Z","time":"2023-10-18T16:44:00.000Z","reihung":false},"departure":{"platform":"9","scheduledTime":"2023-10-18T16:45:00.000Z","time":"2023-10-18T16:45:00.000Z","reihung":false}},{"station":{"evaNumber":"8000193","name":"Kassel Hbf","coordinates":{"lng":9.489903,"lat":51.31832},"ril100":"FK"},"arrival":{"platform":"7","scheduledTime":"2023-10-18T16:50:00.000Z","time":"2023-10-18T16:50:00.000Z","reihung":false}}],"finalDestination":"Kassel Hbf","jid":"1|289387|0|80|18102023","messages":[{"type":"A","code":"FB","prio":260,"icoX":8,"txtN":"Fahrradmitnahme begrenzt möglich"}],"type":"JNY"}],"segmentTypes":["EC","HLB"]},{"checksum":"e8709b2e_3","cid":"C-1","date":"2023-10-17T22:00:00.000Z","duration":13200000,"changes":2,"isRideable":true,"arrival":{"platform":"7","scheduledTime":"2023-10-18T16:50:00.000Z","time":"2023-10-18T16:50:00.000Z","reihung":false},"departure":{"platform":"2","scheduledTime":"2023-10-18T13:10:00.000Z","time":"2023-10-18T13:10:00.000Z","reihung":false},"segments":[{"arrival":{"platform":"9","scheduledTime":"2023-10-18T13:24:00.000Z","time":"2023-10-18T13:24:00.000Z","reihung":false},"departure":{"platform":"2","scheduledTime":"2023-10-18T13:10:00.000Z","time":"2023-10-18T13:10:00.000Z","reihung":false},"duration":840000,"train":{"name":"RE 10b","line":"10b","admin":"SBSRE","number":"19272","type":"RE","operator":{"name":"SWEG Bahn Stuttgart GmbH","icoX":10}},"changeDuration":8,"segmentStart":{"name":"Heidelberg Hbf","evaNumber":"8000156"},"segmentDestination":{"name":"Mannheim Hbf","evaNumber":"8000244"},"stops":[{"station":{"evaNumber":"8000156","name":"Heidelberg Hbf","coordinates":{"lng":8.67548,"lat":49.403582},"ril100":"RH"},"departure":{"platform":"2","scheduledTime":"2023-10-18T13:10:00.000Z","time":"2023-10-18T13:10:00.000Z","reihung":false}},{"station":{"evaNumber":"8000244","name":"Mannheim Hbf","coordinates":{"lng":8.469268,"lat":49.479181},"ril100":"RM"},"arrival":{"platform":"9","scheduledTime":"2023-10-18T13:24:00.000Z","time":"2023-10-18T13:24:00.000Z","reihung":false}}],"finalDestination":"Mannheim Hbf","jid":"1|1118907|0|80|18102023","messages":[{"type":"A","code":"FB","prio":260,"icoX":8,"txtN":"Fahrradmitnahme begrenzt möglich"},{"type":"A","code":"EH","prio":560,"icoX":4,"txtN":"Fahrzeuggebundene Einstiegshilfe vorhanden"},{"type":"A","code":"EA","prio":560,"icoX":4,"txtN":"Behindertengerechte Ausstattung"},{"type":"A","code":"KL","prio":610,"icoX":4,"txtN":"Klimaanlage"},{"type":"M","code":"","icoX":11,"txtS":"RE 19272: Heidelberg Hbf->Mannheim Hbf: Information.","txtN":"1. Klasse fehlt.","sIdx":0}],"type":"JNY"},{"arrival":{"platform":"8","scheduledTime":"2023-10-18T14:08:00.000Z","time":"2023-10-18T14:08:00.000Z","reihung":false},"departure":{"platform":"2","scheduledTime":"2023-10-18T13:32:00.000Z","time":"2023-10-18T13:32:00.000Z","reihung":false},"duration":2160000,"train":{"name":"ICE 596","line":"11","admin":"80","number":"596","type":"ICE","operator":{"name":"DB Fernverkehr AG","icoX":2}},"changeDuration":12,"segmentStart":{"name":"Mannheim Hbf","evaNumber":"8000244"},"segmentDestination":{"name":"Frankfurt(Main)Hbf","evaNumber":"8000105"},"stops":[{"station":{"evaNumber":"8000244","name":"Mannheim Hbf","coordinates":{"lng":8.469268,"lat":49.479181},"ril100":"RM"},"departure":{"platform":"2","scheduledTime":"2023-10-18T13:32:00.000Z","time":"2023-10-18T13:32:00.000Z","reihung":false},"auslastung":{"first":2,"second":1}},{"station":{"evaNumber":"8000105","name":"Frankfurt(Main)Hbf","coordinates":{"lng":8.663003,"lat":50.106817},"ril100":"FF"},"arrival":{"platform":"8","scheduledTime":"2023-10-18T14:08:00.000Z","time":"2023-10-18T14:08:00.000Z","reihung":false}}],"finalDestination":"Kiel Hbf","jid":"1|207030|0|80|18102023","auslastung":{"first":2,"second":1},"messages":[{"type":"A","code":"CK","prio":200,"icoX":4,"txtN":"Sicher & kontaktlos ohne Ticketkontrolle reisen mit Komfort Check-in"},{"type":"A","code":"FR","prio":260,"icoX":12,"txtN":"Fahrradmitnahme reservierungspflichtig"},{"type":"A","code":"FB","prio":260,"icoX":8,"txtN":"Fahrradmitnahme begrenzt möglich"},{"type":"A","code":"BR","prio":450,"icoX":13,"txtN":"Bordrestaurant"},{"type":"A","code":"EH","prio":560,"icoX":4,"txtN":"Fahrzeuggebundene Einstiegshilfe vorhanden"}],"type":"JNY"},{"arrival":{"platform":"7","scheduledTime":"2023-10-18T16:50:00.000Z","time":"2023-10-18T16:50:00.000Z","reihung":false},"departure":{"platform":"16","scheduledTime":"2023-10-18T14:20:00.000Z","time":"2023-10-18T14:20:00.000Z","reihung":false},"duration":9000000,"train":{"name":"HLB RE98","line":"RE98","admin":"K4RE","number":"24416","type":"HLB","operator":{"name":"HLB Hessenbahn GmbH","icoX":6}},"segmentStart":{"name":"Frankfurt(Main)Hbf","evaNumber":"8000105"},"segmentDestination":{"name":"Kassel Hbf","evaNumber":"8000193"},"stops":[{"station":{"evaNumber":"8000105","name":"Frankfurt(Main)Hbf","coordinates":{"lng":8.663003,"lat":50.106817},"ril100":"FF"},"departure":{"platform":"16","scheduledTime":"2023-10-18T14:20:00.000Z","time":"2023-10-18T14:20:00.000Z","reihung":false}},{"station":{"evaNumber":"8002042","name":"Frankfurt(Main)West","coordinates":{"lng":8.639371,"lat":50.11924},"ril100":"FFW"},"arrival":{"platform":"4","scheduledTime":"2023-10-18T14:24:00.000Z","time":"2023-10-18T14:24:00.000Z","reihung":false},"departure":{"platform":"4","scheduledTime":"2023-10-18T14:24:00.000Z","time":"2023-10-18T14:24:00.000Z","reihung":false}},{"station":{"evaNumber":"8000111","name":"Friedberg(Hess)","coordinates":{"lng":8.761327,"lat":50.332842},"ril100":"FFG"},"arrival":{"platform":"4","scheduledTime":"2023-10-18T14:44:00.000Z","time":"2023-10-18T14:44:00.000Z","reihung":false},"departure":{"platform":"4","scheduledTime":"2023-10-18T14:45:00.000Z","time":"2023-10-18T14:45:00.000Z","reihung":false}},{"station":{"evaNumber":"8000124","name":"Gießen","coordinates":{"lng":8.662842,"lat":50.579371},"ril100":"FG"},"arrival":{"platform":"1","scheduledTime":"2023-10-18T15:02:00.000Z","time":"2023-10-18T15:02:00.000Z","reihung":false},"departure":{"platform":"1","scheduledTime":"2023-10-18T15:05:00.000Z","time":"2023-10-18T15:05:00.000Z","reihung":false}},{"station":{"evaNumber":"8000337","name":"Marburg(Lahn)","coordinates":{"lng":8.775081,"lat":50.819275},"ril100":"FMBG"},"arrival":{"platform":"5","scheduledTime":"2023-10-18T15:19:00.000Z","time":"2023-10-18T15:19:00.000Z","reihung":false},"departure":{"platform":"5","scheduledTime":"2023-10-18T15:20:00.000Z","time":"2023-10-18T15:20:00.000Z","reihung":false}},{"station":{"evaNumber":"8000065","name":"Cölbe","coordinates":{"lng":8.787369,"lat":50.848166}},"arrival":{"platform":"4","scheduledTime":"2023-10-18T15:24:00.000Z","time":"2023-10-18T15:24:00.000Z","reihung":false},"departure":{"platform":"4","scheduledTime":"2023-10-18T15:24:00.000Z","time":"2023-10-18T15:24:00.000Z","reihung":false}},{"station":{"evaNumber":"8000435","name":"Kirchhain(Bz Kassel)","coordinates":{"lng":8.921398,"lat":50.823913},"ril100":"FKIH"},"arrival":{"platform":"2","scheduledTime":"2023-10-18T15:31:00.000Z","time":"2023-10-18T15:31:00.000Z","reihung":false},"departure":{"platform":"2","scheduledTime":"2023-10-18T15:32:00.000Z","time":"2023-10-18T15:32:00.000Z","reihung":false}},{"station":{"evaNumber":"8005661","name":"Stadtallendorf","coordinates":{"lng":9.015228,"lat":50.825352},"ril100":"FSTA"},"arrival":{"platform":"2","scheduledTime":"2023-10-18T15:37:00.000Z","time":"2023-10-18T15:37:00.000Z","reihung":false},"departure":{"platform":"2","scheduledTime":"2023-10-18T15:37:00.000Z","time":"2023-10-18T15:37:00.000Z","reihung":false}},{"station":{"evaNumber":"8004328","name":"Neustadt(Kr Marburg)","coordinates":{"lng":9.120887,"lat":50.850584},"ril100":"FNSM"},"arrival":{"platform":"3","scheduledTime":"2023-10-18T15:43:00.000Z","time":"2023-10-18T15:43:00.000Z","reihung":false},"departure":{"platform":"3","scheduledTime":"2023-10-18T15:44:00.000Z","time":"2023-10-18T15:44:00.000Z","reihung":false}},{"station":{"evaNumber":"8006401","name":"Schwalmstadt-Wiera","coordinates":{"lng":9.136465,"lat":50.881921},"ril100":"FWRA"},"arrival":{"platform":"1","scheduledTime":"2023-10-18T15:47:00.000Z","time":"2023-10-18T15:47:00.000Z","reihung":false},"departure":{"platform":"1","scheduledTime":"2023-10-18T15:48:00.000Z","time":"2023-10-18T15:48:00.000Z","reihung":false}},{"station":{"evaNumber":"8000129","name":"Treysa","coordinates":{"lng":9.185807,"lat":50.910632},"ril100":"FTS"},"arrival":{"platform":"3","scheduledTime":"2023-10-18T15:53:00.000Z","time":"2023-10-18T15:53:00.000Z","reihung":false},"departure":{"platform":"3","scheduledTime":"2023-10-18T15:58:00.000Z","time":"2023-10-18T15:58:00.000Z","reihung":false}},{"station":{"evaNumber":"8005365","name":"Schlierbach(Schwalm-Eder-Kr.)","coordinates":{"lng":9.201089,"lat":50.968631},"ril100":"FSBA"},"arrival":{"platform":"2","scheduledTime":"2023-10-18T16:03:00.000Z","time":"2023-10-18T16:03:00.000Z","reihung":false},"departure":{"platform":"2","scheduledTime":"2023-10-18T16:03:00.000Z","time":"2023-10-18T16:03:00.000Z","reihung":false}},{"station":{"evaNumber":"8006663","name":"Zimmersrode","coordinates":{"lng":9.225243,"lat":51.008075},"ril100":"FZM"},"arrival":{"platform":"2","scheduledTime":"2023-10-18T16:07:00.000Z","time":"2023-10-18T16:07:00.000Z","reihung":false},"departure":{"platform":"2","scheduledTime":"2023-10-18T16:07:00.000Z","time":"2023-10-18T16:07:00.000Z","reihung":false}},{"station":{"evaNumber":"8001098","name":"Borken(Hess)","coordinates":{"lng":9.276724,"lat":51.050648},"ril100":"FBOK"},"arrival":{"platform":"1","scheduledTime":"2023-10-18T16:11:00.000Z","time":"2023-10-18T16:11:00.000Z","reihung":false},"departure":{"platform":"1","scheduledTime":"2023-10-18T16:12:00.000Z","time":"2023-10-18T16:12:00.000Z","reihung":false}},{"station":{"evaNumber":"8005576","name":"Singlis","coordinates":{"lng":9.323935,"lat":51.058712},"ril100":"FSL"},"arrival":{"platform":"2","scheduledTime":"2023-10-18T16:14:00.000Z","time":"2023-10-18T16:14:00.000Z","reihung":false},"departure":{"platform":"2","scheduledTime":"2023-10-18T16:15:00.000Z","time":"2023-10-18T16:15:00.000Z","reihung":false}},{"station":{"evaNumber":"8000368","name":"Wabern(Bz Kassel)","coordinates":{"lng":9.358274,"lat":51.103073},"ril100":"FWAB"},"arrival":{"platform":"5","scheduledTime":"2023-10-18T16:18:00.000Z","time":"2023-10-18T16:18:00.000Z","reihung":false},"departure":{"platform":"5","scheduledTime":"2023-10-18T16:19:00.000Z","time":"2023-10-18T16:19:00.000Z","reihung":false}},{"station":{"evaNumber":"8002236","name":"Felsberg-Gensungen","coordinates":{"lng":9.435698,"lat":51.131237},"ril100":"FGEF"},"arrival":{"platform":"2","scheduledTime":"2023-10-18T16:23:00.000Z","time":"2023-10-18T16:23:00.000Z","reihung":false},"departure":{"platform":"2","scheduledTime":"2023-10-18T16:23:00.000Z","time":"2023-10-18T16:23:00.000Z","reihung":false}},{"station":{"evaNumber":"8000520","name":"Felsberg-Altenbrunslar","coordinates":{"lng":9.445469,"lat":51.16518},"ril100":"FABL"},"arrival":{"platform":"2","scheduledTime":"2023-10-18T16:26:00.000Z","time":"2023-10-18T16:26:00.000Z","reihung":false},"departure":{"platform":"2","scheduledTime":"2023-10-18T16:26:00.000Z","time":"2023-10-18T16:26:00.000Z","reihung":false}},{"station":{"evaNumber":"8006546","name":"Felsberg-Wolfershausen","coordinates":{"lng":9.450099,"lat":51.186601},"ril100":"FWON"},"arrival":{"platform":"2","scheduledTime":"2023-10-18T16:29:00.000Z","time":"2023-10-18T16:29:00.000Z","reihung":false},"departure":{"platform":"2","scheduledTime":"2023-10-18T16:30:00.000Z","time":"2023-10-18T16:30:00.000Z","reihung":false}},{"station":{"evaNumber":"8002374","name":"Edermünde-Grifte","coordinates":{"lng":9.44893,"lat":51.210081},"ril100":"FGRF"},"arrival":{"platform":"1","scheduledTime":"2023-10-18T16:32:00.000Z","time":"2023-10-18T16:32:00.000Z","reihung":false},"departure":{"platform":"1","scheduledTime":"2023-10-18T16:33:00.000Z","time":"2023-10-18T16:33:00.000Z","reihung":false}},{"station":{"evaNumber":"8000140","name":"Baunatal-Guntershausen","coordinates":{"lng":9.46716,"lat":51.229929},"ril100":"FGTH"},"arrival":{"platform":"3","scheduledTime":"2023-10-18T16:36:00.000Z","time":"2023-10-18T16:36:00.000Z","reihung":false},"departure":{"platform":"3","scheduledTime":"2023-10-18T16:36:00.000Z","time":"2023-10-18T16:36:00.000Z","reihung":false}},{"station":{"evaNumber":"8003200","name":"Kassel-Wilhelmshöhe","coordinates":{"lng":9.446845,"lat":51.312998},"ril100":"FKW"},"arrival":{"platform":"9","scheduledTime":"2023-10-18T16:44:00.000Z","time":"2023-10-18T16:44:00.000Z","reihung":false},"departure":{"platform":"9","scheduledTime":"2023-10-18T16:45:00.000Z","time":"2023-10-18T16:45:00.000Z","reihung":false}},{"station":{"evaNumber":"8000193","name":"Kassel Hbf","coordinates":{"lng":9.489903,"lat":51.31832},"ril100":"FK"},"arrival":{"platform":"7","scheduledTime":"2023-10-18T16:50:00.000Z","time":"2023-10-18T16:50:00.000Z","reihung":false}}],"finalDestination":"Kassel Hbf","jid":"1|289387|0|80|18102023","messages":[{"type":"A","code":"FB","prio":260,"icoX":8,"txtN":"Fahrradmitnahme begrenzt möglich"}],"type":"JNY"}],"segmentTypes":["RE","ICE","HLB"]},{"checksum":"839d8ca3_3","cid":"C-2","date":"2023-10-17T22:00:00.000Z","duration":15000000,"changes":1,"isRideable":true,"arrival":{"platform":"7","scheduledTime":"2023-10-18T17:33:00.000Z","time":"2023-10-18T17:33:00.000Z","reihung":false},"departure":{"platform":"3","scheduledTime":"2023-10-18T13:23:00.000Z","time":"2023-10-18T13:23:00.000Z","reihung":false},"segments":[{"arrival":{"platform":"10","scheduledTime":"2023-10-18T14:48:00.000Z","time":"2023-10-18T14:48:00.000Z","reihung":false},"departure":{"platform":"3","scheduledTime":"2023-10-18T13:23:00.000Z","time":"2023-10-18T13:23:00.000Z","reihung":false},"duration":5100000,"train":{"name":"RB 68","line":"68","admin":"800574","number":"15322","type":"RB","operator":{"name":"DB Regio AG Mitte","icoX":15}},"changeDuration":31,"segmentStart":{"name":"Heidelberg Hbf","evaNumber":"8000156"},"segmentDestination":{"name":"Frankfurt(Main)Hbf","evaNumber":"8000105"},"stops":[{"station":{"evaNumber":"8000156","name":"Heidelberg Hbf","coordinates":{"lng":8.67548,"lat":49.403582},"ril100":"RH"},"departure":{"platform":"3","scheduledTime":"2023-10-18T13:23:00.000Z","time":"2023-10-18T13:23:00.000Z","reihung":false}},{"station":{"evaNumber":"8002687","name":"Heidelberg-Pfaffengrund/Wieblingen","coordinates":{"lng":8.641474,"lat":49.411969},"ril100":"RHBP"},"arrival":{"platform":"1","scheduledTime":"2023-10-18T13:26:00.000Z","time":"2023-10-18T13:26:00.000Z","reihung":false},"departure":{"platform":"1","scheduledTime":"2023-10-18T13:27:00.000Z","time":"2023-10-18T13:27:00.000Z","reihung":false}},{"station":{"evaNumber":"8000631","name":"Neu-Edingen/Friedrichsfeld","coordinates":{"lng":8.579934,"lat":49.44842},"ril100":"RMF"},"arrival":{"platform":"1","scheduledTime":"2023-10-18T13:32:00.000Z","time":"2023-10-18T13:32:00.000Z","reihung":false},"departure":{"platform":"1","scheduledTime":"2023-10-18T13:35:00.000Z","time":"2023-10-18T13:35:00.000Z","reihung":false}},{"station":{"evaNumber":"8003489","name":"Ladenburg","coordinates":{"lng":8.602128,"lat":49.473491},"ril100":"RLD"},"arrival":{"platform":"1","scheduledTime":"2023-10-18T13:38:00.000Z","time":"2023-10-18T13:38:00.000Z","reihung":false},"departure":{"platform":"1","scheduledTime":"2023-10-18T13:39:00.000Z","time":"2023-10-18T13:39:00.000Z","reihung":false}},{"station":{"evaNumber":"8002430","name":"Heddesheim/Hirschberg","coordinates":{"lng":8.634148,"lat":49.509897},"ril100":"RGCH"},"arrival":{"platform":"2","scheduledTime":"2023-10-18T13:42:00.000Z","time":"2023-10-18T13:42:00.000Z","reihung":false},"departure":{"platform":"2","scheduledTime":"2023-10-18T13:42:00.000Z","time":"2023-10-18T13:42:00.000Z","reihung":false}},{"station":{"evaNumber":"8003792","name":"Weinheim-Lützelsachsen","coordinates":{"lng":8.649232,"lat":49.527022},"ril100":"RLUE"},"arrival":{"platform":"1","scheduledTime":"2023-10-18T13:44:00.000Z","time":"2023-10-18T13:44:00.000Z","reihung":false},"departure":{"platform":"1","scheduledTime":"2023-10-18T13:45:00.000Z","time":"2023-10-18T13:45:00.000Z","reihung":false}},{"station":{"evaNumber":"8000377","name":"Weinheim(Bergstr)Hbf","coordinates":{"lng":8.66561,"lat":49.553738},"ril100":"RWE"},"arrival":{"platform":"2","scheduledTime":"2023-10-18T13:48:00.000Z","time":"2023-10-18T13:48:00.000Z","reihung":false},"departure":{"platform":"2","scheduledTime":"2023-10-18T13:48:00.000Z","time":"2023-10-18T13:48:00.000Z","reihung":false}},{"station":{"evaNumber":"8002748","name":"Hemsbach","coordinates":{"lng":8.648702,"lat":49.590539},"ril100":"RHCH"},"arrival":{"platform":"1","scheduledTime":"2023-10-18T13:51:00.000Z","time":"2023-10-18T13:51:00.000Z","reihung":false},"departure":{"platform":"1","scheduledTime":"2023-10-18T13:52:00.000Z","time":"2023-10-18T13:52:00.000Z","reihung":false}},{"station":{"evaNumber":"8003571","name":"Laudenbach(Bergstr)","coordinates":{"lng":8.644638,"lat":49.611646},"ril100":"RLCH"},"arrival":{"platform":"1","scheduledTime":"2023-10-18T13:54:00.000Z","time":"2023-10-18T13:54:00.000Z","reihung":false},"departure":{"platform":"1","scheduledTime":"2023-10-18T13:55:00.000Z","time":"2023-10-18T13:55:00.000Z","reihung":false}},{"station":{"evaNumber":"8002757","name":"Heppenheim(Bergstr)","coordinates":{"lng":8.633366,"lat":49.641562},"ril100":"FHP"},"arrival":{"platform":"1","scheduledTime":"2023-10-18T13:57:00.000Z","time":"2023-10-18T13:57:00.000Z","reihung":false},"departure":{"platform":"1","scheduledTime":"2023-10-18T13:58:00.000Z","time":"2023-10-18T13:58:00.000Z","reihung":false}},{"station":{"evaNumber":"8000031","name":"Bensheim","coordinates":{"lng":8.616646,"lat":49.68142},"ril100":"FBH"},"arrival":{"platform":"1","scheduledTime":"2023-10-18T14:01:00.000Z","time":"2023-10-18T14:01:00.000Z","reihung":false},"departure":{"platform":"1","scheduledTime":"2023-10-18T14:02:00.000Z","time":"2023-10-18T14:02:00.000Z","reihung":false}},{"station":{"evaNumber":"8000877","name":"Bensheim-Auerbach","coordinates":{"lng":8.613149,"lat":49.702257},"ril100":"FBAU"},"arrival":{"platform":"1","scheduledTime":"2023-10-18T14:04:00.000Z","time":"2023-10-18T14:04:00.000Z","reihung":false},"departure":{"platform":"1","scheduledTime":"2023-10-18T14:04:00.000Z","time":"2023-10-18T14:04:00.000Z","reihung":false}},{"station":{"evaNumber":"8006687","name":"Zwingenberg(Bergstr)","coordinates":{"lng":8.608987,"lat":49.72562},"ril100":"FZW"},"arrival":{"platform":"1","scheduledTime":"2023-10-18T14:07:00.000Z","time":"2023-10-18T14:07:00.000Z","reihung":false},"departure":{"platform":"1","scheduledTime":"2023-10-18T14:07:00.000Z","time":"2023-10-18T14:07:00.000Z","reihung":false}},{"station":{"evaNumber":"8002498","name":"Hähnlein-Alsbach","coordinates":{"lng":8.606398,"lat":49.740129},"ril100":"FHAE"},"arrival":{"platform":"2","scheduledTime":"2023-10-18T14:09:00.000Z","time":"2023-10-18T14:09:00.000Z","reihung":false},"departure":{"platform":"2","scheduledTime":"2023-10-18T14:09:00.000Z","time":"2023-10-18T14:09:00.000Z","reihung":false}},{"station":{"evaNumber":"8000948","name":"Bickenbach(Bergstr)","coordinates":{"lng":8.603432,"lat":49.759626},"ril100":"FBI"},"arrival":{"platform":"1","scheduledTime":"2023-10-18T14:11:00.000Z","time":"2023-10-18T14:11:00.000Z","reihung":false},"departure":{"platform":"1","scheduledTime":"2023-10-18T14:12:00.000Z","time":"2023-10-18T14:12:00.000Z","reihung":false}},{"station":{"evaNumber":"8001379","name":"Darmstadt-Eberstadt","coordinates":{"lng":8.625986,"lat":49.814452},"ril100":"FDE"},"arrival":{"platform":"1","scheduledTime":"2023-10-18T14:17:00.000Z","time":"2023-10-18T14:17:00.000Z","reihung":false},"departure":{"platform":"1","scheduledTime":"2023-10-18T14:17:00.000Z","time":"2023-10-18T14:17:00.000Z","reihung":false}},{"station":{"evaNumber":"8001377","name":"Darmstadt Süd","coordinates":{"lng":8.637132,"lat":49.854157},"ril100":"FDS"},"arrival":{"platform":"1","scheduledTime":"2023-10-18T14:21:00.000Z","time":"2023-10-18T14:21:00.000Z","reihung":false},"departure":{"platform":"1","scheduledTime":"2023-10-18T14:21:00.000Z","time":"2023-10-18T14:21:00.000Z","reihung":false}},{"station":{"evaNumber":"8000068","name":"Darmstadt Hbf","coordinates":{"lng":8.629707,"lat":49.872549},"ril100":"FD"},"arrival":{"platform":"7","scheduledTime":"2023-10-18T14:28:00.000Z","time":"2023-10-18T14:28:00.000Z","reihung":false},"departure":{"platform":"7","scheduledTime":"2023-10-18T14:30:00.000Z","time":"2023-10-18T14:30:00.000Z","reihung":false}},{"station":{"evaNumber":"8003523","name":"Langen(Hess)","coordinates":{"lng":8.656828,"lat":49.993535},"ril100":"FLG"},"arrival":{"platform":"1","scheduledTime":"2023-10-18T14:38:00.000Z","time":"2023-10-18T14:38:00.000Z","reihung":false},"departure":{"platform":"1","scheduledTime":"2023-10-18T14:39:00.000Z","time":"2023-10-18T14:39:00.000Z","reihung":false}},{"station":{"evaNumber":"8000105","name":"Frankfurt(Main)Hbf","coordinates":{"lng":8.663003,"lat":50.106817},"ril100":"FF"},"arrival":{"platform":"10","scheduledTime":"2023-10-18T14:48:00.000Z","time":"2023-10-18T14:48:00.000Z","reihung":false}}],"finalDestination":"Frankfurt(Main)Hbf","jid":"1|351687|0|80|18102023","messages":[{"type":"A","code":"FB","prio":260,"icoX":8,"txtN":"Fahrradmitnahme begrenzt möglich"},{"type":"A","code":"EH","prio":560,"icoX":4,"txtN":"Fahrzeuggebundene Einstiegshilfe vorhanden"},{"type":"A","code":"KL","prio":610,"icoX":4,"txtN":"Klimaanlage"},{"type":"M","code":"","icoX":17,"txtS":"RB 15322: Heidelberg Hbf->Frankfurt(Main)Hbf: Bauarbeiten.","txtN":"Aufgrund von Bauarbeiten kommt es vom 10. bis 27. Oktober 2023 auf den Linien RE60 und RB67/68 zu geänderten Fahrtzeiten sowie zu Zug- und Teilausfällen. Es wird ein Ersatzverkehr (EV) mit Bussen für Sie eingerichtet Die Mitnahme von Fahrrädern im Bus ist ausgeschlossen. Bitte informieren Sie sich frühzeitig über Ihre geplanten Verbindungen und wählen Sie gegebenenfalls eine frühere Zugverbindung, um Ihre Anschlüsse an Ihren Umsteigebahnhöfen erreichen zu können. Die Fahrplanänderungen zu dieser Baumaßnahme sind in die Online - Fahrplanauskünfte eingearbeitet.","url":"https://him.static-bahn.de/1696265834247_10_23_V01_ZvF_53273_22_10_2023.pdf","sIdx":0}],"type":"JNY"},{"arrival":{"platform":"7","scheduledTime":"2023-10-18T17:33:00.000Z","time":"2023-10-18T17:33:00.000Z","reihung":false},"departure":{"platform":"16","scheduledTime":"2023-10-18T15:19:00.000Z","time":"2023-10-18T15:19:00.000Z","reihung":false},"duration":8040000,"train":{"name":"RE 30","line":"30","admin":"8005MW","number":"4162","type":"RE","operator":{"name":"DB Regio AG Mitte","icoX":15}},"segmentStart":{"name":"Frankfurt(Main)Hbf","evaNumber":"8000105"},"segmentDestination":{"name":"Kassel Hbf","evaNumber":"8000193"},"stops":[{"station":{"evaNumber":"8000105","name":"Frankfurt(Main)Hbf","coordinates":{"lng":8.663003,"lat":50.106817},"ril100":"FF"},"departure":{"platform":"16","scheduledTime":"2023-10-18T15:19:00.000Z","time":"2023-10-18T15:19:00.000Z","reihung":false}},{"station":{"evaNumber":"8000111","name":"Friedberg(Hess)","coordinates":{"lng":8.761327,"lat":50.332842},"ril100":"FFG"},"arrival":{"platform":"4","scheduledTime":"2023-10-18T15:44:00.000Z","time":"2023-10-18T15:44:00.000Z","reihung":false},"departure":{"platform":"4","scheduledTime":"2023-10-18T15:45:00.000Z","time":"2023-10-18T15:45:00.000Z","reihung":false}},{"station":{"evaNumber":"8000124","name":"Gießen","coordinates":{"lng":8.662842,"lat":50.579371},"ril100":"FG"},"arrival":{"platform":"2","scheduledTime":"2023-10-18T16:03:00.000Z","time":"2023-10-18T16:03:00.000Z","reihung":false},"departure":{"platform":"2","scheduledTime":"2023-10-18T16:04:00.000Z","time":"2023-10-18T16:04:00.000Z","reihung":false}},{"station":{"evaNumber":"8000337","name":"Marburg(Lahn)","coordinates":{"lng":8.775081,"lat":50.819275},"ril100":"FMBG"},"arrival":{"platform":"5","scheduledTime":"2023-10-18T16:19:00.000Z","time":"2023-10-18T16:19:00.000Z","reihung":false},"departure":{"platform":"5","scheduledTime":"2023-10-18T16:20:00.000Z","time":"2023-10-18T16:20:00.000Z","reihung":false}},{"station":{"evaNumber":"8000435","name":"Kirchhain(Bz Kassel)","coordinates":{"lng":8.921398,"lat":50.823913},"ril100":"FKIH"},"arrival":{"platform":"2","scheduledTime":"2023-10-18T16:29:00.000Z","time":"2023-10-18T16:29:00.000Z","reihung":false},"departure":{"platform":"2","scheduledTime":"2023-10-18T16:30:00.000Z","time":"2023-10-18T16:30:00.000Z","reihung":false}},{"station":{"evaNumber":"8005661","name":"Stadtallendorf","coordinates":{"lng":9.015228,"lat":50.825352},"ril100":"FSTA"},"arrival":{"platform":"2","scheduledTime":"2023-10-18T16:35:00.000Z","time":"2023-10-18T16:35:00.000Z","reihung":false},"departure":{"platform":"2","scheduledTime":"2023-10-18T16:36:00.000Z","time":"2023-10-18T16:36:00.000Z","reihung":false}},{"station":{"evaNumber":"8004328","name":"Neustadt(Kr Marburg)","coordinates":{"lng":9.120887,"lat":50.850584},"ril100":"FNSM"},"arrival":{"platform":"3","scheduledTime":"2023-10-18T16:42:00.000Z","time":"2023-10-18T16:42:00.000Z","reihung":false},"departure":{"platform":"3","scheduledTime":"2023-10-18T16:43:00.000Z","time":"2023-10-18T16:43:00.000Z","reihung":false}},{"station":{"evaNumber":"8000129","name":"Treysa","coordinates":{"lng":9.185807,"lat":50.910632},"ril100":"FTS"},"arrival":{"platform":"2","scheduledTime":"2023-10-18T16:49:00.000Z","time":"2023-10-18T16:49:00.000Z","reihung":false},"departure":{"platform":"2","scheduledTime":"2023-10-18T16:49:00.000Z","time":"2023-10-18T16:49:00.000Z","reihung":false}},{"station":{"evaNumber":"8001098","name":"Borken(Hess)","coordinates":{"lng":9.276724,"lat":51.050648},"ril100":"FBOK"},"arrival":{"platform":"1","scheduledTime":"2023-10-18T17:01:00.000Z","time":"2023-10-18T17:01:00.000Z","reihung":false},"departure":{"platform":"1","scheduledTime":"2023-10-18T17:01:00.000Z","time":"2023-10-18T17:01:00.000Z","reihung":false}},{"station":{"evaNumber":"8000368","name":"Wabern(Bz Kassel)","coordinates":{"lng":9.358274,"lat":51.103073},"ril100":"FWAB"},"arrival":{"platform":"5","scheduledTime":"2023-10-18T17:06:00.000Z","time":"2023-10-18T17:06:00.000Z","reihung":false},"departure":{"platform":"5","scheduledTime":"2023-10-18T17:07:00.000Z","time":"2023-10-18T17:07:00.000Z","reihung":false}},{"station":{"evaNumber":"8003200","name":"Kassel-Wilhelmshöhe","coordinates":{"lng":9.446845,"lat":51.312998},"ril100":"FKW"},"arrival":{"platform":"9","scheduledTime":"2023-10-18T17:27:00.000Z","time":"2023-10-18T17:27:00.000Z","reihung":false},"departure":{"platform":"9","scheduledTime":"2023-10-18T17:29:00.000Z","time":"2023-10-18T17:29:00.000Z","reihung":false}},{"station":{"evaNumber":"8000193","name":"Kassel Hbf","coordinates":{"lng":9.489903,"lat":51.31832},"ril100":"FK"},"arrival":{"platform":"7","scheduledTime":"2023-10-18T17:33:00.000Z","time":"2023-10-18T17:33:00.000Z","reihung":false}}],"finalDestination":"Kassel Hbf","jid":"1|255503|0|80|18102023","messages":[{"type":"A","code":"FB","prio":260,"icoX":8,"txtN":"Fahrradmitnahme begrenzt möglich"},{"type":"A","code":"EH","prio":560,"icoX":4,"txtN":"Fahrzeuggebundene Einstiegshilfe vorhanden"},{"type":"A","code":"KL","prio":610,"icoX":4,"txtN":"Klimaanlage"}],"type":"JNY"}],"segmentTypes":["RB","RE"]},{"checksum":"48080865_3","cid":"C-3","date":"2023-10-17T22:00:00.000Z","duration":12240000,"changes":1,"isRideable":true,"arrival":{"scheduledTime":"2023-10-18T17:10:00.000Z","time":"2023-10-18T17:10:00.000Z","reihung":false},"departure":{"platform":"3","scheduledTime":"2023-10-18T13:46:00.000Z","time":"2023-10-18T13:46:00.000Z","reihung":false},"segments":[{"arrival":{"platform":"3","scheduledTime":"2023-10-18T16:54:00.000Z","time":"2023-10-18T16:54:00.000Z","reihung":false},"departure":{"platform":"3","scheduledTime":"2023-10-18T13:46:00.000Z","time":"2023-10-18T13:46:00.000Z","reihung":false},"duration":11280000,"train":{"name":"ICE 1574","line":"26","admin":"80","number":"1574","type":"ICE","operator":{"name":"DB Fernverkehr AG","icoX":2}},"changeDuration":11,"segmentStart":{"name":"Heidelberg Hbf","evaNumber":"8000156"},"segmentDestination":{"name":"Kassel-Wilhelmshöhe","evaNumber":"8003200"},"stops":[{"station":{"evaNumber":"8000156","name":"Heidelberg Hbf","coordinates":{"lng":8.67548,"lat":49.403582},"ril100":"RH"},"departure":{"platform":"3","scheduledTime":"2023-10-18T13:46:00.000Z","time":"2023-10-18T13:46:00.000Z","reihung":false},"auslastung":{"first":1,"second":1}},{"station":{"evaNumber":"8000377","name":"Weinheim(Bergstr)Hbf","coordinates":{"lng":8.66561,"lat":49.553738},"ril100":"RWE"},"arrival":{"platform":"2","scheduledTime":"2023-10-18T13:58:00.000Z","time":"2023-10-18T13:58:00.000Z","reihung":false},"departure":{"platform":"2","scheduledTime":"2023-10-18T14:00:00.000Z","time":"2023-10-18T14:00:00.000Z","reihung":false},"auslastung":{"first":1,"second":1}},{"station":{"evaNumber":"8000031","name":"Bensheim","coordinates":{"lng":8.616646,"lat":49.68142},"ril100":"FBH"},"arrival":{"platform":"1","scheduledTime":"2023-10-18T14:08:00.000Z","time":"2023-10-18T14:08:00.000Z","reihung":false},"departure":{"platform":"1","scheduledTime":"2023-10-18T14:09:00.000Z","time":"2023-10-18T14:09:00.000Z","reihung":false},"auslastung":{"first":1,"second":1}},{"station":{"evaNumber":"8000068","name":"Darmstadt Hbf","coordinates":{"lng":8.629707,"lat":49.872549},"ril100":"FD"},"arrival":{"platform":"5","scheduledTime":"2023-10-18T14:22:00.000Z","time":"2023-10-18T14:22:00.000Z","reihung":false},"departure":{"platform":"5","scheduledTime":"2023-10-18T14:24:00.000Z","time":"2023-10-18T14:24:00.000Z","reihung":false},"auslastung":{"first":1,"second":1}},{"station":{"evaNumber":"8000105","name":"Frankfurt(Main)Hbf","coordinates":{"lng":8.663003,"lat":50.106817},"ril100":"FF"},"arrival":{"platform":"12","scheduledTime":"2023-10-18T14:40:00.000Z","time":"2023-10-18T14:40:00.000Z","reihung":false},"departure":{"platform":"12","scheduledTime":"2023-10-18T14:48:00.000Z","time":"2023-10-18T14:48:00.000Z","reihung":false}},{"station":{"evaNumber":"8002042","name":"Frankfurt(Main)West","coordinates":{"lng":8.639371,"lat":50.11924},"ril100":"FFW"},"arrival":{"platform":"4","scheduledTime":"2023-10-18T14:53:00.000Z","time":"2023-10-18T14:53:00.000Z","reihung":false},"departure":{"platform":"4","scheduledTime":"2023-10-18T14:54:00.000Z","time":"2023-10-18T14:54:00.000Z","reihung":false},"auslastung":{"first":2,"second":2}},{"station":{"evaNumber":"8000111","name":"Friedberg(Hess)","coordinates":{"lng":8.761327,"lat":50.332842},"ril100":"FFG"},"arrival":{"platform":"4","scheduledTime":"2023-10-18T15:15:00.000Z","time":"2023-10-18T15:15:00.000Z","reihung":false},"departure":{"platform":"4","scheduledTime":"2023-10-18T15:16:00.000Z","time":"2023-10-18T15:16:00.000Z","reihung":false},"auslastung":{"first":3,"second":2}},{"station":{"evaNumber":"8000124","name":"Gießen","coordinates":{"lng":8.662842,"lat":50.579371},"ril100":"FG"},"arrival":{"platform":"2","scheduledTime":"2023-10-18T15:33:00.000Z","time":"2023-10-18T15:33:00.000Z","reihung":false},"departure":{"platform":"2","scheduledTime":"2023-10-18T15:34:00.000Z","time":"2023-10-18T15:34:00.000Z","reihung":false},"auslastung":{"first":3,"second":2}},{"station":{"evaNumber":"8000337","name":"Marburg(Lahn)","coordinates":{"lng":8.775081,"lat":50.819275},"ril100":"FMBG"},"arrival":{"platform":"5","scheduledTime":"2023-10-18T15:49:00.000Z","time":"2023-10-18T15:49:00.000Z","reihung":false},"departure":{"platform":"5","scheduledTime":"2023-10-18T15:50:00.000Z","time":"2023-10-18T15:50:00.000Z","reihung":false},"auslastung":{"first":3,"second":2}},{"station":{"evaNumber":"8000129","name":"Treysa","coordinates":{"lng":9.185807,"lat":50.910632},"ril100":"FTS"},"arrival":{"platform":"2","scheduledTime":"2023-10-18T16:15:00.000Z","time":"2023-10-18T16:15:00.000Z","reihung":false},"departure":{"platform":"2","scheduledTime":"2023-10-18T16:16:00.000Z","time":"2023-10-18T16:16:00.000Z","reihung":false},"auslastung":{"first":3,"second":2}},{"station":{"evaNumber":"8000368","name":"Wabern(Bz Kassel)","coordinates":{"lng":9.358274,"lat":51.103073},"ril100":"FWAB"},"arrival":{"platform":"5","scheduledTime":"2023-10-18T16:33:00.000Z","time":"2023-10-18T16:33:00.000Z","reihung":false},"departure":{"platform":"5","scheduledTime":"2023-10-18T16:34:00.000Z","time":"2023-10-18T16:34:00.000Z","reihung":false},"auslastung":{"first":3,"second":2}},{"station":{"evaNumber":"8003200","name":"Kassel-Wilhelmshöhe","coordinates":{"lng":9.446845,"lat":51.312998},"ril100":"FKW"},"arrival":{"platform":"3","scheduledTime":"2023-10-18T16:54:00.000Z","time":"2023-10-18T16:54:00.000Z","reihung":false}}],"finalDestination":"Hamburg-Altona","jid":"1|198181|0|80|18102023","auslastung":{"first":3,"second":2},"messages":[{"type":"A","code":"CK","prio":200,"icoX":4,"txtN":"Sicher & kontaktlos ohne Ticketkontrolle reisen mit Komfort Check-in"},{"type":"A","code":"FR","prio":260,"icoX":12,"txtN":"Fahrradmitnahme reservierungspflichtig"},{"type":"A","code":"FB","prio":260,"icoX":8,"txtN":"Fahrradmitnahme begrenzt möglich"},{"type":"A","code":"BR","prio":450,"icoX":13,"txtN":"Bordrestaurant"}],"type":"JNY"},{"arrival":{"scheduledTime":"2023-10-18T17:10:00.000Z","time":"2023-10-18T17:10:00.000Z","reihung":false},"departure":{"platform":"9","scheduledTime":"2023-10-18T17:05:00.000Z","time":"2023-10-18T17:05:00.000Z","reihung":false},"duration":300000,"train":{"name":"RT 5","line":"5","admin":"H4","number":"20532","type":"RT","operator":{"name":"RegioTram","icoX":19}},"segmentStart":{"name":"Kassel-Wilhelmshöhe","evaNumber":"8003200"},"segmentDestination":{"name":"Kassel Hbf (tief)","evaNumber":"8098193"},"stops":[{"station":{"evaNumber":"8003200","name":"Kassel-Wilhelmshöhe","coordinates":{"lng":9.446845,"lat":51.312998},"ril100":"FKW"},"departure":{"platform":"9","scheduledTime":"2023-10-18T17:05:00.000Z","time":"2023-10-18T17:05:00.000Z","reihung":false}},{"station":{"evaNumber":"8098193","name":"Kassel Hbf (tief)","coordinates":{"lng":9.489786,"lat":51.318194},"ril100":"FKKVG"},"arrival":{"scheduledTime":"2023-10-18T17:10:00.000Z","time":"2023-10-18T17:10:00.000Z","reihung":false}}],"finalDestination":"Auestadion, Kassel","jid":"1|429952|0|80|18102023","messages":[{"type":"A","code":"FB","prio":260,"icoX":8,"txtN":"Fahrradmitnahme begrenzt möglich"},{"type":"A","code":"bg","prio":560,"icoX":4,"txtN":"Behindertengerechtes Fahrzeug"},{"type":"A","code":"KL","prio":610,"icoX":4,"txtN":"Klimaanlage"}],"type":"JNY"}],"segmentTypes":["ICE","RT"]},{"checksum":"54b5c1c2_3","cid":"C-4","date":"2023-10-17T22:00:00.000Z","duration":12180000,"changes":2,"isRideable":true,"arrival":{"platform":"7","scheduledTime":"2023-10-18T17:33:00.000Z","time":"2023-10-18T17:33:00.000Z","reihung":false},"departure":{"platform":"2","scheduledTime":"2023-10-18T14:10:00.000Z","time":"2023-10-18T14:10:00.000Z","reihung":false},"segments":[{"arrival":{"platform":"8","scheduledTime":"2023-10-18T14:24:00.000Z","time":"2023-10-18T14:24:00.000Z","reihung":false},"departure":{"platform":"2","scheduledTime":"2023-10-18T14:10:00.000Z","time":"2023-10-18T14:10:00.000Z","reihung":false},"duration":840000,"train":{"name":"RE 10b","line":"10b","admin":"SBSRE","number":"19274","type":"RE","operator":{"name":"SWEG Bahn Stuttgart GmbH","icoX":10}},"changeDuration":8,"segmentStart":{"name":"Heidelberg Hbf","evaNumber":"8000156"},"segmentDestination":{"name":"Mannheim Hbf","evaNumber":"8000244"},"stops":[{"station":{"evaNumber":"8000156","name":"Heidelberg Hbf","coordinates":{"lng":8.67548,"lat":49.403582},"ril100":"RH"},"departure":{"platform":"2","scheduledTime":"2023-10-18T14:10:00.000Z","time":"2023-10-18T14:10:00.000Z","reihung":false}},{"station":{"evaNumber":"8000244","name":"Mannheim Hbf","coordinates":{"lng":8.469268,"lat":49.479181},"ril100":"RM"},"arrival":{"platform":"8","scheduledTime":"2023-10-18T14:24:00.000Z","time":"2023-10-18T14:24:00.000Z","reihung":false}}],"finalDestination":"Mannheim Hbf","jid":"1|1118910|0|80|18102023","messages":[{"type":"A","code":"FB","prio":260,"icoX":8,"txtN":"Fahrradmitnahme begrenzt möglich"},{"type":"A","code":"EH","prio":560,"icoX":4,"txtN":"Fahrzeuggebundene Einstiegshilfe vorhanden"},{"type":"A","code":"EA","prio":560,"icoX":4,"txtN":"Behindertengerechte Ausstattung"},{"type":"A","code":"KL","prio":610,"icoX":4,"txtN":"Klimaanlage"},{"type":"M","code":"","icoX":11,"txtS":"RE 19274: Heidelberg Hbf->Mannheim Hbf: Information.","txtN":"1. Klasse fehlt.","sIdx":0}],"type":"JNY"},{"arrival":{"platform":"8","scheduledTime":"2023-10-18T15:08:00.000Z","time":"2023-10-18T15:08:00.000Z","reihung":false},"departure":{"platform":"2","scheduledTime":"2023-10-18T14:32:00.000Z","time":"2023-10-18T14:32:00.000Z","reihung":false},"duration":2160000,"train":{"name":"ICE 276","line":"12","admin":"80","number":"276","type":"ICE","operator":{"name":"DB Fernverkehr AG","icoX":2}},"changeDuration":11,"segmentStart":{"name":"Mannheim Hbf","evaNumber":"8000244"},"segmentDestination":{"name":"Frankfurt(Main)Hbf","evaNumber":"8000105"},"stops":[{"station":{"evaNumber":"8000244","name":"Mannheim Hbf","coordinates":{"lng":8.469268,"lat":49.479181},"ril100":"RM"},"departure":{"platform":"2","scheduledTime":"2023-10-18T14:32:00.000Z","time":"2023-10-18T14:32:00.000Z","reihung":false},"auslastung":{"first":2,"second":1}},{"station":{"evaNumber":"8000105","name":"Frankfurt(Main)Hbf","coordinates":{"lng":8.663003,"lat":50.106817},"ril100":"FF"},"arrival":{"platform":"8","scheduledTime":"2023-10-18T15:08:00.000Z","time":"2023-10-18T15:08:00.000Z","reihung":false}}],"finalDestination":"Hamburg-Altona","jid":"1|204246|0|80|18102023","auslastung":{"first":2,"second":1},"messages":[{"type":"A","code":"CK","prio":200,"icoX":4,"txtN":"Sicher & kontaktlos ohne Ticketkontrolle reisen mit Komfort Check-in"},{"type":"A","code":"FR","prio":260,"icoX":12,"txtN":"Fahrradmitnahme reservierungspflichtig"},{"type":"A","code":"FB","prio":260,"icoX":8,"txtN":"Fahrradmitnahme begrenzt möglich"},{"type":"A","code":"BR","prio":450,"icoX":13,"txtN":"Bordrestaurant"},{"type":"A","code":"EH","prio":560,"icoX":4,"txtN":"Fahrzeuggebundene Einstiegshilfe vorhanden"}],"type":"JNY"},{"arrival":{"platform":"7","scheduledTime":"2023-10-18T17:33:00.000Z","time":"2023-10-18T17:33:00.000Z","reihung":false},"departure":{"platform":"16","scheduledTime":"2023-10-18T15:19:00.000Z","time":"2023-10-18T15:19:00.000Z","reihung":false},"duration":8040000,"train":{"name":"RE 30","line":"30","admin":"8005MW","number":"4162","type":"RE","operator":{"name":"DB Regio AG Mitte","icoX":15}},"segmentStart":{"name":"Frankfurt(Main)Hbf","evaNumber":"8000105"},"segmentDestination":{"name":"Kassel Hbf","evaNumber":"8000193"},"stops":[{"station":{"evaNumber":"8000105","name":"Frankfurt(Main)Hbf","coordinates":{"lng":8.663003,"lat":50.106817},"ril100":"FF"},"departure":{"platform":"16","scheduledTime":"2023-10-18T15:19:00.000Z","time":"2023-10-18T15:19:00.000Z","reihung":false}},{"station":{"evaNumber":"8000111","name":"Friedberg(Hess)","coordinates":{"lng":8.761327,"lat":50.332842},"ril100":"FFG"},"arrival":{"platform":"4","scheduledTime":"2023-10-18T15:44:00.000Z","time":"2023-10-18T15:44:00.000Z","reihung":false},"departure":{"platform":"4","scheduledTime":"2023-10-18T15:45:00.000Z","time":"2023-10-18T15:45:00.000Z","reihung":false}},{"station":{"evaNumber":"8000124","name":"Gießen","coordinates":{"lng":8.662842,"lat":50.579371},"ril100":"FG"},"arrival":{"platform":"2","scheduledTime":"2023-10-18T16:03:00.000Z","time":"2023-10-18T16:03:00.000Z","reihung":false},"departure":{"platform":"2","scheduledTime":"2023-10-18T16:04:00.000Z","time":"2023-10-18T16:04:00.000Z","reihung":false}},{"station":{"evaNumber":"8000337","name":"Marburg(Lahn)","coordinates":{"lng":8.775081,"lat":50.819275},"ril100":"FMBG"},"arrival":{"platform":"5","scheduledTime":"2023-10-18T16:19:00.000Z","time":"2023-10-18T16:19:00.000Z","reihung":false},"departure":{"platform":"5","scheduledTime":"2023-10-18T16:20:00.000Z","time":"2023-10-18T16:20:00.000Z","reihung":false}},{"station":{"evaNumber":"8000435","name":"Kirchhain(Bz Kassel)","coordinates":{"lng":8.921398,"lat":50.823913},"ril100":"FKIH"},"arrival":{"platform":"2","scheduledTime":"2023-10-18T16:29:00.000Z","time":"2023-10-18T16:29:00.000Z","reihung":false},"departure":{"platform":"2","scheduledTime":"2023-10-18T16:30:00.000Z","time":"2023-10-18T16:30:00.000Z","reihung":false}},{"station":{"evaNumber":"8005661","name":"Stadtallendorf","coordinates":{"lng":9.015228,"lat":50.825352},"ril100":"FSTA"},"arrival":{"platform":"2","scheduledTime":"2023-10-18T16:35:00.000Z","time":"2023-10-18T16:35:00.000Z","reihung":false},"departure":{"platform":"2","scheduledTime":"2023-10-18T16:36:00.000Z","time":"2023-10-18T16:36:00.000Z","reihung":false}},{"station":{"evaNumber":"8004328","name":"Neustadt(Kr Marburg)","coordinates":{"lng":9.120887,"lat":50.850584},"ril100":"FNSM"},"arrival":{"platform":"3","scheduledTime":"2023-10-18T16:42:00.000Z","time":"2023-10-18T16:42:00.000Z","reihung":false},"departure":{"platform":"3","scheduledTime":"2023-10-18T16:43:00.000Z","time":"2023-10-18T16:43:00.000Z","reihung":false}},{"station":{"evaNumber":"8000129","name":"Treysa","coordinates":{"lng":9.185807,"lat":50.910632},"ril100":"FTS"},"arrival":{"platform":"2","scheduledTime":"2023-10-18T16:49:00.000Z","time":"2023-10-18T16:49:00.000Z","reihung":false},"departure":{"platform":"2","scheduledTime":"2023-10-18T16:49:00.000Z","time":"2023-10-18T16:49:00.000Z","reihung":false}},{"station":{"evaNumber":"8001098","name":"Borken(Hess)","coordinates":{"lng":9.276724,"lat":51.050648},"ril100":"FBOK"},"arrival":{"platform":"1","scheduledTime":"2023-10-18T17:01:00.000Z","time":"2023-10-18T17:01:00.000Z","reihung":false},"departure":{"platform":"1","scheduledTime":"2023-10-18T17:01:00.000Z","time":"2023-10-18T17:01:00.000Z","reihung":false}},{"station":{"evaNumber":"8000368","name":"Wabern(Bz Kassel)","coordinates":{"lng":9.358274,"lat":51.103073},"ril100":"FWAB"},"arrival":{"platform":"5","scheduledTime":"2023-10-18T17:06:00.000Z","time":"2023-10-18T17:06:00.000Z","reihung":false},"departure":{"platform":"5","scheduledTime":"2023-10-18T17:07:00.000Z","time":"2023-10-18T17:07:00.000Z","reihung":false}},{"station":{"evaNumber":"8003200","name":"Kassel-Wilhelmshöhe","coordinates":{"lng":9.446845,"lat":51.312998},"ril100":"FKW"},"arrival":{"platform":"9","scheduledTime":"2023-10-18T17:27:00.000Z","time":"2023-10-18T17:27:00.000Z","reihung":false},"departure":{"platform":"9","scheduledTime":"2023-10-18T17:29:00.000Z","time":"2023-10-18T17:29:00.000Z","reihung":false}},{"station":{"evaNumber":"8000193","name":"Kassel Hbf","coordinates":{"lng":9.489903,"lat":51.31832},"ril100":"FK"},"arrival":{"platform":"7","scheduledTime":"2023-10-18T17:33:00.000Z","time":"2023-10-18T17:33:00.000Z","reihung":false}}],"finalDestination":"Kassel Hbf","jid":"1|255503|0|80|18102023","messages":[{"type":"A","code":"FB","prio":260,"icoX":8,"txtN":"Fahrradmitnahme begrenzt möglich"},{"type":"A","code":"EH","prio":560,"icoX":4,"txtN":"Fahrzeuggebundene Einstiegshilfe vorhanden"},{"type":"A","code":"KL","prio":610,"icoX":4,"txtN":"Klimaanlage"}],"type":"JNY"}],"segmentTypes":["RE","ICE","RE"]},{"checksum":"81f77d8c_3","cid":"C-5","date":"2023-10-17T22:00:00.000Z","duration":16020000,"changes":1,"isRideable":true,"arrival":{"platform":"7","scheduledTime":"2023-10-18T18:47:00.000Z","time":"2023-10-18T18:47:00.000Z","reihung":false},"departure":{"platform":"2","scheduledTime":"2023-10-18T14:20:00.000Z","time":"2023-10-18T14:20:00.000Z","reihung":false},"segments":[{"arrival":{"platform":"10","scheduledTime":"2023-10-18T15:48:00.000Z","time":"2023-10-18T15:48:00.000Z","reihung":false},"departure":{"platform":"2","scheduledTime":"2023-10-18T14:20:00.000Z","time":"2023-10-18T14:20:00.000Z","reihung":false},"duration":5280000,"train":{"name":"RB 68","line":"68","admin":"800574","number":"15324","type":"RB","operator":{"name":"DB Regio AG Mitte","icoX":15}},"changeDuration":32,"segmentStart":{"name":"Heidelberg Hbf","evaNumber":"8000156"},"segmentDestination":{"name":"Frankfurt(Main)Hbf","evaNumber":"8000105"},"stops":[{"station":{"evaNumber":"8000156","name":"Heidelberg Hbf","coordinates":{"lng":8.67548,"lat":49.403582},"ril100":"RH"},"departure":{"platform":"2","scheduledTime":"2023-10-18T14:20:00.000Z","time":"2023-10-18T14:20:00.000Z","reihung":false}},{"station":{"evaNumber":"8002687","name":"Heidelberg-Pfaffengrund/Wieblingen","coordinates":{"lng":8.641474,"lat":49.411969},"ril100":"RHBP"},"arrival":{"platform":"1","scheduledTime":"2023-10-18T14:23:00.000Z","time":"2023-10-18T14:23:00.000Z","reihung":false},"departure":{"platform":"1","scheduledTime":"2023-10-18T14:23:00.000Z","time":"2023-10-18T14:23:00.000Z","reihung":false}},{"station":{"evaNumber":"8000631","name":"Neu-Edingen/Friedrichsfeld","coordinates":{"lng":8.579934,"lat":49.44842},"ril100":"RMF"},"arrival":{"platform":"1","scheduledTime":"2023-10-18T14:29:00.000Z","time":"2023-10-18T14:29:00.000Z","reihung":false},"departure":{"platform":"1","scheduledTime":"2023-10-18T14:33:00.000Z","time":"2023-10-18T14:33:00.000Z","reihung":false}},{"station":{"evaNumber":"8003489","name":"Ladenburg","coordinates":{"lng":8.602128,"lat":49.473491},"ril100":"RLD"},"arrival":{"platform":"1","scheduledTime":"2023-10-18T14:36:00.000Z","time":"2023-10-18T14:36:00.000Z","reihung":false},"departure":{"platform":"1","scheduledTime":"2023-10-18T14:37:00.000Z","time":"2023-10-18T14:37:00.000Z","reihung":false}},{"station":{"evaNumber":"8002430","name":"Heddesheim/Hirschberg","coordinates":{"lng":8.634148,"lat":49.509897},"ril100":"RGCH"},"arrival":{"platform":"2","scheduledTime":"2023-10-18T14:40:00.000Z","time":"2023-10-18T14:40:00.000Z","reihung":false},"departure":{"platform":"2","scheduledTime":"2023-10-18T14:40:00.000Z","time":"2023-10-18T14:40:00.000Z","reihung":false}},{"station":{"evaNumber":"8003792","name":"Weinheim-Lützelsachsen","coordinates":{"lng":8.649232,"lat":49.527022},"ril100":"RLUE"},"arrival":{"platform":"1","scheduledTime":"2023-10-18T14:42:00.000Z","time":"2023-10-18T14:42:00.000Z","reihung":false},"departure":{"platform":"1","scheduledTime":"2023-10-18T14:43:00.000Z","time":"2023-10-18T14:43:00.000Z","reihung":false}},{"station":{"evaNumber":"8000377","name":"Weinheim(Bergstr)Hbf","coordinates":{"lng":8.66561,"lat":49.553738},"ril100":"RWE"},"arrival":{"platform":"2","scheduledTime":"2023-10-18T14:46:00.000Z","time":"2023-10-18T14:46:00.000Z","reihung":false},"departure":{"platform":"2","scheduledTime":"2023-10-18T14:46:00.000Z","time":"2023-10-18T14:46:00.000Z","reihung":false}},{"station":{"evaNumber":"8006283","name":"Weinheim-Sulzbach","coordinates":{"lng":8.65636,"lat":49.575797},"ril100":"RWEZ"},"arrival":{"platform":"2","scheduledTime":"2023-10-18T14:49:00.000Z","time":"2023-10-18T14:49:00.000Z","reihung":false},"departure":{"platform":"2","scheduledTime":"2023-10-18T14:49:00.000Z","time":"2023-10-18T14:49:00.000Z","reihung":false}},{"station":{"evaNumber":"8002748","name":"Hemsbach","coordinates":{"lng":8.648702,"lat":49.590539},"ril100":"RHCH"},"arrival":{"platform":"1","scheduledTime":"2023-10-18T14:51:00.000Z","time":"2023-10-18T14:51:00.000Z","reihung":false},"departure":{"platform":"1","scheduledTime":"2023-10-18T14:52:00.000Z","time":"2023-10-18T14:52:00.000Z","reihung":false}},{"station":{"evaNumber":"8003571","name":"Laudenbach(Bergstr)","coordinates":{"lng":8.644638,"lat":49.611646},"ril100":"RLCH"},"arrival":{"platform":"1","scheduledTime":"2023-10-18T14:54:00.000Z","time":"2023-10-18T14:54:00.000Z","reihung":false},"departure":{"platform":"1","scheduledTime":"2023-10-18T14:54:00.000Z","time":"2023-10-18T14:54:00.000Z","reihung":false}},{"station":{"evaNumber":"8002757","name":"Heppenheim(Bergstr)","coordinates":{"lng":8.633366,"lat":49.641562},"ril100":"FHP"},"arrival":{"platform":"1","scheduledTime":"2023-10-18T14:57:00.000Z","time":"2023-10-18T14:57:00.000Z","reihung":false},"departure":{"platform":"1","scheduledTime":"2023-10-18T14:57:00.000Z","time":"2023-10-18T14:57:00.000Z","reihung":false}},{"station":{"evaNumber":"8000031","name":"Bensheim","coordinates":{"lng":8.616646,"lat":49.68142},"ril100":"FBH"},"arrival":{"platform":"1","scheduledTime":"2023-10-18T15:00:00.000Z","time":"2023-10-18T15:00:00.000Z","reihung":false},"departure":{"platform":"1","scheduledTime":"2023-10-18T15:01:00.000Z","time":"2023-10-18T15:01:00.000Z","reihung":false}},{"station":{"evaNumber":"8000877","name":"Bensheim-Auerbach","coordinates":{"lng":8.613149,"lat":49.702257},"ril100":"FBAU"},"arrival":{"platform":"1","scheduledTime":"2023-10-18T15:03:00.000Z","time":"2023-10-18T15:03:00.000Z","reihung":false},"departure":{"platform":"1","scheduledTime":"2023-10-18T15:04:00.000Z","time":"2023-10-18T15:04:00.000Z","reihung":false}},{"station":{"evaNumber":"8006687","name":"Zwingenberg(Bergstr)","coordinates":{"lng":8.608987,"lat":49.72562},"ril100":"FZW"},"arrival":{"platform":"1","scheduledTime":"2023-10-18T15:06:00.000Z","time":"2023-10-18T15:06:00.000Z","reihung":false},"departure":{"platform":"1","scheduledTime":"2023-10-18T15:06:00.000Z","time":"2023-10-18T15:06:00.000Z","reihung":false}},{"station":{"evaNumber":"8002498","name":"Hähnlein-Alsbach","coordinates":{"lng":8.606398,"lat":49.740129},"ril100":"FHAE"},"arrival":{"platform":"2","scheduledTime":"2023-10-18T15:08:00.000Z","time":"2023-10-18T15:08:00.000Z","reihung":false},"departure":{"platform":"2","scheduledTime":"2023-10-18T15:09:00.000Z","time":"2023-10-18T15:09:00.000Z","reihung":false}},{"station":{"evaNumber":"8000948","name":"Bickenbach(Bergstr)","coordinates":{"lng":8.603432,"lat":49.759626},"ril100":"FBI"},"arrival":{"platform":"1","scheduledTime":"2023-10-18T15:11:00.000Z","time":"2023-10-18T15:11:00.000Z","reihung":false},"departure":{"platform":"1","scheduledTime":"2023-10-18T15:11:00.000Z","time":"2023-10-18T15:11:00.000Z","reihung":false}},{"station":{"evaNumber":"8001379","name":"Darmstadt-Eberstadt","coordinates":{"lng":8.625986,"lat":49.814452},"ril100":"FDE"},"arrival":{"platform":"1","scheduledTime":"2023-10-18T15:17:00.000Z","time":"2023-10-18T15:17:00.000Z","reihung":false},"departure":{"platform":"1","scheduledTime":"2023-10-18T15:17:00.000Z","time":"2023-10-18T15:17:00.000Z","reihung":false}},{"station":{"evaNumber":"8001377","name":"Darmstadt Süd","coordinates":{"lng":8.637132,"lat":49.854157},"ril100":"FDS"},"arrival":{"platform":"1","scheduledTime":"2023-10-18T15:21:00.000Z","time":"2023-10-18T15:21:00.000Z","reihung":false},"departure":{"platform":"1","scheduledTime":"2023-10-18T15:21:00.000Z","time":"2023-10-18T15:21:00.000Z","reihung":false}},{"station":{"evaNumber":"8000068","name":"Darmstadt Hbf","coordinates":{"lng":8.629707,"lat":49.872549},"ril100":"FD"},"arrival":{"platform":"7","scheduledTime":"2023-10-18T15:28:00.000Z","time":"2023-10-18T15:28:00.000Z","reihung":false},"departure":{"platform":"7","scheduledTime":"2023-10-18T15:30:00.000Z","time":"2023-10-18T15:30:00.000Z","reihung":false}},{"station":{"evaNumber":"8003523","name":"Langen(Hess)","coordinates":{"lng":8.656828,"lat":49.993535},"ril100":"FLG"},"arrival":{"platform":"1","scheduledTime":"2023-10-18T15:38:00.000Z","time":"2023-10-18T15:38:00.000Z","reihung":false},"departure":{"platform":"1","scheduledTime":"2023-10-18T15:39:00.000Z","time":"2023-10-18T15:39:00.000Z","reihung":false}},{"station":{"evaNumber":"8000105","name":"Frankfurt(Main)Hbf","coordinates":{"lng":8.663003,"lat":50.106817},"ril100":"FF"},"arrival":{"platform":"10","scheduledTime":"2023-10-18T15:48:00.000Z","time":"2023-10-18T15:48:00.000Z","reihung":false}}],"finalDestination":"Frankfurt(Main)Hbf","jid":"1|351689|0|80|18102023","messages":[{"type":"A","code":"FB","prio":260,"icoX":8,"txtN":"Fahrradmitnahme begrenzt möglich"},{"type":"A","code":"EH","prio":560,"icoX":4,"txtN":"Fahrzeuggebundene Einstiegshilfe vorhanden"},{"type":"A","code":"KL","prio":610,"icoX":4,"txtN":"Klimaanlage"},{"type":"M","code":"","icoX":17,"txtS":"RB 15324: Heidelberg Hbf->Frankfurt(Main)Hbf: Bauarbeiten.","txtN":"Aufgrund von Bauarbeiten kommt es vom 10. bis 27. Oktober 2023 auf den Linien RE60 und RB67/68 zu geänderten Fahrtzeiten sowie zu Zug- und Teilausfällen. Es wird ein Ersatzverkehr (EV) mit Bussen für Sie eingerichtet Die Mitnahme von Fahrrädern im Bus ist ausgeschlossen. Bitte informieren Sie sich frühzeitig über Ihre geplanten Verbindungen und wählen Sie gegebenenfalls eine frühere Zugverbindung, um Ihre Anschlüsse an Ihren Umsteigebahnhöfen erreichen zu können. Die Fahrplanänderungen zu dieser Baumaßnahme sind in die Online - Fahrplanauskünfte eingearbeitet.","url":"https://him.static-bahn.de/1696265834247_10_23_V01_ZvF_53273_22_10_2023.pdf","sIdx":0}],"type":"JNY"},{"arrival":{"platform":"7","scheduledTime":"2023-10-18T18:47:00.000Z","time":"2023-10-18T18:47:00.000Z","reihung":false},"departure":{"platform":"16","scheduledTime":"2023-10-18T16:20:00.000Z","time":"2023-10-18T16:20:00.000Z","reihung":false},"duration":8820000,"train":{"name":"HLB RE98","line":"RE98","admin":"K4RE","number":"24418","type":"HLB","operator":{"name":"HLB Hessenbahn GmbH","icoX":6}},"segmentStart":{"name":"Frankfurt(Main)Hbf","evaNumber":"8000105"},"segmentDestination":{"name":"Kassel Hbf","evaNumber":"8000193"},"stops":[{"station":{"evaNumber":"8000105","name":"Frankfurt(Main)Hbf","coordinates":{"lng":8.663003,"lat":50.106817},"ril100":"FF"},"departure":{"platform":"16","scheduledTime":"2023-10-18T16:20:00.000Z","time":"2023-10-18T16:20:00.000Z","reihung":false}},{"station":{"evaNumber":"8002042","name":"Frankfurt(Main)West","coordinates":{"lng":8.639371,"lat":50.11924},"ril100":"FFW"},"arrival":{"platform":"4","scheduledTime":"2023-10-18T16:24:00.000Z","time":"2023-10-18T16:24:00.000Z","reihung":false},"departure":{"platform":"4","scheduledTime":"2023-10-18T16:24:00.000Z","time":"2023-10-18T16:24:00.000Z","reihung":false}},{"station":{"evaNumber":"8000111","name":"Friedberg(Hess)","coordinates":{"lng":8.761327,"lat":50.332842},"ril100":"FFG"},"arrival":{"platform":"4","scheduledTime":"2023-10-18T16:44:00.000Z","time":"2023-10-18T16:44:00.000Z","reihung":false},"departure":{"platform":"4","scheduledTime":"2023-10-18T16:45:00.000Z","time":"2023-10-18T16:45:00.000Z","reihung":false}},{"station":{"evaNumber":"8000124","name":"Gießen","coordinates":{"lng":8.662842,"lat":50.579371},"ril100":"FG"},"arrival":{"platform":"1","scheduledTime":"2023-10-18T17:02:00.000Z","time":"2023-10-18T17:02:00.000Z","reihung":false},"departure":{"platform":"1","scheduledTime":"2023-10-18T17:05:00.000Z","time":"2023-10-18T17:05:00.000Z","reihung":false}},{"station":{"evaNumber":"8000337","name":"Marburg(Lahn)","coordinates":{"lng":8.775081,"lat":50.819275},"ril100":"FMBG"},"arrival":{"platform":"5","scheduledTime":"2023-10-18T17:19:00.000Z","time":"2023-10-18T17:19:00.000Z","reihung":false},"departure":{"platform":"5","scheduledTime":"2023-10-18T17:20:00.000Z","time":"2023-10-18T17:20:00.000Z","reihung":false}},{"station":{"evaNumber":"8000065","name":"Cölbe","coordinates":{"lng":8.787369,"lat":50.848166}},"arrival":{"platform":"4","scheduledTime":"2023-10-18T17:24:00.000Z","time":"2023-10-18T17:24:00.000Z","reihung":false},"departure":{"platform":"4","scheduledTime":"2023-10-18T17:24:00.000Z","time":"2023-10-18T17:24:00.000Z","reihung":false}},{"station":{"evaNumber":"8000435","name":"Kirchhain(Bz Kassel)","coordinates":{"lng":8.921398,"lat":50.823913},"ril100":"FKIH"},"arrival":{"platform":"2","scheduledTime":"2023-10-18T17:31:00.000Z","time":"2023-10-18T17:31:00.000Z","reihung":false},"departure":{"platform":"2","scheduledTime":"2023-10-18T17:32:00.000Z","time":"2023-10-18T17:32:00.000Z","reihung":false}},{"station":{"evaNumber":"8005661","name":"Stadtallendorf","coordinates":{"lng":9.015228,"lat":50.825352},"ril100":"FSTA"},"arrival":{"platform":"2","scheduledTime":"2023-10-18T17:37:00.000Z","time":"2023-10-18T17:37:00.000Z","reihung":false},"departure":{"platform":"2","scheduledTime":"2023-10-18T17:37:00.000Z","time":"2023-10-18T17:37:00.000Z","reihung":false}},{"station":{"evaNumber":"8004328","name":"Neustadt(Kr Marburg)","coordinates":{"lng":9.120887,"lat":50.850584},"ril100":"FNSM"},"arrival":{"platform":"3","scheduledTime":"2023-10-18T17:43:00.000Z","time":"2023-10-18T17:43:00.000Z","reihung":false},"departure":{"platform":"3","scheduledTime":"2023-10-18T17:44:00.000Z","time":"2023-10-18T17:44:00.000Z","reihung":false}},{"station":{"evaNumber":"8006401","name":"Schwalmstadt-Wiera","coordinates":{"lng":9.136465,"lat":50.881921},"ril100":"FWRA"},"arrival":{"platform":"1","scheduledTime":"2023-10-18T17:47:00.000Z","time":"2023-10-18T17:47:00.000Z","reihung":false},"departure":{"platform":"1","scheduledTime":"2023-10-18T17:48:00.000Z","time":"2023-10-18T17:48:00.000Z","reihung":false}},{"station":{"evaNumber":"8000129","name":"Treysa","coordinates":{"lng":9.185807,"lat":50.910632},"ril100":"FTS"},"arrival":{"platform":"2","scheduledTime":"2023-10-18T17:53:00.000Z","time":"2023-10-18T17:53:00.000Z","reihung":false},"departure":{"platform":"2","scheduledTime":"2023-10-18T17:55:00.000Z","time":"2023-10-18T17:55:00.000Z","reihung":false}},{"station":{"evaNumber":"8005365","name":"Schlierbach(Schwalm-Eder-Kr.)","coordinates":{"lng":9.201089,"lat":50.968631},"ril100":"FSBA"},"arrival":{"platform":"2","scheduledTime":"2023-10-18T18:00:00.000Z","time":"2023-10-18T18:00:00.000Z","reihung":false},"departure":{"platform":"2","scheduledTime":"2023-10-18T18:00:00.000Z","time":"2023-10-18T18:00:00.000Z","reihung":false}},{"station":{"evaNumber":"8006663","name":"Zimmersrode","coordinates":{"lng":9.225243,"lat":51.008075},"ril100":"FZM"},"arrival":{"platform":"2","scheduledTime":"2023-10-18T18:04:00.000Z","time":"2023-10-18T18:04:00.000Z","reihung":false},"departure":{"platform":"2","scheduledTime":"2023-10-18T18:04:00.000Z","time":"2023-10-18T18:04:00.000Z","reihung":false}},{"station":{"evaNumber":"8001098","name":"Borken(Hess)","coordinates":{"lng":9.276724,"lat":51.050648},"ril100":"FBOK"},"arrival":{"platform":"1","scheduledTime":"2023-10-18T18:08:00.000Z","time":"2023-10-18T18:08:00.000Z","reihung":false},"departure":{"platform":"1","scheduledTime":"2023-10-18T18:09:00.000Z","time":"2023-10-18T18:09:00.000Z","reihung":false}},{"station":{"evaNumber":"8005576","name":"Singlis","coordinates":{"lng":9.323935,"lat":51.058712},"ril100":"FSL"},"arrival":{"platform":"2","scheduledTime":"2023-10-18T18:11:00.000Z","time":"2023-10-18T18:11:00.000Z","reihung":false},"departure":{"platform":"2","scheduledTime":"2023-10-18T18:12:00.000Z","time":"2023-10-18T18:12:00.000Z","reihung":false}},{"station":{"evaNumber":"8000368","name":"Wabern(Bz Kassel)","coordinates":{"lng":9.358274,"lat":51.103073},"ril100":"FWAB"},"arrival":{"platform":"5","scheduledTime":"2023-10-18T18:16:00.000Z","time":"2023-10-18T18:16:00.000Z","reihung":false},"departure":{"platform":"5","scheduledTime":"2023-10-18T18:17:00.000Z","time":"2023-10-18T18:17:00.000Z","reihung":false}},{"station":{"evaNumber":"8002236","name":"Felsberg-Gensungen","coordinates":{"lng":9.435698,"lat":51.131237},"ril100":"FGEF"},"arrival":{"platform":"2","scheduledTime":"2023-10-18T18:21:00.000Z","time":"2023-10-18T18:21:00.000Z","reihung":false},"departure":{"platform":"2","scheduledTime":"2023-10-18T18:21:00.000Z","time":"2023-10-18T18:21:00.000Z","reihung":false}},{"station":{"evaNumber":"8000520","name":"Felsberg-Altenbrunslar","coordinates":{"lng":9.445469,"lat":51.16518},"ril100":"FABL"},"arrival":{"platform":"2","scheduledTime":"2023-10-18T18:24:00.000Z","time":"2023-10-18T18:24:00.000Z","reihung":false},"departure":{"platform":"2","scheduledTime":"2023-10-18T18:25:00.000Z","time":"2023-10-18T18:25:00.000Z","reihung":false}},{"station":{"evaNumber":"8006546","name":"Felsberg-Wolfershausen","coordinates":{"lng":9.450099,"lat":51.186601},"ril100":"FWON"},"arrival":{"platform":"2","scheduledTime":"2023-10-18T18:28:00.000Z","time":"2023-10-18T18:28:00.000Z","reihung":false},"departure":{"platform":"2","scheduledTime":"2023-10-18T18:28:00.000Z","time":"2023-10-18T18:28:00.000Z","reihung":false}},{"station":{"evaNumber":"8002374","name":"Edermünde-Grifte","coordinates":{"lng":9.44893,"lat":51.210081},"ril100":"FGRF"},"arrival":{"platform":"1","scheduledTime":"2023-10-18T18:31:00.000Z","time":"2023-10-18T18:31:00.000Z","reihung":false},"departure":{"platform":"1","scheduledTime":"2023-10-18T18:31:00.000Z","time":"2023-10-18T18:31:00.000Z","reihung":false}},{"station":{"evaNumber":"8000140","name":"Baunatal-Guntershausen","coordinates":{"lng":9.46716,"lat":51.229929},"ril100":"FGTH"},"arrival":{"platform":"3","scheduledTime":"2023-10-18T18:34:00.000Z","time":"2023-10-18T18:34:00.000Z","reihung":false},"departure":{"platform":"3","scheduledTime":"2023-10-18T18:35:00.000Z","time":"2023-10-18T18:35:00.000Z","reihung":false}},{"station":{"evaNumber":"8003200","name":"Kassel-Wilhelmshöhe","coordinates":{"lng":9.446845,"lat":51.312998},"ril100":"FKW"},"arrival":{"platform":"9","scheduledTime":"2023-10-18T18:42:00.000Z","time":"2023-10-18T18:42:00.000Z","reihung":false},"departure":{"platform":"9","scheduledTime":"2023-10-18T18:43:00.000Z","time":"2023-10-18T18:43:00.000Z","reihung":false}},{"station":{"evaNumber":"8000193","name":"Kassel Hbf","coordinates":{"lng":9.489903,"lat":51.31832},"ril100":"FK"},"arrival":{"platform":"7","scheduledTime":"2023-10-18T18:47:00.000Z","time":"2023-10-18T18:47:00.000Z","reihung":false}}],"finalDestination":"Kassel Hbf","jid":"1|289395|0|80|18102023","messages":[{"type":"A","code":"FB","prio":260,"icoX":8,"txtN":"Fahrradmitnahme begrenzt möglich"}],"type":"JNY"}],"segmentTypes":["RB","HLB"]},{"checksum":"65d9e2b0_3","cid":"C-6","date":"2023-10-17T22:00:00.000Z","duration":12300000,"changes":2,"isRideable":true,"arrival":{"platform":"10","scheduledTime":"2023-10-18T18:11:00.000Z","time":"2023-10-18T18:11:00.000Z","reihung":false},"departure":{"platform":"3","scheduledTime":"2023-10-18T14:46:00.000Z","time":"2023-10-18T14:46:00.000Z","reihung":false},"segments":[{"arrival":{"platform":"11","scheduledTime":"2023-10-18T15:40:00.000Z","time":"2023-10-18T15:40:00.000Z","reihung":false},"departure":{"platform":"3","scheduledTime":"2023-10-18T14:46:00.000Z","time":"2023-10-18T14:46:00.000Z","reihung":false},"duration":3240000,"train":{"name":"ICE 1168","line":"62","admin":"80","number":"1168","type":"ICE","operator":{"name":"DB Fernverkehr AG","icoX":2}},"changeDuration":13,"segmentStart":{"name":"Heidelberg Hbf","evaNumber":"8000156"},"segmentDestination":{"name":"Frankfurt(Main)Hbf","evaNumber":"8000105"},"stops":[{"station":{"evaNumber":"8000156","name":"Heidelberg Hbf","coordinates":{"lng":8.67548,"lat":49.403582},"ril100":"RH"},"departure":{"platform":"3","scheduledTime":"2023-10-18T14:46:00.000Z","time":"2023-10-18T14:46:00.000Z","reihung":false},"auslastung":{"first":1,"second":1}},{"station":{"evaNumber":"8000377","name":"Weinheim(Bergstr)Hbf","coordinates":{"lng":8.66561,"lat":49.553738},"ril100":"RWE"},"arrival":{"platform":"2","scheduledTime":"2023-10-18T14:59:00.000Z","time":"2023-10-18T14:59:00.000Z","reihung":false},"departure":{"platform":"2","scheduledTime":"2023-10-18T15:00:00.000Z","time":"2023-10-18T15:00:00.000Z","reihung":false},"auslastung":{"first":1,"second":1}},{"station":{"evaNumber":"8000031","name":"Bensheim","coordinates":{"lng":8.616646,"lat":49.68142},"ril100":"FBH"},"arrival":{"platform":"1","scheduledTime":"2023-10-18T15:08:00.000Z","time":"2023-10-18T15:08:00.000Z","reihung":false},"departure":{"platform":"1","scheduledTime":"2023-10-18T15:09:00.000Z","time":"2023-10-18T15:09:00.000Z","reihung":false},"auslastung":{"first":1,"second":1}},{"station":{"evaNumber":"8000068","name":"Darmstadt Hbf","coordinates":{"lng":8.629707,"lat":49.872549},"ril100":"FD"},"arrival":{"platform":"5","scheduledTime":"2023-10-18T15:22:00.000Z","time":"2023-10-18T15:22:00.000Z","reihung":false},"departure":{"platform":"5","scheduledTime":"2023-10-18T15:24:00.000Z","time":"2023-10-18T15:24:00.000Z","reihung":false},"auslastung":{"first":1,"second":1}},{"station":{"evaNumber":"8000105","name":"Frankfurt(Main)Hbf","coordinates":{"lng":8.663003,"lat":50.106817},"ril100":"FF"},"arrival":{"platform":"11","scheduledTime":"2023-10-18T15:40:00.000Z","time":"2023-10-18T15:40:00.000Z","reihung":false}}],"finalDestination":"Frankfurt(Main)Hbf","jid":"1|197122|0|80|18102023","auslastung":{"first":1,"second":1},"messages":[{"type":"A","code":"CK","prio":200,"icoX":4,"txtN":"Sicher & kontaktlos ohne Ticketkontrolle reisen mit Komfort Check-in"},{"type":"A","code":"BR","prio":450,"icoX":13,"txtN":"Bordrestaurant"}],"type":"JNY"},{"arrival":{"platform":"3","scheduledTime":"2023-10-18T17:47:00.000Z","time":"2023-10-18T17:47:00.000Z","reihung":false},"departure":{"platform":"12","scheduledTime":"2023-10-18T15:53:00.000Z","time":"2023-10-18T15:53:00.000Z","reihung":false},"duration":6840000,"train":{"name":"ICE 792","line":"13","admin":"80","number":"792","type":"ICE","operator":{"name":"DB Fernverkehr AG","icoX":2}},"changeDuration":19,"segmentStart":{"name":"Frankfurt(Main)Hbf","evaNumber":"8000105"},"segmentDestination":{"name":"Kassel-Wilhelmshöhe","evaNumber":"8003200"},"stops":[{"station":{"evaNumber":"8000105","name":"Frankfurt(Main)Hbf","coordinates":{"lng":8.663003,"lat":50.106817},"ril100":"FF"},"departure":{"platform":"12","scheduledTime":"2023-10-18T15:53:00.000Z","time":"2023-10-18T15:53:00.000Z","reihung":false},"auslastung":{"first":1,"second":1}},{"station":{"evaNumber":"8003200","name":"Kassel-Wilhelmshöhe","coordinates":{"lng":9.446845,"lat":51.312998},"ril100":"FKW"},"arrival":{"platform":"3","scheduledTime":"2023-10-18T17:47:00.000Z","time":"2023-10-18T17:47:00.000Z","reihung":false}}],"finalDestination":"Berlin Ostbahnhof","jid":"1|210207|0|80|18102023","auslastung":{"first":1,"second":1},"messages":[{"type":"A","code":"CK","prio":200,"icoX":4,"txtN":"Sicher & kontaktlos ohne Ticketkontrolle reisen mit Komfort Check-in"},{"type":"A","code":"BR","prio":450,"icoX":13,"txtN":"Bordrestaurant"}],"type":"JNY"},{"arrival":{"platform":"10","scheduledTime":"2023-10-18T18:11:00.000Z","time":"2023-10-18T18:11:00.000Z","reihung":false},"departure":{"platform":"9","scheduledTime":"2023-10-18T18:06:00.000Z","time":"2023-10-18T18:06:00.000Z","reihung":false},"duration":300000,"train":{"name":"RB 39","line":"39","admin":"800523","number":"23116","type":"RB","operator":{"name":"DB RegioNetz Verkehrs GmbH Kurhessenbahn","icoX":20}},"segmentStart":{"name":"Kassel-Wilhelmshöhe","evaNumber":"8003200"},"segmentDestination":{"name":"Kassel Hbf","evaNumber":"8000193"},"stops":[{"station":{"evaNumber":"8003200","name":"Kassel-Wilhelmshöhe","coordinates":{"lng":9.446845,"lat":51.312998},"ril100":"FKW"},"departure":{"platform":"9","scheduledTime":"2023-10-18T18:06:00.000Z","time":"2023-10-18T18:06:00.000Z","reihung":false}},{"station":{"evaNumber":"8000193","name":"Kassel Hbf","coordinates":{"lng":9.489903,"lat":51.31832},"ril100":"FK"},"arrival":{"platform":"10","scheduledTime":"2023-10-18T18:11:00.000Z","time":"2023-10-18T18:11:00.000Z","reihung":false}}],"finalDestination":"Kassel Hbf","jid":"1|279660|1|80|18102023","messages":[{"type":"A","code":"FB","prio":260,"icoX":8,"txtN":"Fahrradmitnahme begrenzt möglich"},{"type":"A","code":"RG","prio":560,"icoX":4,"txtN":"Behindertengerechtes Fahrzeug"},{"type":"A","code":"EH","prio":560,"icoX":4,"txtN":"Fahrzeuggebundene Einstiegshilfe vorhanden"},{"type":"A","code":"OB","prio":560,"icoX":4,"txtN":"Niederflurfahrzeug"},{"type":"A","code":"EA","prio":560,"icoX":4,"txtN":"Behindertengerechte Ausstattung"},{"type":"A","code":"KL","prio":610,"icoX":4,"txtN":"Klimaanlage"},{"type":"M","code":"","icoX":17,"txtS":"RB 23116: Kassel-Wilhelmshöhe->Kassel Hbf: Bauarbeiten.","txtN":"Aufgrund von Modernisierungsarbeiten bis einschließlich Freitag, den 29. März 2024 kommt es auf den Linien RE39 und RB39 zwischen Wabern(Bz Kassel) und Bad Wildungen zu Teilausfällen. Wir haben für Sie einen Ersatzverkehr mit Bussen eingerichtet. Die Mitnahme von Fahrrädern im Bus ist ausgeschlossen. Bitte informieren Sie sich frühzeitig über Ihre geplanten Verbindungen und wählen Sie gegebenenfalls eine frühere Zugverbindung, um Ihre Anschlüsse an Ihren Umsteigebahnhöfen erreichen zu können. Die Fahrplanänderungen zu dieser Baumaßnahme sind in die Online - Fahrplanauskünfte eingearbeitet.","url":"https://him.static-bahn.de/1694010880861_23_12_RB_RE39_Bauma_nahme.pdf","sIdx":2}],"type":"JNY"}],"segmentTypes":["ICE","ICE","RB"]},{"checksum":"0dfa47ca_3","cid":"C-7","date":"2023-10-17T22:00:00.000Z","duration":14460000,"changes":1,"isRideable":true,"arrival":{"platform":"7","scheduledTime":"2023-10-18T18:47:00.000Z","time":"2023-10-18T18:47:00.000Z","reihung":false},"departure":{"platform":"3","scheduledTime":"2023-10-18T14:46:00.000Z","time":"2023-10-18T14:46:00.000Z","reihung":false},"segments":[{"arrival":{"platform":"11","scheduledTime":"2023-10-18T15:40:00.000Z","time":"2023-10-18T15:40:00.000Z","reihung":false},"departure":{"platform":"3","scheduledTime":"2023-10-18T14:46:00.000Z","time":"2023-10-18T14:46:00.000Z","reihung":false},"duration":3240000,"train":{"name":"ICE 1168","line":"62","admin":"80","number":"1168","type":"ICE","operator":{"name":"DB Fernverkehr AG","icoX":2}},"changeDuration":40,"segmentStart":{"name":"Heidelberg Hbf","evaNumber":"8000156"},"segmentDestination":{"name":"Frankfurt(Main)Hbf","evaNumber":"8000105"},"stops":[{"station":{"evaNumber":"8000156","name":"Heidelberg Hbf","coordinates":{"lng":8.67548,"lat":49.403582},"ril100":"RH"},"departure":{"platform":"3","scheduledTime":"2023-10-18T14:46:00.000Z","time":"2023-10-18T14:46:00.000Z","reihung":false},"auslastung":{"first":1,"second":1}},{"station":{"evaNumber":"8000377","name":"Weinheim(Bergstr)Hbf","coordinates":{"lng":8.66561,"lat":49.553738},"ril100":"RWE"},"arrival":{"platform":"2","scheduledTime":"2023-10-18T14:59:00.000Z","time":"2023-10-18T14:59:00.000Z","reihung":false},"departure":{"platform":"2","scheduledTime":"2023-10-18T15:00:00.000Z","time":"2023-10-18T15:00:00.000Z","reihung":false},"auslastung":{"first":1,"second":1}},{"station":{"evaNumber":"8000031","name":"Bensheim","coordinates":{"lng":8.616646,"lat":49.68142},"ril100":"FBH"},"arrival":{"platform":"1","scheduledTime":"2023-10-18T15:08:00.000Z","time":"2023-10-18T15:08:00.000Z","reihung":false},"departure":{"platform":"1","scheduledTime":"2023-10-18T15:09:00.000Z","time":"2023-10-18T15:09:00.000Z","reihung":false},"auslastung":{"first":1,"second":1}},{"station":{"evaNumber":"8000068","name":"Darmstadt Hbf","coordinates":{"lng":8.629707,"lat":49.872549},"ril100":"FD"},"arrival":{"platform":"5","scheduledTime":"2023-10-18T15:22:00.000Z","time":"2023-10-18T15:22:00.000Z","reihung":false},"departure":{"platform":"5","scheduledTime":"2023-10-18T15:24:00.000Z","time":"2023-10-18T15:24:00.000Z","reihung":false},"auslastung":{"first":1,"second":1}},{"station":{"evaNumber":"8000105","name":"Frankfurt(Main)Hbf","coordinates":{"lng":8.663003,"lat":50.106817},"ril100":"FF"},"arrival":{"platform":"11","scheduledTime":"2023-10-18T15:40:00.000Z","time":"2023-10-18T15:40:00.000Z","reihung":false}}],"finalDestination":"Frankfurt(Main)Hbf","jid":"1|197122|0|80|18102023","auslastung":{"first":1,"second":1},"messages":[{"type":"A","code":"CK","prio":200,"icoX":4,"txtN":"Sicher & kontaktlos ohne Ticketkontrolle reisen mit Komfort Check-in"},{"type":"A","code":"BR","prio":450,"icoX":13,"txtN":"Bordrestaurant"}],"type":"JNY"},{"arrival":{"platform":"7","scheduledTime":"2023-10-18T18:47:00.000Z","time":"2023-10-18T18:47:00.000Z","reihung":false},"departure":{"platform":"16","scheduledTime":"2023-10-18T16:20:00.000Z","time":"2023-10-18T16:20:00.000Z","reihung":false},"duration":8820000,"train":{"name":"HLB RE98","line":"RE98","admin":"K4RE","number":"24418","type":"HLB","operator":{"name":"HLB Hessenbahn GmbH","icoX":6}},"segmentStart":{"name":"Frankfurt(Main)Hbf","evaNumber":"8000105"},"segmentDestination":{"name":"Kassel Hbf","evaNumber":"8000193"},"stops":[{"station":{"evaNumber":"8000105","name":"Frankfurt(Main)Hbf","coordinates":{"lng":8.663003,"lat":50.106817},"ril100":"FF"},"departure":{"platform":"16","scheduledTime":"2023-10-18T16:20:00.000Z","time":"2023-10-18T16:20:00.000Z","reihung":false}},{"station":{"evaNumber":"8002042","name":"Frankfurt(Main)West","coordinates":{"lng":8.639371,"lat":50.11924},"ril100":"FFW"},"arrival":{"platform":"4","scheduledTime":"2023-10-18T16:24:00.000Z","time":"2023-10-18T16:24:00.000Z","reihung":false},"departure":{"platform":"4","scheduledTime":"2023-10-18T16:24:00.000Z","time":"2023-10-18T16:24:00.000Z","reihung":false}},{"station":{"evaNumber":"8000111","name":"Friedberg(Hess)","coordinates":{"lng":8.761327,"lat":50.332842},"ril100":"FFG"},"arrival":{"platform":"4","scheduledTime":"2023-10-18T16:44:00.000Z","time":"2023-10-18T16:44:00.000Z","reihung":false},"departure":{"platform":"4","scheduledTime":"2023-10-18T16:45:00.000Z","time":"2023-10-18T16:45:00.000Z","reihung":false}},{"station":{"evaNumber":"8000124","name":"Gießen","coordinates":{"lng":8.662842,"lat":50.579371},"ril100":"FG"},"arrival":{"platform":"1","scheduledTime":"2023-10-18T17:02:00.000Z","time":"2023-10-18T17:02:00.000Z","reihung":false},"departure":{"platform":"1","scheduledTime":"2023-10-18T17:05:00.000Z","time":"2023-10-18T17:05:00.000Z","reihung":false}},{"station":{"evaNumber":"8000337","name":"Marburg(Lahn)","coordinates":{"lng":8.775081,"lat":50.819275},"ril100":"FMBG"},"arrival":{"platform":"5","scheduledTime":"2023-10-18T17:19:00.000Z","time":"2023-10-18T17:19:00.000Z","reihung":false},"departure":{"platform":"5","scheduledTime":"2023-10-18T17:20:00.000Z","time":"2023-10-18T17:20:00.000Z","reihung":false}},{"station":{"evaNumber":"8000065","name":"Cölbe","coordinates":{"lng":8.787369,"lat":50.848166}},"arrival":{"platform":"4","scheduledTime":"2023-10-18T17:24:00.000Z","time":"2023-10-18T17:24:00.000Z","reihung":false},"departure":{"platform":"4","scheduledTime":"2023-10-18T17:24:00.000Z","time":"2023-10-18T17:24:00.000Z","reihung":false}},{"station":{"evaNumber":"8000435","name":"Kirchhain(Bz Kassel)","coordinates":{"lng":8.921398,"lat":50.823913},"ril100":"FKIH"},"arrival":{"platform":"2","scheduledTime":"2023-10-18T17:31:00.000Z","time":"2023-10-18T17:31:00.000Z","reihung":false},"departure":{"platform":"2","scheduledTime":"2023-10-18T17:32:00.000Z","time":"2023-10-18T17:32:00.000Z","reihung":false}},{"station":{"evaNumber":"8005661","name":"Stadtallendorf","coordinates":{"lng":9.015228,"lat":50.825352},"ril100":"FSTA"},"arrival":{"platform":"2","scheduledTime":"2023-10-18T17:37:00.000Z","time":"2023-10-18T17:37:00.000Z","reihung":false},"departure":{"platform":"2","scheduledTime":"2023-10-18T17:37:00.000Z","time":"2023-10-18T17:37:00.000Z","reihung":false}},{"station":{"evaNumber":"8004328","name":"Neustadt(Kr Marburg)","coordinates":{"lng":9.120887,"lat":50.850584},"ril100":"FNSM"},"arrival":{"platform":"3","scheduledTime":"2023-10-18T17:43:00.000Z","time":"2023-10-18T17:43:00.000Z","reihung":false},"departure":{"platform":"3","scheduledTime":"2023-10-18T17:44:00.000Z","time":"2023-10-18T17:44:00.000Z","reihung":false}},{"station":{"evaNumber":"8006401","name":"Schwalmstadt-Wiera","coordinates":{"lng":9.136465,"lat":50.881921},"ril100":"FWRA"},"arrival":{"platform":"1","scheduledTime":"2023-10-18T17:47:00.000Z","time":"2023-10-18T17:47:00.000Z","reihung":false},"departure":{"platform":"1","scheduledTime":"2023-10-18T17:48:00.000Z","time":"2023-10-18T17:48:00.000Z","reihung":false}},{"station":{"evaNumber":"8000129","name":"Treysa","coordinates":{"lng":9.185807,"lat":50.910632},"ril100":"FTS"},"arrival":{"platform":"2","scheduledTime":"2023-10-18T17:53:00.000Z","time":"2023-10-18T17:53:00.000Z","reihung":false},"departure":{"platform":"2","scheduledTime":"2023-10-18T17:55:00.000Z","time":"2023-10-18T17:55:00.000Z","reihung":false}},{"station":{"evaNumber":"8005365","name":"Schlierbach(Schwalm-Eder-Kr.)","coordinates":{"lng":9.201089,"lat":50.968631},"ril100":"FSBA"},"arrival":{"platform":"2","scheduledTime":"2023-10-18T18:00:00.000Z","time":"2023-10-18T18:00:00.000Z","reihung":false},"departure":{"platform":"2","scheduledTime":"2023-10-18T18:00:00.000Z","time":"2023-10-18T18:00:00.000Z","reihung":false}},{"station":{"evaNumber":"8006663","name":"Zimmersrode","coordinates":{"lng":9.225243,"lat":51.008075},"ril100":"FZM"},"arrival":{"platform":"2","scheduledTime":"2023-10-18T18:04:00.000Z","time":"2023-10-18T18:04:00.000Z","reihung":false},"departure":{"platform":"2","scheduledTime":"2023-10-18T18:04:00.000Z","time":"2023-10-18T18:04:00.000Z","reihung":false}},{"station":{"evaNumber":"8001098","name":"Borken(Hess)","coordinates":{"lng":9.276724,"lat":51.050648},"ril100":"FBOK"},"arrival":{"platform":"1","scheduledTime":"2023-10-18T18:08:00.000Z","time":"2023-10-18T18:08:00.000Z","reihung":false},"departure":{"platform":"1","scheduledTime":"2023-10-18T18:09:00.000Z","time":"2023-10-18T18:09:00.000Z","reihung":false}},{"station":{"evaNumber":"8005576","name":"Singlis","coordinates":{"lng":9.323935,"lat":51.058712},"ril100":"FSL"},"arrival":{"platform":"2","scheduledTime":"2023-10-18T18:11:00.000Z","time":"2023-10-18T18:11:00.000Z","reihung":false},"departure":{"platform":"2","scheduledTime":"2023-10-18T18:12:00.000Z","time":"2023-10-18T18:12:00.000Z","reihung":false}},{"station":{"evaNumber":"8000368","name":"Wabern(Bz Kassel)","coordinates":{"lng":9.358274,"lat":51.103073},"ril100":"FWAB"},"arrival":{"platform":"5","scheduledTime":"2023-10-18T18:16:00.000Z","time":"2023-10-18T18:16:00.000Z","reihung":false},"departure":{"platform":"5","scheduledTime":"2023-10-18T18:17:00.000Z","time":"2023-10-18T18:17:00.000Z","reihung":false}},{"station":{"evaNumber":"8002236","name":"Felsberg-Gensungen","coordinates":{"lng":9.435698,"lat":51.131237},"ril100":"FGEF"},"arrival":{"platform":"2","scheduledTime":"2023-10-18T18:21:00.000Z","time":"2023-10-18T18:21:00.000Z","reihung":false},"departure":{"platform":"2","scheduledTime":"2023-10-18T18:21:00.000Z","time":"2023-10-18T18:21:00.000Z","reihung":false}},{"station":{"evaNumber":"8000520","name":"Felsberg-Altenbrunslar","coordinates":{"lng":9.445469,"lat":51.16518},"ril100":"FABL"},"arrival":{"platform":"2","scheduledTime":"2023-10-18T18:24:00.000Z","time":"2023-10-18T18:24:00.000Z","reihung":false},"departure":{"platform":"2","scheduledTime":"2023-10-18T18:25:00.000Z","time":"2023-10-18T18:25:00.000Z","reihung":false}},{"station":{"evaNumber":"8006546","name":"Felsberg-Wolfershausen","coordinates":{"lng":9.450099,"lat":51.186601},"ril100":"FWON"},"arrival":{"platform":"2","scheduledTime":"2023-10-18T18:28:00.000Z","time":"2023-10-18T18:28:00.000Z","reihung":false},"departure":{"platform":"2","scheduledTime":"2023-10-18T18:28:00.000Z","time":"2023-10-18T18:28:00.000Z","reihung":false}},{"station":{"evaNumber":"8002374","name":"Edermünde-Grifte","coordinates":{"lng":9.44893,"lat":51.210081},"ril100":"FGRF"},"arrival":{"platform":"1","scheduledTime":"2023-10-18T18:31:00.000Z","time":"2023-10-18T18:31:00.000Z","reihung":false},"departure":{"platform":"1","scheduledTime":"2023-10-18T18:31:00.000Z","time":"2023-10-18T18:31:00.000Z","reihung":false}},{"station":{"evaNumber":"8000140","name":"Baunatal-Guntershausen","coordinates":{"lng":9.46716,"lat":51.229929},"ril100":"FGTH"},"arrival":{"platform":"3","scheduledTime":"2023-10-18T18:34:00.000Z","time":"2023-10-18T18:34:00.000Z","reihung":false},"departure":{"platform":"3","scheduledTime":"2023-10-18T18:35:00.000Z","time":"2023-10-18T18:35:00.000Z","reihung":false}},{"station":{"evaNumber":"8003200","name":"Kassel-Wilhelmshöhe","coordinates":{"lng":9.446845,"lat":51.312998},"ril100":"FKW"},"arrival":{"platform":"9","scheduledTime":"2023-10-18T18:42:00.000Z","time":"2023-10-18T18:42:00.000Z","reihung":false},"departure":{"platform":"9","scheduledTime":"2023-10-18T18:43:00.000Z","time":"2023-10-18T18:43:00.000Z","reihung":false}},{"station":{"evaNumber":"8000193","name":"Kassel Hbf","coordinates":{"lng":9.489903,"lat":51.31832},"ril100":"FK"},"arrival":{"platform":"7","scheduledTime":"2023-10-18T18:47:00.000Z","time":"2023-10-18T18:47:00.000Z","reihung":false}}],"finalDestination":"Kassel Hbf","jid":"1|289395|0|80|18102023","messages":[{"type":"A","code":"FB","prio":260,"icoX":8,"txtN":"Fahrradmitnahme begrenzt möglich"}],"type":"JNY"}],"segmentTypes":["ICE","HLB"]}]}