{"context":{"earlier":"3|OB|MT#14#451640#451593#451751#451767#0#0#485#451576#1#0#224#0#0#-2147483648#1#2|PDH#bbe10b32f5270e429a5a473728022d1b|RD#18102023|RT#141653|US#0|RS#INIT","later":"3|OF|MT#14#451675#451675#451782#451782#0#0#485#451641#7#0#1051#0#0#-2147483648#1#2|PDH#bbe10b32f5270e429a5a473728022d1b|RD#18102023|RT#141653|US#0|RS#INIT"},"routes":[{"checksum":"f0581b88_3","cid":"C-0","date":"2023-10-17T22:00:00.000Z","duration":10440000,"changes":2,"isRideable":true,"arrival":{"platform":"3","scheduledTime":"2023-10-18T15:27:00.000Z","time":"2023-10-18T15:27:00.000Z","reihung":false},"departure":{"platform":"2","scheduledTime":"2023-10-18T12:33:00.000Z","time":"2023-10-18T12:33:00.000Z","reihung":false},"segments":[{"arrival":{"platform":"5","scheduledTime":"2023-10-18T13:01:00.000Z","time":"2023-10-18T13:01:00.000Z","reihung":false},"departure":{"platform":"2","scheduledTime":"2023-10-18T12:33:00.000Z","time":"2023-10-18T12:33:00.000Z","reihung":false},"duration":1680000,"train":{"name":"S 2","line":"2","admin":"801539","number":"38238","type":"S","operator":{"name":"DB Regio AG Mitte","icoX":2}},"changeDuration":3,"segmentStart":{"name":"Heidelberg Hbf","evaNumber":"8000156"},"segmentDestination":{"name":"Ludwigshafen(Rh)Hbf","evaNumber":"8000236"},"stops":[{"station":{"evaNumber":"8000156","name":"Heidelberg Hbf","coordinates":{"lng":8.67548,"lat":49.403582},"ril100":"RH"},"departure":{"platform":"2","scheduledTime":"2023-10-18T12:33:00.000Z","time":"2023-10-18T12:33:00.000Z","reihung":false}},{"station":{"evaNumber":"8002687","name":"Heidelberg-Pfaffengrund/Wieblingen","coordinates":{"lng":8.641474,"lat":49.411969},"ril100":"RHBP"},"arrival":{"platform":"1","scheduledTime":"2023-10-18T12:36:00.000Z","time":"2023-10-18T12:36:00.000Z","reihung":false},"departure":{"platform":"1","scheduledTime":"2023-10-18T12:36:00.000Z","time":"2023-10-18T12:36:00.000Z","reihung":false}},{"station":{"evaNumber":"8003842","name":"Mannheim-Friedrichsfeld Süd","coordinates":{"lng":8.572239,"lat":49.438217},"ril100":"RMFS"},"arrival":{"platform":"1","scheduledTime":"2023-10-18T12:40:00.000Z","time":"2023-10-18T12:40:00.000Z","reihung":false},"departure":{"platform":"1","scheduledTime":"2023-10-18T12:40:00.000Z","time":"2023-10-18T12:40:00.000Z","reihung":false}},{"station":{"evaNumber":"8003847","name":"Mannheim-Seckenheim","coordinates":{"lng":8.538098,"lat":49.451413},"ril100":"RMSE"},"arrival":{"platform":"1","scheduledTime":"2023-10-18T12:43:00.000Z","time":"2023-10-18T12:43:00.000Z","reihung":false},"departure":{"platform":"1","scheduledTime":"2023-10-18T12:43:00.000Z","time":"2023-10-18T12:43:00.000Z","reihung":false}},{"station":{"evaNumber":"8003841","name":"Mannheim ARENA/Maimarkt","coordinates":{"lng":8.515922,"lat":49.45998},"ril100":"RMSM"},"arrival":{"platform":"1","scheduledTime":"2023-10-18T12:45:00.000Z","time":"2023-10-18T12:45:00.000Z","reihung":false},"departure":{"platform":"1","scheduledTime":"2023-10-18T12:45:00.000Z","time":"2023-10-18T12:45:00.000Z","reihung":false}},{"station":{"evaNumber":"8000244","name":"Mannheim Hbf","coordinates":{"lng":8.469268,"lat":49.479181},"ril100":"RM"},"arrival":{"platform":"1","scheduledTime":"2023-10-18T12:51:00.000Z","time":"2023-10-18T12:51:00.000Z","reihung":false},"departure":{"platform":"1","scheduledTime":"2023-10-18T12:56:00.000Z","time":"2023-10-18T12:56:00.000Z","reihung":false}},{"station":{"evaNumber":"8003759","name":"Ludwigshafen(Rhein) Mitte","coordinates":{"lng":8.452215,"lat":49.478938},"ril100":"RLSM"},"arrival":{"platform":"1","scheduledTime":"2023-10-18T12:58:00.000Z","time":"2023-10-18T12:58:00.000Z","reihung":false},"departure":{"platform":"1","scheduledTime":"2023-10-18T12:58:00.000Z","time":"2023-10-18T12:58:00.000Z","reihung":false}},{"station":{"evaNumber":"8000236","name":"Ludwigshafen(Rh)Hbf","coordinates":{"lng":8.433769,"lat":49.477257},"ril100":"RL"},"arrival":{"platform":"5","scheduledTime":"2023-10-18T13:01:00.000Z","time":"2023-10-18T13:01:00.000Z","reihung":false}}],"finalDestination":"Kaiserslautern Hbf","jid":"1|253886|0|80|18102023","messages":[{"type":"A","code":"FB","prio":260,"icoX":6,"txtN":"Fahrradmitnahme begrenzt möglich"},{"type":"A","code":"EH","prio":560,"icoX":7,"txtN":"Fahrzeuggebundene Einstiegshilfe vorhanden"}],"type":"JNY"},{"arrival":{"platform":"2a","scheduledTime":"2023-10-18T13:47:00.000Z","time":"2023-10-18T13:47:00.000Z","reihung":false},"departure":{"platform":"6","scheduledTime":"2023-10-18T13:04:00.000Z","time":"2023-10-18T13:04:00.000Z","reihung":false},"duration":2580000,"train":{"name":"RE 4","line":"4","admin":"800640","number":"4476","type":"RE","operator":{"name":"DB Regio AG Mitte SÜWEX","icoX":9}},"changeDuration":16,"segmentStart":{"name":"Ludwigshafen(Rh)Hbf","evaNumber":"8000236"},"segmentDestination":{"name":"Mainz Hbf","evaNumber":"8000240"},"stops":[{"station":{"evaNumber":"8000236","name":"Ludwigshafen(Rh)Hbf","coordinates":{"lng":8.433769,"lat":49.477257},"ril100":"RL"},"departure":{"platform":"6","scheduledTime":"2023-10-18T13:04:00.000Z","time":"2023-10-18T13:04:00.000Z","reihung":false}},{"station":{"evaNumber":"8000332","name":"Frankenthal Hbf","coordinates":{"lng":8.349657,"lat":49.535633},"ril100":"RFT"},"arrival":{"platform":"1","scheduledTime":"2023-10-18T13:11:00.000Z","time":"2023-10-18T13:11:00.000Z","reihung":false},"departure":{"platform":"1","scheduledTime":"2023-10-18T13:12:00.000Z","time":"2023-10-18T13:12:00.000Z","reihung":false}},{"station":{"evaNumber":"8000257","name":"Worms Hbf","coordinates":{"lng":8.356633,"lat":49.634973},"ril100":"FWOR"},"arrival":{"platform":"1","scheduledTime":"2023-10-18T13:19:00.000Z","time":"2023-10-18T13:19:00.000Z","reihung":false},"departure":{"platform":"1","scheduledTime":"2023-10-18T13:20:00.000Z","time":"2023-10-18T13:20:00.000Z","reihung":false}},{"station":{"evaNumber":"8000240","name":"Mainz Hbf","coordinates":{"lng":8.258453,"lat":50.001239},"ril100":"FMZ"},"arrival":{"platform":"2a","scheduledTime":"2023-10-18T13:47:00.000Z","time":"2023-10-18T13:47:00.000Z","reihung":false}}],"finalDestination":"Frankfurt(Main)Hbf","jid":"1|255930|0|80|18102023","messages":[{"type":"A","code":"FB","prio":260,"icoX":6,"txtN":"Fahrradmitnahme begrenzt möglich"},{"type":"A","code":"RC","prio":320,"icoX":7,"txtN":"Reservierung an DB-Automaten/Reisezentren/vielen DB-Agenturen möglich"},{"type":"A","code":"RO","prio":560,"icoX":10,"txtN":"Rollstuhlstellplatz"},{"type":"A","code":"EH","prio":560,"icoX":7,"txtN":"Fahrzeuggebundene Einstiegshilfe vorhanden"},{"type":"A","code":"LS","prio":605,"icoX":7,"txtN":"Laptop-Steckdosen"},{"type":"A","code":"KL","prio":610,"icoX":7,"txtN":"Klimaanlage"}],"type":"JNY"},{"arrival":{"platform":"3","scheduledTime":"2023-10-18T15:27:00.000Z","time":"2023-10-18T15:27:00.000Z","reihung":false},"departure":{"platform":"2a","scheduledTime":"2023-10-18T14:03:00.000Z","time":"2023-10-18T14:03:00.000Z","reihung":false},"duration":5040000,"train":{"name":"RB 26","line":"26","admin":"TR","number":"25432","type":"RB","operator":{"name":"MittelrheinBahn (Trans Regio)","icoX":12}},"segmentStart":{"name":"Mainz Hbf","evaNumber":"8000240"},"segmentDestination":{"name":"Koblenz Hbf","evaNumber":"8000206"},"stops":[{"station":{"evaNumber":"8000240","name":"Mainz Hbf","coordinates":{"lng":8.258453,"lat":50.001239},"ril100":"FMZ"},"departure":{"platform":"2a","scheduledTime":"2023-10-18T14:03:00.000Z","time":"2023-10-18T14:03:00.000Z","reihung":false}},{"station":{"evaNumber":"8003821","name":"Mainz-Mombach","coordinates":{"lng":8.229364,"lat":50.02284},"ril100":"FMM"},"arrival":{"platform":"2","scheduledTime":"2023-10-18T14:06:00.000Z","time":"2023-10-18T14:06:00.000Z","reihung":false},"departure":{"platform":"2","scheduledTime":"2023-10-18T14:07:00.000Z","time":"2023-10-18T14:07:00.000Z","reihung":false}},{"station":{"evaNumber":"8001237","name":"Budenheim","coordinates":{"lng":8.173783,"lat":50.026786},"ril100":"FBUD"},"arrival":{"platform":"1","scheduledTime":"2023-10-18T14:10:00.000Z","time":"2023-10-18T14:10:00.000Z","reihung":false},"departure":{"platform":"1","scheduledTime":"2023-10-18T14:10:00.000Z","time":"2023-10-18T14:10:00.000Z","reihung":false}},{"station":{"evaNumber":"8005950","name":"Uhlerborn","coordinates":{"lng":8.142528,"lat":50.010686},"ril100":"FUR"},"arrival":{"platform":"2","scheduledTime":"2023-10-18T14:13:00.000Z","time":"2023-10-18T14:13:00.000Z","reihung":false},"departure":{"platform":"2","scheduledTime":"2023-10-18T14:13:00.000Z","time":"2023-10-18T14:13:00.000Z","reihung":false}},{"station":{"evaNumber":"8002692","name":"Heidesheim(Rheinhess)","coordinates":{"lng":8.111326,"lat":49.997005},"ril100":"FHEI"},"arrival":{"platform":"2","scheduledTime":"2023-10-18T14:16:00.000Z","time":"2023-10-18T14:16:00.000Z","reihung":false},"departure":{"platform":"2","scheduledTime":"2023-10-18T14:16:00.000Z","time":"2023-10-18T14:16:00.000Z","reihung":false}},{"station":{"evaNumber":"8003075","name":"Ingelheim","coordinates":{"lng":8.053265,"lat":49.976051},"ril100":"FIL"},"arrival":{"platform":"2","scheduledTime":"2023-10-18T14:21:00.000Z","time":"2023-10-18T14:21:00.000Z","reihung":false},"departure":{"platform":"2","scheduledTime":"2023-10-18T14:21:00.000Z","time":"2023-10-18T14:21:00.000Z","reihung":false}},{"station":{"evaNumber":"8000375","name":"Gau Algesheim","coordinates":{"lng":8.016086,"lat":49.961407}},"arrival":{"platform":"4","scheduledTime":"2023-10-18T14:24:00.000Z","time":"2023-10-18T14:24:00.000Z","reihung":false},"departure":{"platform":"4","scheduledTime":"2023-10-18T14:24:00.000Z","time":"2023-10-18T14:24:00.000Z","reihung":false}},{"station":{"evaNumber":"8000975","name":"Bingen-Gaulsheim","coordinates":{"lng":7.950995,"lat":49.967071},"ril100":"FBGG"},"arrival":{"platform":"1","scheduledTime":"2023-10-18T14:28:00.000Z","time":"2023-10-18T14:28:00.000Z","reihung":false},"departure":{"platform":"1","scheduledTime":"2023-10-18T14:28:00.000Z","time":"2023-10-18T14:28:00.000Z","reihung":false}},{"station":{"evaNumber":"8000976","name":"Bingen(Rhein) Stadt","coordinates":{"lng":7.903028,"lat":49.969776},"ril100":"FBGN"},"arrival":{"platform":"2","scheduledTime":"2023-10-18T14:31:00.000Z","time":"2023-10-18T14:31:00.000Z","reihung":false},"departure":{"platform":"2","scheduledTime":"2023-10-18T14:31:00.000Z","time":"2023-10-18T14:31:00.000Z","reihung":false}},{"station":{"evaNumber":"8000039","name":"Bingen(Rhein) Hbf","coordinates":{"lng":7.884043,"lat":49.968599},"ril100":"FBGK"},"arrival":{"platform":"103","scheduledTime":"2023-10-18T14:34:00.000Z","time":"2023-10-18T14:34:00.000Z","reihung":false},"departure":{"platform":"103","scheduledTime":"2023-10-18T14:39:00.000Z","time":"2023-10-18T14:39:00.000Z","reihung":false}},{"station":{"evaNumber":"8005896","name":"Trechtingshausen","coordinates":{"lng":7.852383,"lat":50.009032}},"arrival":{"platform":"2","scheduledTime":"2023-10-18T14:43:00.000Z","time":"2023-10-18T14:43:00.000Z","reihung":false},"departure":{"platform":"2","scheduledTime":"2023-10-18T14:43:00.000Z","time":"2023-10-18T14:43:00.000Z","reihung":false}},{"station":{"evaNumber":"8004379","name":"Niederheimbach","coordinates":{"lng":7.805576,"lat":50.036027},"ril100":"FNDH"},"arrival":{"platform":"2","scheduledTime":"2023-10-18T14:47:00.000Z","time":"2023-10-18T14:47:00.000Z","reihung":false},"departure":{"platform":"2","scheduledTime":"2023-10-18T14:47:00.000Z","time":"2023-10-18T14:47:00.000Z","reihung":false}},{"station":{"evaNumber":"8000683","name":"Bacharach","coordinates":{"lng":7.769503,"lat":50.056342},"ril100":"FBCH"},"arrival":{"platform":"2","scheduledTime":"2023-10-18T14:50:00.000Z","time":"2023-10-18T14:50:00.000Z","reihung":false},"departure":{"platform":"2","scheduledTime":"2023-10-18T14:50:00.000Z","time":"2023-10-18T14:50:00.000Z","reihung":false}},{"station":{"evaNumber":"8004601","name":"Oberwesel","coordinates":{"lng":7.731676,"lat":50.104336},"ril100":"FOBW"},"arrival":{"platform":"2","scheduledTime":"2023-10-18T14:54:00.000Z","time":"2023-10-18T14:54:00.000Z","reihung":false},"departure":{"platform":"2","scheduledTime":"2023-10-18T14:54:00.000Z","time":"2023-10-18T14:54:00.000Z","reihung":false}},{"station":{"evaNumber":"8005645","name":"St Goar","coordinates":{"lng":7.714686,"lat":50.150046},"ril100":"FSGO"},"arrival":{"platform":"1","scheduledTime":"2023-10-18T15:00:00.000Z","time":"2023-10-18T15:00:00.000Z","reihung":false},"departure":{"platform":"1","scheduledTime":"2023-10-18T15:00:00.000Z","time":"2023-10-18T15:00:00.000Z","reihung":false}},{"station":{"evaNumber":"8002861","name":"Boppard-Hirzenach","coordinates":{"lng":7.647771,"lat":50.175503},"ril100":"KHIR"},"arrival":{"platform":"1","scheduledTime":"2023-10-18T15:04:00.000Z","time":"2023-10-18T15:04:00.000Z","reihung":false},"departure":{"platform":"1","scheduledTime":"2023-10-18T15:05:00.000Z","time":"2023-10-18T15:05:00.000Z","reihung":false}},{"station":{"evaNumber":"8000742","name":"Boppard-Bad Salzig","coordinates":{"lng":7.635599,"lat":50.205231},"ril100":"KSAL"},"arrival":{"platform":"2","scheduledTime":"2023-10-18T15:08:00.000Z","time":"2023-10-18T15:08:00.000Z","reihung":false},"departure":{"platform":"2","scheduledTime":"2023-10-18T15:08:00.000Z","time":"2023-10-18T15:08:00.000Z","reihung":false}},{"station":{"evaNumber":"8000045","name":"Boppard Hbf","coordinates":{"lng":7.586051,"lat":50.231398},"ril100":"KBOP"},"arrival":{"platform":"1","scheduledTime":"2023-10-18T15:12:00.000Z","time":"2023-10-18T15:12:00.000Z","reihung":false},"departure":{"platform":"1","scheduledTime":"2023-10-18T15:12:00.000Z","time":"2023-10-18T15:12:00.000Z","reihung":false}},{"station":{"evaNumber":"8005622","name":"Spay","coordinates":{"lng":7.645523,"lat":50.255534},"ril100":"KSPA"},"arrival":{"platform":"1","scheduledTime":"2023-10-18T15:17:00.000Z","time":"2023-10-18T15:17:00.000Z","reihung":false},"departure":{"platform":"1","scheduledTime":"2023-10-18T15:17:00.000Z","time":"2023-10-18T15:17:00.000Z","reihung":false}},{"station":{"evaNumber":"8005070","name":"Rhens","coordinates":{"lng":7.62047,"lat":50.281486},"ril100":"KRHE"},"arrival":{"platform":"1","scheduledTime":"2023-10-18T15:20:00.000Z","time":"2023-10-18T15:20:00.000Z","reihung":false},"departure":{"platform":"1","scheduledTime":"2023-10-18T15:20:00.000Z","time":"2023-10-18T15:20:00.000Z","reihung":false}},{"station":{"evaNumber":"8000206","name":"Koblenz Hbf","coordinates":{"lng":7.588343,"lat":50.350775},"ril100":"KKO"},"arrival":{"platform":"3","scheduledTime":"2023-10-18T15:27:00.000Z","time":"2023-10-18T15:27:00.000Z","reihung":false}}],"finalDestination":"Köln Messe/Deutz","jid":"1|290776|0|80|18102023","messages":[{"type":"A","code":"FB","prio":260,"icoX":6,"txtN":"Fahrradmitnahme begrenzt möglich"}],"type":"JNY"}],"segmentTypes":["S","RE","RB"]},{"checksum":"5d1c1b70_3","cid":"C-1","date":"2023-10-17T22:00:00.000Z","duration":11520000,"changes":4,"isRideable":true,"arrival":{"platform":"1","scheduledTime":"2023-10-18T15:54:00.000Z","time":"2023-10-18T15:54:00.000Z","reihung":false},"departure":{"platform":"5","scheduledTime":"2023-10-18T12:42:00.000Z","time":"2023-10-18T12:42:00.000Z","reihung":false},"segments":[{"arrival":{"platform":"1","scheduledTime":"2023-10-18T13:01:00.000Z","time":"2023-10-18T13:01:00.000Z","reihung":false},"departure":{"platform":"5","scheduledTime":"2023-10-18T12:42:00.000Z","time":"2023-10-18T12:42:00.000Z","reihung":false},"duration":1140000,"train":{"name":"S 3","line":"3","admin":"801539","number":"38336","type":"S","operator":{"name":"DB Regio AG Mitte","icoX":2}},"changeDuration":14,"segmentStart":{"name":"Heidelberg Hbf","evaNumber":"8000156"},"segmentDestination":{"name":"Mannheim Hbf","evaNumber":"8000244"},"stops":[{"station":{"evaNumber":"8000156","name":"Heidelberg Hbf","coordinates":{"lng":8.67548,"lat":49.403582},"ril100":"RH"},"departure":{"platform":"5","scheduledTime":"2023-10-18T12:42:00.000Z","time":"2023-10-18T12:42:00.000Z","reihung":false}},{"station":{"evaNumber":"8002687","name":"Heidelberg-Pfaffengrund/Wieblingen","coordinates":{"lng":8.641474,"lat":49.411969},"ril100":"RHBP"},"arrival":{"platform":"1","scheduledTime":"2023-10-18T12:45:00.000Z","time":"2023-10-18T12:45:00.000Z","reihung":false},"departure":{"platform":"1","scheduledTime":"2023-10-18T12:45:00.000Z","time":"2023-10-18T12:45:00.000Z","reihung":false}},{"station":{"evaNumber":"8003842","name":"Mannheim-Friedrichsfeld Süd","coordinates":{"lng":8.572239,"lat":49.438217},"ril100":"RMFS"},"arrival":{"platform":"1","scheduledTime":"2023-10-18T12:49:00.000Z","time":"2023-10-18T12:49:00.000Z","reihung":false},"departure":{"platform":"1","scheduledTime":"2023-10-18T12:49:00.000Z","time":"2023-10-18T12:49:00.000Z","reihung":false}},{"station":{"evaNumber":"8003847","name":"Mannheim-Seckenheim","coordinates":{"lng":8.538098,"lat":49.451413},"ril100":"RMSE"},"arrival":{"platform":"1","scheduledTime":"2023-10-18T12:52:00.000Z","time":"2023-10-18T12:52:00.000Z","reihung":false},"departure":{"platform":"1","scheduledTime":"2023-10-18T12:53:00.000Z","time":"2023-10-18T12:53:00.000Z","reihung":false}},{"station":{"evaNumber":"8003841","name":"Mannheim ARENA/Maimarkt","coordinates":{"lng":8.515922,"lat":49.45998},"ril100":"RMSM"},"arrival":{"platform":"1","scheduledTime":"2023-10-18T12:55:00.000Z","time":"2023-10-18T12:55:00.000Z","reihung":false},"departure":{"platform":"1","scheduledTime":"2023-10-18T12:55:00.000Z","time":"2023-10-18T12:55:00.000Z","reihung":false}},{"station":{"evaNumber":"8000244","name":"Mannheim Hbf","coordinates":{"lng":8.469268,"lat":49.479181},"ril100":"RM"},"arrival":{"platform":"1","scheduledTime":"2023-10-18T13:01:00.000Z","time":"2023-10-18T13:01:00.000Z","reihung":false}}],"finalDestination":"Schifferstadt","jid":"1|254211|0|80|18102023","messages":[{"type":"A","code":"FB","prio":260,"icoX":6,"txtN":"Fahrradmitnahme begrenzt möglich"},{"type":"A","code":"EH","prio":560,"icoX":7,"txtN":"Fahrzeuggebundene Einstiegshilfe vorhanden"}],"type":"JNY"},{"arrival":{"platform":"5","scheduledTime":"2023-10-18T13:37:00.000Z","time":"2023-10-18T13:37:00.000Z","reihung":false},"departure":{"platform":"1","scheduledTime":"2023-10-18T13:15:00.000Z","time":"2023-10-18T13:15:00.000Z","reihung":false},"duration":1320000,"train":{"name":"S 6","line":"6","admin":"801518","number":"38658","type":"S","operator":{"name":"DB Regio AG Mitte","icoX":2}},"changeDuration":13,"segmentStart":{"name":"Mannheim Hbf","evaNumber":"8000244"},"segmentDestination":{"name":"Worms Hbf","evaNumber":"8000257"},"stops":[{"station":{"evaNumber":"8000244","name":"Mannheim Hbf","coordinates":{"lng":8.469268,"lat":49.479181},"ril100":"RM"},"departure":{"platform":"1","scheduledTime":"2023-10-18T13:15:00.000Z","time":"2023-10-18T13:15:00.000Z","reihung":false}},{"station":{"evaNumber":"8003759","name":"Ludwigshafen(Rhein) Mitte","coordinates":{"lng":8.452215,"lat":49.478938},"ril100":"RLSM"},"arrival":{"platform":"1","scheduledTime":"2023-10-18T13:17:00.000Z","time":"2023-10-18T13:17:00.000Z","reihung":false},"departure":{"platform":"1","scheduledTime":"2023-10-18T13:17:00.000Z","time":"2023-10-18T13:17:00.000Z","reihung":false}},{"station":{"evaNumber":"8000236","name":"Ludwigshafen(Rh)Hbf","coordinates":{"lng":8.433769,"lat":49.477257},"ril100":"RL"},"arrival":{"platform":"1","scheduledTime":"2023-10-18T13:19:00.000Z","time":"2023-10-18T13:19:00.000Z","reihung":false},"departure":{"platform":"1","scheduledTime":"2023-10-18T13:20:00.000Z","time":"2023-10-18T13:20:00.000Z","reihung":false}},{"station":{"evaNumber":"8003766","name":"Ludwigshafen-Oggersheim","coordinates":{"lng":8.381587,"lat":49.49324},"ril100":"RLO"},"arrival":{"platform":"2","scheduledTime":"2023-10-18T13:23:00.000Z","time":"2023-10-18T13:23:00.000Z","reihung":false},"departure":{"platform":"2","scheduledTime":"2023-10-18T13:24:00.000Z","time":"2023-10-18T13:24:00.000Z","reihung":false}},{"station":{"evaNumber":"8002025","name":"Frankenthal Süd","coordinates":{"lng":8.349559,"lat":49.522698},"ril100":"RFTS"},"arrival":{"platform":"1","scheduledTime":"2023-10-18T13:27:00.000Z","time":"2023-10-18T13:27:00.000Z","reihung":false},"departure":{"platform":"1","scheduledTime":"2023-10-18T13:27:00.000Z","time":"2023-10-18T13:27:00.000Z","reihung":false}},{"station":{"evaNumber":"8000332","name":"Frankenthal Hbf","coordinates":{"lng":8.349657,"lat":49.535633},"ril100":"RFT"},"arrival":{"platform":"1","scheduledTime":"2023-10-18T13:29:00.000Z","time":"2023-10-18T13:29:00.000Z","reihung":false},"departure":{"platform":"1","scheduledTime":"2023-10-18T13:29:00.000Z","time":"2023-10-18T13:29:00.000Z","reihung":false}},{"station":{"evaNumber":"8001032","name":"Bobenheim","coordinates":{"lng":8.35035,"lat":49.588139},"ril100":"RBOB"},"arrival":{"platform":"1","scheduledTime":"2023-10-18T13:33:00.000Z","time":"2023-10-18T13:33:00.000Z","reihung":false},"departure":{"platform":"1","scheduledTime":"2023-10-18T13:33:00.000Z","time":"2023-10-18T13:33:00.000Z","reihung":false}},{"station":{"evaNumber":"8000257","name":"Worms Hbf","coordinates":{"lng":8.356633,"lat":49.634973},"ril100":"FWOR"},"arrival":{"platform":"5","scheduledTime":"2023-10-18T13:37:00.000Z","time":"2023-10-18T13:37:00.000Z","reihung":false}}],"finalDestination":"Mainz Hbf","jid":"1|254797|0|80|18102023","messages":[{"type":"A","code":"FB","prio":260,"icoX":6,"txtN":"Fahrradmitnahme begrenzt möglich"},{"type":"A","code":"EH","prio":560,"icoX":7,"txtN":"Fahrzeuggebundene Einstiegshilfe vorhanden"},{"type":"A","code":"LS","prio":605,"icoX":7,"txtN":"Laptop-Steckdosen"},{"type":"A","code":"KL","prio":610,"icoX":7,"txtN":"Klimaanlage"}],"type":"JNY"},{"arrival":{"platform":"44","scheduledTime":"2023-10-18T14:56:00.000Z","time":"2023-10-18T14:56:00.000Z","reihung":false},"departure":{"platform":"4","scheduledTime":"2023-10-18T13:50:00.000Z","time":"2023-10-18T13:50:00.000Z","reihung":false},"duration":3960000,"train":{"name":"RB 35","line":"35","admin":"8015A6","number":"13850","type":"RB","operator":{"name":"DB Regio AG Mitte","icoX":2}},"changeDuration":4,"segmentStart":{"name":"Worms Hbf","evaNumber":"8000257"},"segmentDestination":{"name":"Bingen(Rhein) Stadt","evaNumber":"8000976"},"stops":[{"station":{"evaNumber":"8000257","name":"Worms Hbf","coordinates":{"lng":8.356633,"lat":49.634973},"ril100":"FWOR"},"departure":{"platform":"4","scheduledTime":"2023-10-18T13:50:00.000Z","time":"2023-10-18T13:50:00.000Z","reihung":false}},{"station":{"evaNumber":"8004788","name":"Worms-Pfeddersheim","coordinates":{"lng":8.27964,"lat":49.634649},"ril100":"FPD"},"arrival":{"platform":"1","scheduledTime":"2023-10-18T13:55:00.000Z","time":"2023-10-18T13:55:00.000Z","reihung":false},"departure":{"platform":"1","scheduledTime":"2023-10-18T13:55:00.000Z","time":"2023-10-18T13:55:00.000Z","reihung":false}},{"station":{"evaNumber":"8000663","name":"Monsheim","coordinates":{"lng":8.208284,"lat":49.633418},"ril100":"FMSH"},"arrival":{"platform":"1","scheduledTime":"2023-10-18T13:59:00.000Z","time":"2023-10-18T13:59:00.000Z","reihung":false},"departure":{"platform":"1","scheduledTime":"2023-10-18T14:00:00.000Z","time":"2023-10-18T14:00:00.000Z","reihung":false}},{"station":{"evaNumber":"8004345","name":"Nieder Flörsheim-Dalsheim","coordinates":{"lng":8.204275,"lat":49.656907},"ril100":"FNFD"},"arrival":{"platform":"1","scheduledTime":"2023-10-18T14:03:00.000Z","time":"2023-10-18T14:03:00.000Z","reihung":false},"departure":{"platform":"1","scheduledTime":"2023-10-18T14:04:00.000Z","time":"2023-10-18T14:04:00.000Z","reihung":false}},{"station":{"evaNumber":"8002473","name":"Gundersheim(Rheinhess)","coordinates":{"lng":8.197092,"lat":49.690023},"ril100":"FGUH"},"arrival":{"platform":"1","scheduledTime":"2023-10-18T14:09:00.000Z","time":"2023-10-18T14:09:00.000Z","reihung":false},"departure":{"platform":"1","scheduledTime":"2023-10-18T14:09:00.000Z","time":"2023-10-18T14:09:00.000Z","reihung":false}},{"station":{"evaNumber":"8001813","name":"Eppelsheim(Rheinhess)","coordinates":{"lng":8.162871,"lat":49.700082},"ril100":"FEPP"},"arrival":{"platform":"2","scheduledTime":"2023-10-18T14:12:00.000Z","time":"2023-10-18T14:12:00.000Z","reihung":false},"departure":{"platform":"2","scheduledTime":"2023-10-18T14:13:00.000Z","time":"2023-10-18T14:13:00.000Z","reihung":false}},{"station":{"evaNumber":"8000558","name":"Alzey Süd","coordinates":{"lng":8.11885,"lat":49.737998}},"arrival":{"platform":"1","scheduledTime":"2023-10-18T14:17:00.000Z","time":"2023-10-18T14:17:00.000Z","reihung":false},"departure":{"platform":"1","scheduledTime":"2023-10-18T14:17:00.000Z","time":"2023-10-18T14:17:00.000Z","reihung":false}},{"station":{"evaNumber":"8000007","name":"Alzey","coordinates":{"lng":8.109744,"lat":49.750233}},"arrival":{"platform":"1","scheduledTime":"2023-10-18T14:20:00.000Z","time":"2023-10-18T14:20:00.000Z","reihung":false},"departure":{"platform":"1","scheduledTime":"2023-10-18T14:21:00.000Z","time":"2023-10-18T14:21:00.000Z","reihung":false}},{"station":{"evaNumber":"8000468","name":"Albig","coordinates":{"lng":8.116603,"lat":49.771366}},"arrival":{"platform":"1","scheduledTime":"2023-10-18T14:24:00.000Z","time":"2023-10-18T14:24:00.000Z","reihung":false},"departure":{"platform":"1","scheduledTime":"2023-10-18T14:24:00.000Z","time":"2023-10-18T14:24:00.000Z","reihung":false}},{"station":{"evaNumber":"8000602","name":"Armsheim","coordinates":{"lng":8.074138,"lat":49.808375},"ril100":"FARM"},"arrival":{"platform":"2","scheduledTime":"2023-10-18T14:29:00.000Z","time":"2023-10-18T14:29:00.000Z","reihung":false},"departure":{"platform":"2","scheduledTime":"2023-10-18T14:30:00.000Z","time":"2023-10-18T14:30:00.000Z","reihung":false}},{"station":{"evaNumber":"8006183","name":"Wallertheim","coordinates":{"lng":8.04949,"lat":49.832637}},"arrival":{"platform":"1","scheduledTime":"2023-10-18T14:33:00.000Z","time":"2023-10-18T14:33:00.000Z","reihung":false},"departure":{"platform":"1","scheduledTime":"2023-10-18T14:34:00.000Z","time":"2023-10-18T14:34:00.000Z","reihung":false}},{"station":{"evaNumber":"8002191","name":"Gau Bickelheim","coordinates":{"lng":8.019565,"lat":49.840395}},"arrival":{"platform":"1","scheduledTime":"2023-10-18T14:36:00.000Z","time":"2023-10-18T14:36:00.000Z","reihung":false},"departure":{"platform":"1","scheduledTime":"2023-10-18T14:37:00.000Z","time":"2023-10-18T14:37:00.000Z","reihung":false}},{"station":{"evaNumber":"8005637","name":"Sprendlingen(Rheinhess)","coordinates":{"lng":7.981909,"lat":49.858867},"ril100":"FSPR"},"arrival":{"platform":"1","scheduledTime":"2023-10-18T14:40:00.000Z","time":"2023-10-18T14:40:00.000Z","reihung":false},"departure":{"platform":"1","scheduledTime":"2023-10-18T14:41:00.000Z","time":"2023-10-18T14:41:00.000Z","reihung":false}},{"station":{"evaNumber":"8006312","name":"Welgesheim-Zotzenheim","coordinates":{"lng":7.956667,"lat":49.878599}},"arrival":{"platform":"1","scheduledTime":"2023-10-18T14:44:00.000Z","time":"2023-10-18T14:44:00.000Z","reihung":false},"departure":{"platform":"1","scheduledTime":"2023-10-18T14:44:00.000Z","time":"2023-10-18T14:44:00.000Z","reihung":false}},{"station":{"evaNumber":"8000121","name":"Gensingen-Horrweiler","coordinates":{"lng":7.938347,"lat":49.898348},"ril100":"FGHO"},"arrival":{"platform":"4","scheduledTime":"2023-10-18T14:47:00.000Z","time":"2023-10-18T14:47:00.000Z","reihung":false},"departure":{"platform":"4","scheduledTime":"2023-10-18T14:47:00.000Z","time":"2023-10-18T14:47:00.000Z","reihung":false}},{"station":{"evaNumber":"8000976","name":"Bingen(Rhein) Stadt","coordinates":{"lng":7.903028,"lat":49.969776},"ril100":"FBGN"},"arrival":{"platform":"44","scheduledTime":"2023-10-18T14:56:00.000Z","time":"2023-10-18T14:56:00.000Z","reihung":false}}],"finalDestination":"Bingen(Rhein) Stadt","jid":"1|250949|2|80|18102023","messages":[{"type":"A","code":"FB","prio":260,"icoX":6,"txtN":"Fahrradmitnahme begrenzt möglich"},{"type":"A","code":"EH","prio":560,"icoX":7,"txtN":"Fahrzeuggebundene Einstiegshilfe vorhanden"},{"type":"A","code":"LS","prio":605,"icoX":7,"txtN":"Laptop-Steckdosen"},{"type":"A","code":"KL","prio":610,"icoX":7,"txtN":"Klimaanlage"}],"type":"JNY"},{"arrival":{"platform":"103","scheduledTime":"2023-10-18T15:03:00.000Z","time":"2023-10-18T15:03:00.000Z","reihung":false},"departure":{"platform":"2","scheduledTime":"2023-10-18T15:00:00.000Z","time":"2023-10-18T15:00:00.000Z","reihung":false},"duration":180000,"train":{"name":"RB 26","line":"26","admin":"TR","number":"25382","type":"RB","operator":{"name":"MittelrheinBahn (Trans Regio)","icoX":12}},"changeDuration":10,"segmentStart":{"name":"Bingen(Rhein) Stadt","evaNumber":"8000976"},"segmentDestination":{"name":"Bingen(Rhein) Hbf","evaNumber":"8000039"},"stops":[{"station":{"evaNumber":"8000976","name":"Bingen(Rhein) Stadt","coordinates":{"lng":7.903028,"lat":49.969776},"ril100":"FBGN"},"departure":{"platform":"2","scheduledTime":"2023-10-18T15:00:00.000Z","time":"2023-10-18T15:00:00.000Z","reihung":false}},{"station":{"evaNumber":"8000039","name":"Bingen(Rhein) Hbf","coordinates":{"lng":7.884043,"lat":49.968599},"ril100":"FBGK"},"arrival":{"platform":"103","scheduledTime":"2023-10-18T15:03:00.000Z","time":"2023-10-18T15:03:00.000Z","reihung":false}}],"finalDestination":"Bingen(Rhein) Hbf","jid":"1|290262|2|80|18102023","messages":[{"type":"A","code":"FB","prio":260,"icoX":6,"txtN":"Fahrradmitnahme begrenzt möglich"}],"type":"JNY"},{"arrival":{"platform":"1","scheduledTime":"2023-10-18T15:54:00.000Z","time":"2023-10-18T15:54:00.000Z","reihung":false},"departure":{"platform":"202","scheduledTime":"2023-10-18T15:13:00.000Z","time":"2023-10-18T15:13:00.000Z","reihung":false},"duration":2460000,"train":{"name":"RE 17","line":"17","admin":"V6RE","number":"29662","type":"RE","operator":{"name":"vlexx","icoX":15}},"segmentStart":{"name":"Bingen(Rhein) Hbf","evaNumber":"8000039"},"segmentDestination":{"name":"Koblenz Hbf","evaNumber":"8000206"},"stops":[{"station":{"evaNumber":"8000039","name":"Bingen(Rhein) Hbf","coordinates":{"lng":7.884043,"lat":49.968599},"ril100":"FBGK"},"departure":{"platform":"202","scheduledTime":"2023-10-18T15:13:00.000Z","time":"2023-10-18T15:13:00.000Z","reihung":false}},{"station":{"evaNumber":"8004601","name":"Oberwesel","coordinates":{"lng":7.731676,"lat":50.104336},"ril100":"FOBW"},"arrival":{"platform":"2","scheduledTime":"2023-10-18T15:25:00.000Z","time":"2023-10-18T15:25:00.000Z","reihung":false},"departure":{"platform":"2","scheduledTime":"2023-10-18T15:26:00.000Z","time":"2023-10-18T15:26:00.000Z","reihung":false}},{"station":{"evaNumber":"8000045","name":"Boppard Hbf","coordinates":{"lng":7.586051,"lat":50.231398},"ril100":"KBOP"},"arrival":{"platform":"1","scheduledTime":"2023-10-18T15:39:00.000Z","time":"2023-10-18T15:39:00.000Z","reihung":false},"departure":{"platform":"1","scheduledTime":"2023-10-18T15:40:00.000Z","time":"2023-10-18T15:40:00.000Z","reihung":false}},{"station":{"evaNumber":"8000206","name":"Koblenz Hbf","coordinates":{"lng":7.588343,"lat":50.350775},"ril100":"KKO"},"arrival":{"platform":"1","scheduledTime":"2023-10-18T15:54:00.000Z","time":"2023-10-18T15:54:00.000Z","reihung":false}}],"finalDestination":"Koblenz Hbf","jid":"1|1263133|0|80|18102023","messages":[{"type":"A","code":"FB","prio":260,"icoX":6,"txtN":"Fahrradmitnahme begrenzt möglich"},{"type":"A","code":"RG","prio":560,"icoX":7,"txtN":"Behindertengerechtes Fahrzeug"},{"type":"A","code":"LS","prio":605,"icoX":7,"txtN":"Laptop-Steckdosen"},{"type":"A","code":"KL","prio":610,"icoX":7,"txtN":"Klimaanlage"}],"type":"JNY"}],"segmentTypes":["S","S","RB","RB","RE"]},{"checksum":"2b298219_3","cid":"C-2","date":"2023-10-17T22:00:00.000Z","duration":11280000,"changes":3,"isRideable":true,"arrival":{"platform":"1","scheduledTime":"2023-10-18T15:54:00.000Z","time":"2023-10-18T15:54:00.000Z","reihung":false},"departure":{"platform":"3","scheduledTime":"2023-10-18T12:46:00.000Z","time":"2023-10-18T12:46:00.000Z","reihung":false},"segments":[{"arrival":{"platform":"5","scheduledTime":"2023-10-18T13:22:00.000Z","time":"2023-10-18T13:22:00.000Z","reihung":false},"departure":{"platform":"3","scheduledTime":"2023-10-18T12:46:00.000Z","time":"2023-10-18T12:46:00.000Z","reihung":false},"duration":2160000,"train":{"name":"EC 2518","line":"62","admin":"80","number":"2518","type":"EC","operator":{"name":"DB Fernverkehr AG","icoX":16}},"changeDuration":16,"segmentStart":{"name":"Heidelberg Hbf","evaNumber":"8000156"},"segmentDestination":{"name":"Darmstadt Hbf","evaNumber":"8000068"},"stops":[{"station":{"evaNumber":"8000156","name":"Heidelberg Hbf","coordinates":{"lng":8.67548,"lat":49.403582},"ril100":"RH"},"departure":{"platform":"3","scheduledTime":"2023-10-18T12:46:00.000Z","time":"2023-10-18T12:46:00.000Z","reihung":false},"auslastung":{"first":1,"second":1}},{"station":{"evaNumber":"8000377","name":"Weinheim(Bergstr)Hbf","coordinates":{"lng":8.66561,"lat":49.553738},"ril100":"RWE"},"arrival":{"platform":"2","scheduledTime":"2023-10-18T12:58:00.000Z","time":"2023-10-18T12:58:00.000Z","reihung":false},"departure":{"platform":"2","scheduledTime":"2023-10-18T13:00:00.000Z","time":"2023-10-18T13:00:00.000Z","reihung":false},"auslastung":{"first":1,"second":1}},{"station":{"evaNumber":"8000031","name":"Bensheim","coordinates":{"lng":8.616646,"lat":49.68142},"ril100":"FBH"},"arrival":{"platform":"1","scheduledTime":"2023-10-18T13:08:00.000Z","time":"2023-10-18T13:08:00.000Z","reihung":false},"departure":{"platform":"1","scheduledTime":"2023-10-18T13:09:00.000Z","time":"2023-10-18T13:09:00.000Z","reihung":false},"auslastung":{"first":1,"second":1}},{"station":{"evaNumber":"8000068","name":"Darmstadt Hbf","coordinates":{"lng":8.629707,"lat":49.872549},"ril100":"FD"},"arrival":{"platform":"5","scheduledTime":"2023-10-18T13:22:00.000Z","time":"2023-10-18T13:22:00.000Z","reihung":false}}],"finalDestination":"Frankfurt(Main)Hbf","jid":"1|203745|0|80|18102023","auslastung":{"first":1,"second":1},"messages":[{"type":"A","code":"EZ","prio":400,"icoX":7,"txtN":"Ersatzzug"}],"type":"JNY"},{"arrival":{"platform":"3a","scheduledTime":"2023-10-18T14:11:00.000Z","time":"2023-10-18T14:11:00.000Z","reihung":false},"departure":{"platform":"9","scheduledTime":"2023-10-18T13:38:00.000Z","time":"2023-10-18T13:38:00.000Z","reihung":false},"duration":1980000,"train":{"name":"HLB RB75","line":"RB75","admin":"K4RB","number":"28722","type":"HLB","operator":{"name":"HLB Hessenbahn GmbH","icoX":18}},"changeDuration":21,"segmentStart":{"name":"Darmstadt Hbf","evaNumber":"8000068"},"segmentDestination":{"name":"Mainz Hbf","evaNumber":"8000240"},"stops":[{"station":{"evaNumber":"8000068","name":"Darmstadt Hbf","coordinates":{"lng":8.629707,"lat":49.872549},"ril100":"FD"},"departure":{"platform":"9","scheduledTime":"2023-10-18T13:38:00.000Z","time":"2023-10-18T13:38:00.000Z","reihung":false}},{"station":{"evaNumber":"8006306","name":"Weiterstadt","coordinates":{"lng":8.579341,"lat":49.909701},"ril100":"FWI"},"arrival":{"platform":"2","scheduledTime":"2023-10-18T13:45:00.000Z","time":"2023-10-18T13:45:00.000Z","reihung":false},"departure":{"platform":"2","scheduledTime":"2023-10-18T13:45:00.000Z","time":"2023-10-18T13:45:00.000Z","reihung":false}},{"station":{"evaNumber":"8003313","name":"Klein Gerau","coordinates":{"lng":8.516749,"lat":49.91985},"ril100":"FKGE"},"arrival":{"platform":"2","scheduledTime":"2023-10-18T13:49:00.000Z","time":"2023-10-18T13:49:00.000Z","reihung":false},"departure":{"platform":"2","scheduledTime":"2023-10-18T13:49:00.000Z","time":"2023-10-18T13:49:00.000Z","reihung":false}},{"station":{"evaNumber":"8000136","name":"Groß Gerau","coordinates":{"lng":8.486024,"lat":49.924803}},"arrival":{"platform":"2","scheduledTime":"2023-10-18T13:52:00.000Z","time":"2023-10-18T13:52:00.000Z","reihung":false},"departure":{"platform":"2","scheduledTime":"2023-10-18T13:52:00.000Z","time":"2023-10-18T13:52:00.000Z","reihung":false}},{"station":{"evaNumber":"8004210","name":"Nauheim(b Gr.Gerau)","coordinates":{"lng":8.449896,"lat":49.942098},"ril100":"FNU"},"arrival":{"platform":"1","scheduledTime":"2023-10-18T13:55:00.000Z","time":"2023-10-18T13:55:00.000Z","reihung":false},"departure":{"platform":"1","scheduledTime":"2023-10-18T13:55:00.000Z","time":"2023-10-18T13:55:00.000Z","reihung":false}},{"station":{"evaNumber":"8000241","name":"Mainz-Bischofsheim","coordinates":{"lng":8.358062,"lat":49.992941},"ril100":"FMB"},"arrival":{"platform":"3","scheduledTime":"2023-10-18T14:00:00.000Z","time":"2023-10-18T14:00:00.000Z","reihung":false},"departure":{"platform":"3","scheduledTime":"2023-10-18T14:01:00.000Z","time":"2023-10-18T14:01:00.000Z","reihung":false}},{"station":{"evaNumber":"8003818","name":"Mainz-Gustavsburg","coordinates":{"lng":8.314222,"lat":49.994056},"ril100":"FMG"},"arrival":{"platform":"1","scheduledTime":"2023-10-18T14:04:00.000Z","time":"2023-10-18T14:04:00.000Z","reihung":false},"departure":{"platform":"1","scheduledTime":"2023-10-18T14:04:00.000Z","time":"2023-10-18T14:04:00.000Z","reihung":false}},{"station":{"evaNumber":"8003816","name":"Mainz Römisches Theater","coordinates":{"lng":8.277393,"lat":49.993517},"ril100":"FMS"},"arrival":{"platform":"2","scheduledTime":"2023-10-18T14:07:00.000Z","time":"2023-10-18T14:07:00.000Z","reihung":false},"departure":{"platform":"2","scheduledTime":"2023-10-18T14:09:00.000Z","time":"2023-10-18T14:09:00.000Z","reihung":false}},{"station":{"evaNumber":"8000240","name":"Mainz Hbf","coordinates":{"lng":8.258453,"lat":50.001239},"ril100":"FMZ"},"arrival":{"platform":"3a","scheduledTime":"2023-10-18T14:11:00.000Z","time":"2023-10-18T14:11:00.000Z","reihung":false}}],"finalDestination":"Wiesbaden Hbf","jid":"1|293320|0|80|18102023","messages":[{"type":"A","code":"FB","prio":260,"icoX":6,"txtN":"Fahrradmitnahme begrenzt möglich"}],"type":"JNY"},{"arrival":{"platform":"103","scheduledTime":"2023-10-18T15:03:00.000Z","time":"2023-10-18T15:03:00.000Z","reihung":false},"departure":{"platform":"11","scheduledTime":"2023-10-18T14:32:00.000Z","time":"2023-10-18T14:32:00.000Z","reihung":false},"duration":1860000,"train":{"name":"RB 26","line":"26","admin":"TR","number":"25382","type":"RB","operator":{"name":"MittelrheinBahn (Trans Regio)","icoX":12}},"changeDuration":10,"segmentStart":{"name":"Mainz Hbf","evaNumber":"8000240"},"segmentDestination":{"name":"Bingen(Rhein) Hbf","evaNumber":"8000039"},"stops":[{"station":{"evaNumber":"8000240","name":"Mainz Hbf","coordinates":{"lng":8.258453,"lat":50.001239},"ril100":"FMZ"},"departure":{"platform":"11","scheduledTime":"2023-10-18T14:32:00.000Z","time":"2023-10-18T14:32:00.000Z","reihung":false}},{"station":{"evaNumber":"8003821","name":"Mainz-Mombach","coordinates":{"lng":8.229364,"lat":50.02284},"ril100":"FMM"},"arrival":{"platform":"2","scheduledTime":"2023-10-18T14:35:00.000Z","time":"2023-10-18T14:35:00.000Z","reihung":false},"departure":{"platform":"2","scheduledTime":"2023-10-18T14:36:00.000Z","time":"2023-10-18T14:36:00.000Z","reihung":false}},{"station":{"evaNumber":"8001237","name":"Budenheim","coordinates":{"lng":8.173783,"lat":50.026786},"ril100":"FBUD"},"arrival":{"platform":"1","scheduledTime":"2023-10-18T14:39:00.000Z","time":"2023-10-18T14:39:00.000Z","reihung":false},"departure":{"platform":"1","scheduledTime":"2023-10-18T14:39:00.000Z","time":"2023-10-18T14:39:00.000Z","reihung":false}},{"station":{"evaNumber":"8005950","name":"Uhlerborn","coordinates":{"lng":8.142528,"lat":50.010686},"ril100":"FUR"},"arrival":{"platform":"2","scheduledTime":"2023-10-18T14:42:00.000Z","time":"2023-10-18T14:42:00.000Z","reihung":false},"departure":{"platform":"2","scheduledTime":"2023-10-18T14:42:00.000Z","time":"2023-10-18T14:42:00.000Z","reihung":false}},{"station":{"evaNumber":"8002692","name":"Heidesheim(Rheinhess)","coordinates":{"lng":8.111326,"lat":49.997005},"ril100":"FHEI"},"arrival":{"platform":"2","scheduledTime":"2023-10-18T14:45:00.000Z","time":"2023-10-18T14:45:00.000Z","reihung":false},"departure":{"platform":"2","scheduledTime":"2023-10-18T14:45:00.000Z","time":"2023-10-18T14:45:00.000Z","reihung":false}},{"station":{"evaNumber":"8003075","name":"Ingelheim","coordinates":{"lng":8.053265,"lat":49.976051},"ril100":"FIL"},"arrival":{"platform":"2","scheduledTime":"2023-10-18T14:50:00.000Z","time":"2023-10-18T14:50:00.000Z","reihung":false},"departure":{"platform":"2","scheduledTime":"2023-10-18T14:50:00.000Z","time":"2023-10-18T14:50:00.000Z","reihung":false}},{"station":{"evaNumber":"8000375","name":"Gau Algesheim","coordinates":{"lng":8.016086,"lat":49.961407}},"arrival":{"platform":"4","scheduledTime":"2023-10-18T14:53:00.000Z","time":"2023-10-18T14:53:00.000Z","reihung":false},"departure":{"platform":"4","scheduledTime":"2023-10-18T14:53:00.000Z","time":"2023-10-18T14:53:00.000Z","reihung":false}},{"station":{"evaNumber":"8000975","name":"Bingen-Gaulsheim","coordinates":{"lng":7.950995,"lat":49.967071},"ril100":"FBGG"},"arrival":{"platform":"1","scheduledTime":"2023-10-18T14:57:00.000Z","time":"2023-10-18T14:57:00.000Z","reihung":false},"departure":{"platform":"1","scheduledTime":"2023-10-18T14:57:00.000Z","time":"2023-10-18T14:57:00.000Z","reihung":false}},{"station":{"evaNumber":"8000976","name":"Bingen(Rhein) Stadt","coordinates":{"lng":7.903028,"lat":49.969776},"ril100":"FBGN"},"arrival":{"platform":"2","scheduledTime":"2023-10-18T15:00:00.000Z","time":"2023-10-18T15:00:00.000Z","reihung":false},"departure":{"platform":"2","scheduledTime":"2023-10-18T15:00:00.000Z","time":"2023-10-18T15:00:00.000Z","reihung":false}},{"station":{"evaNumber":"8000039","name":"Bingen(Rhein) Hbf","coordinates":{"lng":7.884043,"lat":49.968599},"ril100":"FBGK"},"arrival":{"platform":"103","scheduledTime":"2023-10-18T15:03:00.000Z","time":"2023-10-18T15:03:00.000Z","reihung":false}}],"finalDestination":"Bingen(Rhein) Hbf","jid":"1|290262|2|80|18102023","messages":[{"type":"A","code":"FB","prio":260,"icoX":6,"txtN":"Fahrradmitnahme begrenzt möglich"}],"type":"JNY"},{"arrival":{"platform":"1","scheduledTime":"2023-10-18T15:54:00.000Z","time":"2023-10-18T15:54:00.000Z","reihung":false},"departure":{"platform":"202","scheduledTime":"2023-10-18T15:13:00.000Z","time":"2023-10-18T15:13:00.000Z","reihung":false},"duration":2460000,"train":{"name":"RE 17","line":"17","admin":"V6RE","number":"29662","type":"RE","operator":{"name":"vlexx","icoX":15}},"segmentStart":{"name":"Bingen(Rhein) Hbf","evaNumber":"8000039"},"segmentDestination":{"name":"Koblenz Hbf","evaNumber":"8000206"},"stops":[{"station":{"evaNumber":"8000039","name":"Bingen(Rhein) Hbf","coordinates":{"lng":7.884043,"lat":49.968599},"ril100":"FBGK"},"departure":{"platform":"202","scheduledTime":"2023-10-18T15:13:00.000Z","time":"2023-10-18T15:13:00.000Z","reihung":false}},{"station":{"evaNumber":"8004601","name":"Oberwesel","coordinates":{"lng":7.731676,"lat":50.104336},"ril100":"FOBW"},"arrival":{"platform":"2","scheduledTime":"2023-10-18T15:25:00.000Z","time":"2023-10-18T15:25:00.000Z","reihung":false},"departure":{"platform":"2","scheduledTime":"2023-10-18T15:26:00.000Z","time":"2023-10-18T15:26:00.000Z","reihung":false}},{"station":{"evaNumber":"8000045","name":"Boppard Hbf","coordinates":{"lng":7.586051,"lat":50.231398},"ril100":"KBOP"},"arrival":{"platform":"1","scheduledTime":"2023-10-18T15:39:00.000Z","time":"2023-10-18T15:39:00.000Z","reihung":false},"departure":{"platform":"1","scheduledTime":"2023-10-18T15:40:00.000Z","time":"2023-10-18T15:40:00.000Z","reihung":false}},{"station":{"evaNumber":"8000206","name":"Koblenz Hbf","coordinates":{"lng":7.588343,"lat":50.350775},"ril100":"KKO"},"arrival":{"platform":"1","scheduledTime":"2023-10-18T15:54:00.000Z","time":"2023-10-18T15:54:00.000Z","reihung":false}}],"finalDestination":"Koblenz Hbf","jid":"1|1263133|0|80|18102023","messages":[{"type":"A","code":"FB","prio":260,"icoX":6,"txtN":"Fahrradmitnahme begrenzt möglich"},{"type":"A","code":"RG","prio":560,"icoX":7,"txtN":"Behindertengerechtes Fahrzeug"},{"type":"A","code":"LS","prio":605,"icoX":7,"txtN":"Laptop-Steckdosen"},{"type":"A","code":"KL","prio":610,"icoX":7,"txtN":"Klimaanlage"}],"type":"JNY"}],"segmentTypes":["EC","HLB","RB","RE"]},{"checksum":"6feb414e_3","cid":"C-3","date":"2023-10-17T22:00:00.000Z","duration":10560000,"changes":2,"isRideable":true,"arrival":{"platform":"1","scheduledTime":"2023-10-18T16:09:00.000Z","time":"2023-10-18T16:09:00.000Z","reihung":false},"departure":{"platform":"5","scheduledTime":"2023-10-18T13:13:00.000Z","time":"2023-10-18T13:13:00.000Z","reihung":false},"segments":[{"arrival":{"platform":"1","scheduledTime":"2023-10-18T13:29:00.000Z","time":"2023-10-18T13:29:00.000Z","reihung":false},"departure":{"platform":"5","scheduledTime":"2023-10-18T13:13:00.000Z","time":"2023-10-18T13:13:00.000Z","reihung":false},"duration":960000,"train":{"name":"S 3","line":"3","admin":"801539","number":"38338","type":"S","operator":{"name":"DB Regio AG Mitte","icoX":2}},"changeDuration":20,"segmentStart":{"name":"Heidelberg Hbf","evaNumber":"8000156"},"segmentDestination":{"name":"Mannheim Hbf","evaNumber":"8000244"},"stops":[{"station":{"evaNumber":"8000156","name":"Heidelberg Hbf","coordinates":{"lng":8.67548,"lat":49.403582},"ril100":"RH"},"departure":{"platform":"5","scheduledTime":"2023-10-18T13:13:00.000Z","time":"2023-10-18T13:13:00.000Z","reihung":false}},{"station":{"evaNumber":"8002687","name":"Heidelberg-Pfaffengrund/Wieblingen","coordinates":{"lng":8.641474,"lat":49.411969},"ril100":"RHBP"},"arrival":{"platform":"1","scheduledTime":"2023-10-18T13:15:00.000Z","time":"2023-10-18T13:15:00.000Z","reihung":false},"departure":{"platform":"1","scheduledTime":"2023-10-18T13:16:00.000Z","time":"2023-10-18T13:16:00.000Z","reihung":false}},{"station":{"evaNumber":"8003842","name":"Mannheim-Friedrichsfeld Süd","coordinates":{"lng":8.572239,"lat":49.438217},"ril100":"RMFS"},"arrival":{"platform":"1","scheduledTime":"2023-10-18T13:19:00.000Z","time":"2023-10-18T13:19:00.000Z","reihung":false},"departure":{"platform":"1","scheduledTime":"2023-10-18T13:20:00.000Z","time":"2023-10-18T13:20:00.000Z","reihung":false}},{"station":{"evaNumber":"8000244","name":"Mannheim Hbf","coordinates":{"lng":8.469268,"lat":49.479181},"ril100":"RM"},"arrival":{"platform":"1","scheduledTime":"2023-10-18T13:29:00.000Z","time":"2023-10-18T13:29:00.000Z","reihung":false}}],"finalDestination":"Schifferstadt","jid":"1|254220|0|80|18102023","messages":[{"type":"A","code":"FB","prio":260,"icoX":6,"txtN":"Fahrradmitnahme begrenzt möglich"},{"type":"A","code":"EH","prio":560,"icoX":7,"txtN":"Fahrzeuggebundene Einstiegshilfe vorhanden"}],"type":"JNY"},{"arrival":{"platform":"2a","scheduledTime":"2023-10-18T14:43:00.000Z","time":"2023-10-18T14:43:00.000Z","reihung":false},"departure":{"platform":"2","scheduledTime":"2023-10-18T13:49:00.000Z","time":"2023-10-18T13:49:00.000Z","reihung":false},"duration":3240000,"train":{"name":"RE 14","line":"14","admin":"800640","number":"4494","type":"RE","operator":{"name":"DB Regio AG Mitte SÜWEX","icoX":9}},"changeDuration":17,"segmentStart":{"name":"Mannheim Hbf","evaNumber":"8000244"},"segmentDestination":{"name":"Mainz Hbf","evaNumber":"8000240"},"stops":[{"station":{"evaNumber":"8000244","name":"Mannheim Hbf","coordinates":{"lng":8.469268,"lat":49.479181},"ril100":"RM"},"departure":{"platform":"2","scheduledTime":"2023-10-18T13:49:00.000Z","time":"2023-10-18T13:49:00.000Z","reihung":false}},{"station":{"evaNumber":"8003759","name":"Ludwigshafen(Rhein) Mitte","coordinates":{"lng":8.452215,"lat":49.478938},"ril100":"RLSM"},"arrival":{"platform":"1","scheduledTime":"2023-10-18T13:51:00.000Z","time":"2023-10-18T13:51:00.000Z","reihung":false},"departure":{"platform":"1","scheduledTime":"2023-10-18T13:52:00.000Z","time":"2023-10-18T13:52:00.000Z","reihung":false}},{"station":{"evaNumber":"8000332","name":"Frankenthal Hbf","coordinates":{"lng":8.349657,"lat":49.535633},"ril100":"RFT"},"arrival":{"platform":"1","scheduledTime":"2023-10-18T14:06:00.000Z","time":"2023-10-18T14:06:00.000Z","reihung":false},"departure":{"platform":"1","scheduledTime":"2023-10-18T14:08:00.000Z","time":"2023-10-18T14:08:00.000Z","reihung":false}},{"station":{"evaNumber":"8000257","name":"Worms Hbf","coordinates":{"lng":8.356633,"lat":49.634973},"ril100":"FWOR"},"arrival":{"platform":"1","scheduledTime":"2023-10-18T14:16:00.000Z","time":"2023-10-18T14:16:00.000Z","reihung":false},"departure":{"platform":"1","scheduledTime":"2023-10-18T14:17:00.000Z","time":"2023-10-18T14:17:00.000Z","reihung":false}},{"station":{"evaNumber":"8000240","name":"Mainz Hbf","coordinates":{"lng":8.258453,"lat":50.001239},"ril100":"FMZ"},"arrival":{"platform":"2a","scheduledTime":"2023-10-18T14:43:00.000Z","time":"2023-10-18T14:43:00.000Z","reihung":false}}],"finalDestination":"Mainz Hbf","jid":"1|255980|0|80|18102023","messages":[{"type":"A","code":"FB","prio":260,"icoX":6,"txtN":"Fahrradmitnahme begrenzt möglich"},{"type":"A","code":"RC","prio":320,"icoX":7,"txtN":"Reservierung an DB-Automaten/Reisezentren/vielen DB-Agenturen möglich"},{"type":"A","code":"RO","prio":560,"icoX":10,"txtN":"Rollstuhlstellplatz"},{"type":"A","code":"EH","prio":560,"icoX":7,"txtN":"Fahrzeuggebundene Einstiegshilfe vorhanden"},{"type":"A","code":"LS","prio":605,"icoX":7,"txtN":"Laptop-Steckdosen"},{"type":"A","code":"KL","prio":610,"icoX":7,"txtN":"Klimaanlage"}],"type":"JNY"},{"arrival":{"platform":"1","scheduledTime":"2023-10-18T16:09:00.000Z","time":"2023-10-18T16:09:00.000Z","reihung":false},"departure":{"platform":"3a","scheduledTime":"2023-10-18T15:00:00.000Z","time":"2023-10-18T15:00:00.000Z","reihung":false},"duration":4140000,"train":{"name":"RE 2","line":"2","admin":"V6RE","number":"29542","type":"RE","operator":{"name":"vlexx","icoX":15}},"segmentStart":{"name":"Mainz Hbf","evaNumber":"8000240"},"segmentDestination":{"name":"Koblenz Hbf","evaNumber":"8000206"},"stops":[{"station":{"evaNumber":"8000240","name":"Mainz Hbf","coordinates":{"lng":8.258453,"lat":50.001239},"ril100":"FMZ"},"departure":{"platform":"3a","scheduledTime":"2023-10-18T15:00:00.000Z","time":"2023-10-18T15:00:00.000Z","reihung":false}},{"station":{"evaNumber":"8003075","name":"Ingelheim","coordinates":{"lng":8.053265,"lat":49.976051},"ril100":"FIL"},"arrival":{"platform":"2","scheduledTime":"2023-10-18T15:11:00.000Z","time":"2023-10-18T15:11:00.000Z","reihung":false},"departure":{"platform":"2","scheduledTime":"2023-10-18T15:11:00.000Z","time":"2023-10-18T15:11:00.000Z","reihung":false}},{"station":{"evaNumber":"8000375","name":"Gau Algesheim","coordinates":{"lng":8.016086,"lat":49.961407}},"arrival":{"platform":"4","scheduledTime":"2023-10-18T15:14:00.000Z","time":"2023-10-18T15:14:00.000Z","reihung":false},"departure":{"platform":"4","scheduledTime":"2023-10-18T15:15:00.000Z","time":"2023-10-18T15:15:00.000Z","reihung":false}},{"station":{"evaNumber":"8000039","name":"Bingen(Rhein) Hbf","coordinates":{"lng":7.884043,"lat":49.968599},"ril100":"FBGK"},"arrival":{"platform":"102","scheduledTime":"2023-10-18T15:21:00.000Z","time":"2023-10-18T15:21:00.000Z","reihung":false},"departure":{"platform":"102","scheduledTime":"2023-10-18T15:22:00.000Z","time":"2023-10-18T15:22:00.000Z","reihung":false}},{"station":{"evaNumber":"8005896","name":"Trechtingshausen","coordinates":{"lng":7.852383,"lat":50.009032}},"arrival":{"platform":"2","scheduledTime":"2023-10-18T15:26:00.000Z","time":"2023-10-18T15:26:00.000Z","reihung":false},"departure":{"platform":"2","scheduledTime":"2023-10-18T15:26:00.000Z","time":"2023-10-18T15:26:00.000Z","reihung":false}},{"station":{"evaNumber":"8004379","name":"Niederheimbach","coordinates":{"lng":7.805576,"lat":50.036027},"ril100":"FNDH"},"arrival":{"platform":"2","scheduledTime":"2023-10-18T15:30:00.000Z","time":"2023-10-18T15:30:00.000Z","reihung":false},"departure":{"platform":"2","scheduledTime":"2023-10-18T15:30:00.000Z","time":"2023-10-18T15:30:00.000Z","reihung":false}},{"station":{"evaNumber":"8000683","name":"Bacharach","coordinates":{"lng":7.769503,"lat":50.056342},"ril100":"FBCH"},"arrival":{"platform":"2","scheduledTime":"2023-10-18T15:33:00.000Z","time":"2023-10-18T15:33:00.000Z","reihung":false},"departure":{"platform":"2","scheduledTime":"2023-10-18T15:34:00.000Z","time":"2023-10-18T15:34:00.000Z","reihung":false}},{"station":{"evaNumber":"8004601","name":"Oberwesel","coordinates":{"lng":7.731676,"lat":50.104336},"ril100":"FOBW"},"arrival":{"platform":"2","scheduledTime":"2023-10-18T15:38:00.000Z","time":"2023-10-18T15:38:00.000Z","reihung":false},"departure":{"platform":"2","scheduledTime":"2023-10-18T15:39:00.000Z","time":"2023-10-18T15:39:00.000Z","reihung":false}},{"station":{"evaNumber":"8005645","name":"St Goar","coordinates":{"lng":7.714686,"lat":50.150046},"ril100":"FSGO"},"arrival":{"platform":"1","scheduledTime":"2023-10-18T15:44:00.000Z","time":"2023-10-18T15:44:00.000Z","reihung":false},"departure":{"platform":"1","scheduledTime":"2023-10-18T15:45:00.000Z","time":"2023-10-18T15:45:00.000Z","reihung":false}},{"station":{"evaNumber":"8000045","name":"Boppard Hbf","coordinates":{"lng":7.586051,"lat":50.231398},"ril100":"KBOP"},"arrival":{"platform":"1","scheduledTime":"2023-10-18T15:54:00.000Z","time":"2023-10-18T15:54:00.000Z","reihung":false},"departure":{"platform":"1","scheduledTime":"2023-10-18T15:54:00.000Z","time":"2023-10-18T15:54:00.000Z","reihung":false}},{"station":{"evaNumber":"8000206","name":"Koblenz Hbf","coordinates":{"lng":7.588343,"lat":50.350775},"ril100":"KKO"},"arrival":{"platform":"1","scheduledTime":"2023-10-18T16:09:00.000Z","time":"2023-10-18T16:09:00.000Z","reihung":false}}],"finalDestination":"Koblenz Hbf","jid":"1|1262911|0|80|18102023","messages":[{"type":"A","code":"FB","prio":260,"icoX":6,"txtN":"Fahrradmitnahme begrenzt möglich"},{"type":"A","code":"RG","prio":560,"icoX":7,"txtN":"Behindertengerechtes Fahrzeug"},{"type":"A","code":"LS","prio":605,"icoX":7,"txtN":"Laptop-Steckdosen"},{"type":"A","code":"KL","prio":610,"icoX":7,"txtN":"Klimaanlage"}],"type":"JNY"}],"segmentTypes":["S","RE","RE"]},{"checksum":"120691fd_3","cid":"C-4","date":"2023-10-17T22:00:00.000Z","duration":6660000,"changes":1,"isRideable":true,"arrival":{"platform":"3","scheduledTime":"2023-10-18T15:11:00.000Z","time":"2023-10-18T15:11:00.000Z","reihung":false},"departure":{"platform":"5","scheduledTime":"2023-10-18T13:20:00.000Z","time":"2023-10-18T13:20:00.000Z","reihung":false},"segments":[{"arrival":{"platform":"2a/b","scheduledTime":"2023-10-18T14:15:00.000Z","time":"2023-10-18T14:15:00.000Z","reihung":false},"departure":{"platform":"5","scheduledTime":"2023-10-18T13:20:00.000Z","time":"2023-10-18T13:20:00.000Z","reihung":false},"duration":3300000,"train":{"name":"ICE 710","line":"45","admin":"80","number":"710","type":"ICE","operator":{"name":"DB Fernverkehr AG","icoX":16}},"changeDuration":5,"segmentStart":{"name":"Heidelberg Hbf","evaNumber":"8000156"},"segmentDestination":{"name":"Mainz Hbf","evaNumber":"8000240"},"stops":[{"station":{"evaNumber":"8000156","name":"Heidelberg Hbf","coordinates":{"lng":8.67548,"lat":49.403582},"ril100":"RH"},"departure":{"platform":"5","scheduledTime":"2023-10-18T13:20:00.000Z","time":"2023-10-18T13:20:00.000Z","reihung":false},"auslastung":{"first":1,"second":1}},{"station":{"evaNumber":"8000244","name":"Mannheim Hbf","coordinates":{"lng":8.469268,"lat":49.479181},"ril100":"RM"},"arrival":{"platform":"8","scheduledTime":"2023-10-18T13:31:00.000Z","time":"2023-10-18T13:31:00.000Z","reihung":false},"departure":{"platform":"8","scheduledTime":"2023-10-18T13:33:00.000Z","time":"2023-10-18T13:33:00.000Z","reihung":false},"auslastung":{"first":1,"second":1}},{"station":{"evaNumber":"8000240","name":"Mainz Hbf","coordinates":{"lng":8.258453,"lat":50.001239},"ril100":"FMZ"},"arrival":{"platform":"2a/b","scheduledTime":"2023-10-18T14:15:00.000Z","time":"2023-10-18T14:15:00.000Z","reihung":false}}],"finalDestination":"Köln Hbf","jid":"1|209279|0|80|18102023","auslastung":{"first":1,"second":1},"messages":[{"type":"A","code":"CK","prio":200,"icoX":7,"txtN":"Sicher & kontaktlos ohne Ticketkontrolle reisen mit Komfort Check-in"},{"type":"A","code":"BR","prio":450,"icoX":19,"txtN":"Bordrestaurant"},{"type":"A","code":"EH","prio":560,"icoX":7,"txtN":"Fahrzeuggebundene Einstiegshilfe vorhanden"}],"type":"JNY"},{"arrival":{"platform":"3","scheduledTime":"2023-10-18T15:11:00.000Z","time":"2023-10-18T15:11:00.000Z","reihung":false},"departure":{"platform":"3a/b","scheduledTime":"2023-10-18T14:20:00.000Z","time":"2023-10-18T14:20:00.000Z","reihung":false},"duration":3060000,"train":{"name":"ICE 28","line":"91","admin":"80","number":"28","type":"ICE","operator":{"name":"DB Fernverkehr AG","icoX":16}},"segmentStart":{"name":"Mainz Hbf","evaNumber":"8000240"},"segmentDestination":{"name":"Koblenz Hbf","evaNumber":"8000206"},"stops":[{"station":{"evaNumber":"8000240","name":"Mainz Hbf","coordinates":{"lng":8.258453,"lat":50.001239},"ril100":"FMZ"},"departure":{"platform":"3a/b","scheduledTime":"2023-10-18T14:20:00.000Z","time":"2023-10-18T14:20:00.000Z","reihung":false},"auslastung":{"first":3,"second":1}},{"station":{"evaNumber":"8000206","name":"Koblenz Hbf","coordinates":{"lng":7.588343,"lat":50.350775},"ril100":"KKO"},"arrival":{"platform":"3","scheduledTime":"2023-10-18T15:11:00.000Z","time":"2023-10-18T15:11:00.000Z","reihung":false}}],"finalDestination":"Dortmund Hbf","jid":"1|356153|0|80|18102023","auslastung":{"first":3,"second":1},"messages":[{"type":"A","code":"CK","prio":200,"icoX":7,"txtN":"Sicher & kontaktlos ohne Ticketkontrolle reisen mit Komfort Check-in"},{"type":"A","code":"FR","prio":260,"icoX":20,"txtN":"Fahrradmitnahme reservierungspflichtig"},{"type":"A","code":"FB","prio":260,"icoX":6,"txtN":"Fahrradmitnahme begrenzt möglich"},{"type":"A","code":"BR","prio":450,"icoX":19,"txtN":"Bordrestaurant"}],"type":"JNY"}],"segmentTypes":["ICE","ICE"]},{"checksum":"16030f60_3","cid":"C-5","date":"2023-10-17T22:00:00.000Z","duration":11580000,"changes":2,"isRideable":true,"arrival":{"platform":"5","scheduledTime":"2023-10-18T16:56:00.000Z","time":"2023-10-18T16:56:00.000Z","reihung":false},"departure":{"platform":"5","scheduledTime":"2023-10-18T13:43:00.000Z","time":"2023-10-18T13:43:00.000Z","reihung":false},"segments":[{"arrival":{"platform":"1","scheduledTime":"2023-10-18T14:01:00.000Z","time":"2023-10-18T14:01:00.000Z","reihung":false},"departure":{"platform":"5","scheduledTime":"2023-10-18T13:43:00.000Z","time":"2023-10-18T13:43:00.000Z","reihung":false},"duration":1080000,"train":{"name":"S 3","line":"3","admin":"801539","number":"38340","type":"S","operator":{"name":"DB Regio AG Mitte","icoX":2}},"changeDuration":13,"segmentStart":{"name":"Heidelberg Hbf","evaNumber":"8000156"},"segmentDestination":{"name":"Mannheim Hbf","evaNumber":"8000244"},"stops":[{"station":{"evaNumber":"8000156","name":"Heidelberg Hbf","coordinates":{"lng":8.67548,"lat":49.403582},"ril100":"RH"},"departure":{"platform":"5","scheduledTime":"2023-10-18T13:43:00.000Z","time":"2023-10-18T13:43:00.000Z","reihung":false}},{"station":{"evaNumber":"8002687","name":"Heidelberg-Pfaffengrund/Wieblingen","coordinates":{"lng":8.641474,"lat":49.411969},"ril100":"RHBP"},"arrival":{"platform":"1","scheduledTime":"2023-10-18T13:45:00.000Z","time":"2023-10-18T13:45:00.000Z","reihung":false},"departure":{"platform":"1","scheduledTime":"2023-10-18T13:46:00.000Z","time":"2023-10-18T13:46:00.000Z","reihung":false}},{"station":{"evaNumber":"8003842","name":"Mannheim-Friedrichsfeld Süd","coordinates":{"lng":8.572239,"lat":49.438217},"ril100":"RMFS"},"arrival":{"platform":"1","scheduledTime":"2023-10-18T13:50:00.000Z","time":"2023-10-18T13:50:00.000Z","reihung":false},"departure":{"platform":"1","scheduledTime":"2023-10-18T13:50:00.000Z","time":"2023-10-18T13:50:00.000Z","reihung":false}},{"station":{"evaNumber":"8003847","name":"Mannheim-Seckenheim","coordinates":{"lng":8.538098,"lat":49.451413},"ril100":"RMSE"},"arrival":{"platform":"1","scheduledTime":"2023-10-18T13:52:00.000Z","time":"2023-10-18T13:52:00.000Z","reihung":false},"departure":{"platform":"1","scheduledTime":"2023-10-18T13:53:00.000Z","time":"2023-10-18T13:53:00.000Z","reihung":false}},{"station":{"evaNumber":"8003841","name":"Mannheim ARENA/Maimarkt","coordinates":{"lng":8.515922,"lat":49.45998},"ril100":"RMSM"},"arrival":{"platform":"1","scheduledTime":"2023-10-18T13:55:00.000Z","time":"2023-10-18T13:55:00.000Z","reihung":false},"departure":{"platform":"1","scheduledTime":"2023-10-18T13:55:00.000Z","time":"2023-10-18T13:55:00.000Z","reihung":false}},{"station":{"evaNumber":"8000244","name":"Mannheim Hbf","coordinates":{"lng":8.469268,"lat":49.479181},"ril100":"RM"},"arrival":{"platform":"1","scheduledTime":"2023-10-18T14:01:00.000Z","time":"2023-10-18T14:01:00.000Z","reihung":false}}],"finalDestination":"Schifferstadt","jid":"1|254227|0|80|18102023","messages":[{"type":"A","code":"FB","prio":260,"icoX":6,"txtN":"Fahrradmitnahme begrenzt möglich"},{"type":"A","code":"EH","prio":560,"icoX":7,"txtN":"Fahrzeuggebundene Einstiegshilfe vorhanden"}],"type":"JNY"},{"arrival":{"platform":"8","scheduledTime":"2023-10-18T15:38:00.000Z","time":"2023-10-18T15:38:00.000Z","reihung":false},"departure":{"platform":"5","scheduledTime":"2023-10-18T14:14:00.000Z","time":"2023-10-18T14:14:00.000Z","reihung":false},"duration":5040000,"train":{"name":"S 6","line":"6","admin":"801518","number":"38662","type":"S","operator":{"name":"DB Regio AG Mitte","icoX":2}},"changeDuration":13,"segmentStart":{"name":"Mannheim Hbf","evaNumber":"8000244"},"segmentDestination":{"name":"Mainz Hbf","evaNumber":"8000240"},"stops":[{"station":{"evaNumber":"8000244","name":"Mannheim Hbf","coordinates":{"lng":8.469268,"lat":49.479181},"ril100":"RM"},"departure":{"platform":"5","scheduledTime":"2023-10-18T14:14:00.000Z","time":"2023-10-18T14:14:00.000Z","reihung":false}},{"station":{"evaNumber":"8003759","name":"Ludwigshafen(Rhein) Mitte","coordinates":{"lng":8.452215,"lat":49.478938},"ril100":"RLSM"},"arrival":{"platform":"2","scheduledTime":"2023-10-18T14:15:00.000Z","time":"2023-10-18T14:15:00.000Z","reihung":false},"departure":{"platform":"2","scheduledTime":"2023-10-18T14:16:00.000Z","time":"2023-10-18T14:16:00.000Z","reihung":false}},{"station":{"evaNumber":"8000236","name":"Ludwigshafen(Rh)Hbf","coordinates":{"lng":8.433769,"lat":49.477257},"ril100":"RL"},"arrival":{"platform":"1","scheduledTime":"2023-10-18T14:19:00.000Z","time":"2023-10-18T14:19:00.000Z","reihung":false},"departure":{"platform":"1","scheduledTime":"2023-10-18T14:19:00.000Z","time":"2023-10-18T14:19:00.000Z","reihung":false}},{"station":{"evaNumber":"8003766","name":"Ludwigshafen-Oggersheim","coordinates":{"lng":8.381587,"lat":49.49324},"ril100":"RLO"},"arrival":{"platform":"2","scheduledTime":"2023-10-18T14:23:00.000Z","time":"2023-10-18T14:23:00.000Z","reihung":false},"departure":{"platform":"2","scheduledTime":"2023-10-18T14:24:00.000Z","time":"2023-10-18T14:24:00.000Z","reihung":false}},{"station":{"evaNumber":"8002025","name":"Frankenthal Süd","coordinates":{"lng":8.349559,"lat":49.522698},"ril100":"RFTS"},"arrival":{"platform":"1","scheduledTime":"2023-10-18T14:26:00.000Z","time":"2023-10-18T14:26:00.000Z","reihung":false},"departure":{"platform":"1","scheduledTime":"2023-10-18T14:27:00.000Z","time":"2023-10-18T14:27:00.000Z","reihung":false}},{"station":{"evaNumber":"8000332","name":"Frankenthal Hbf","coordinates":{"lng":8.349657,"lat":49.535633},"ril100":"RFT"},"arrival":{"platform":"1","scheduledTime":"2023-10-18T14:28:00.000Z","time":"2023-10-18T14:28:00.000Z","reihung":false},"departure":{"platform":"1","scheduledTime":"2023-10-18T14:29:00.000Z","time":"2023-10-18T14:29:00.000Z","reihung":false}},{"station":{"evaNumber":"8001032","name":"Bobenheim","coordinates":{"lng":8.35035,"lat":49.588139},"ril100":"RBOB"},"arrival":{"platform":"1","scheduledTime":"2023-10-18T14:32:00.000Z","time":"2023-10-18T14:32:00.000Z","reihung":false},"departure":{"platform":"1","scheduledTime":"2023-10-18T14:33:00.000Z","time":"2023-10-18T14:33:00.000Z","reihung":false}},{"station":{"evaNumber":"8000257","name":"Worms Hbf","coordinates":{"lng":8.356633,"lat":49.634973},"ril100":"FWOR"},"arrival":{"platform":"5","scheduledTime":"2023-10-18T14:37:00.000Z","time":"2023-10-18T14:37:00.000Z","reihung":false},"departure":{"platform":"5","scheduledTime":"2023-10-18T14:55:00.000Z","time":"2023-10-18T14:55:00.000Z","reihung":false}},{"station":{"evaNumber":"8004714","name":"Osthofen","coordinates":{"lng":8.326267,"lat":49.705071},"ril100":"FOHF"},"arrival":{"platform":"2","scheduledTime":"2023-10-18T15:01:00.000Z","time":"2023-10-18T15:01:00.000Z","reihung":false},"departure":{"platform":"2","scheduledTime":"2023-10-18T15:01:00.000Z","time":"2023-10-18T15:01:00.000Z","reihung":false}},{"station":{"evaNumber":"8004003","name":"Mettenheim","coordinates":{"lng":8.334133,"lat":49.739697},"ril100":"FMET"},"arrival":{"platform":"2","scheduledTime":"2023-10-18T15:04:00.000Z","time":"2023-10-18T15:04:00.000Z","reihung":false},"departure":{"platform":"2","scheduledTime":"2023-10-18T15:04:00.000Z","time":"2023-10-18T15:04:00.000Z","reihung":false}},{"station":{"evaNumber":"8000506","name":"Alsheim","coordinates":{"lng":8.342565,"lat":49.765487},"ril100":"FAHM"},"arrival":{"platform":"2","scheduledTime":"2023-10-18T15:07:00.000Z","time":"2023-10-18T15:07:00.000Z","reihung":false},"departure":{"platform":"2","scheduledTime":"2023-10-18T15:07:00.000Z","time":"2023-10-18T15:07:00.000Z","reihung":false}},{"station":{"evaNumber":"8002474","name":"Guntersblum","coordinates":{"lng":8.351177,"lat":49.791862},"ril100":"FGUB"},"arrival":{"platform":"1","scheduledTime":"2023-10-18T15:10:00.000Z","time":"2023-10-18T15:10:00.000Z","reihung":false},"departure":{"platform":"1","scheduledTime":"2023-10-18T15:10:00.000Z","time":"2023-10-18T15:10:00.000Z","reihung":false}},{"station":{"evaNumber":"8001448","name":"Dienheim","coordinates":{"lng":8.357271,"lat":49.841887},"ril100":"FDHM"},"arrival":{"platform":"2","scheduledTime":"2023-10-18T15:14:00.000Z","time":"2023-10-18T15:14:00.000Z","reihung":false},"departure":{"platform":"2","scheduledTime":"2023-10-18T15:14:00.000Z","time":"2023-10-18T15:14:00.000Z","reihung":false}},{"station":{"evaNumber":"8004680","name":"Oppenheim","coordinates":{"lng":8.358098,"lat":49.857564},"ril100":"FOPP"},"arrival":{"platform":"1","scheduledTime":"2023-10-18T15:16:00.000Z","time":"2023-10-18T15:16:00.000Z","reihung":false},"departure":{"platform":"1","scheduledTime":"2023-10-18T15:17:00.000Z","time":"2023-10-18T15:17:00.000Z","reihung":false}},{"station":{"evaNumber":"8004432","name":"Nierstein","coordinates":{"lng":8.342682,"lat":49.872117},"ril100":"FNIR"},"arrival":{"platform":"1","scheduledTime":"2023-10-18T15:19:00.000Z","time":"2023-10-18T15:19:00.000Z","reihung":false},"departure":{"platform":"1","scheduledTime":"2023-10-18T15:19:00.000Z","time":"2023-10-18T15:19:00.000Z","reihung":false}},{"station":{"evaNumber":"8004193","name":"Nackenheim","coordinates":{"lng":8.341882,"lat":49.919104},"ril100":"FNAC"},"arrival":{"platform":"2","scheduledTime":"2023-10-18T15:23:00.000Z","time":"2023-10-18T15:23:00.000Z","reihung":false},"departure":{"platform":"2","scheduledTime":"2023-10-18T15:23:00.000Z","time":"2023-10-18T15:23:00.000Z","reihung":false}},{"station":{"evaNumber":"8000359","name":"Bodenheim","coordinates":{"lng":8.311229,"lat":49.930529},"ril100":"FBOD"},"arrival":{"platform":"2","scheduledTime":"2023-10-18T15:25:00.000Z","time":"2023-10-18T15:25:00.000Z","reihung":false},"departure":{"platform":"2","scheduledTime":"2023-10-18T15:26:00.000Z","time":"2023-10-18T15:26:00.000Z","reihung":false}},{"station":{"evaNumber":"8003819","name":"Mainz-Laubenheim","coordinates":{"lng":8.314159,"lat":49.961192},"ril100":"FML"},"arrival":{"platform":"2","scheduledTime":"2023-10-18T15:29:00.000Z","time":"2023-10-18T15:29:00.000Z","reihung":false},"departure":{"platform":"2","scheduledTime":"2023-10-18T15:29:00.000Z","time":"2023-10-18T15:29:00.000Z","reihung":false}},{"station":{"evaNumber":"8003816","name":"Mainz Römisches Theater","coordinates":{"lng":8.277393,"lat":49.993517},"ril100":"FMS"},"arrival":{"platform":"1","scheduledTime":"2023-10-18T15:32:00.000Z","time":"2023-10-18T15:32:00.000Z","reihung":false},"departure":{"platform":"1","scheduledTime":"2023-10-18T15:33:00.000Z","time":"2023-10-18T15:33:00.000Z","reihung":false}},{"station":{"evaNumber":"8000240","name":"Mainz Hbf","coordinates":{"lng":8.258453,"lat":50.001239},"ril100":"FMZ"},"arrival":{"platform":"8","scheduledTime":"2023-10-18T15:38:00.000Z","time":"2023-10-18T15:38:00.000Z","reihung":false}}],"finalDestination":"Mainz Hbf","jid":"1|254804|0|80|18102023","messages":[{"type":"A","code":"FB","prio":260,"icoX":6,"txtN":"Fahrradmitnahme begrenzt möglich"},{"type":"A","code":"EH","prio":560,"icoX":7,"txtN":"Fahrzeuggebundene Einstiegshilfe vorhanden"},{"type":"A","code":"LS","prio":605,"icoX":7,"txtN":"Laptop-Steckdosen"},{"type":"A","code":"KL","prio":610,"icoX":7,"txtN":"Klimaanlage"}],"type":"JNY"},{"arrival":{"platform":"5","scheduledTime":"2023-10-18T16:56:00.000Z","time":"2023-10-18T16:56:00.000Z","reihung":false},"departure":{"platform":"3a","scheduledTime":"2023-10-18T15:51:00.000Z","time":"2023-10-18T15:51:00.000Z","reihung":false},"duration":3900000,"train":{"name":"RE 2","line":"2","admin":"800640","number":"4262","type":"RE","operator":{"name":"DB Regio AG Mitte SÜWEX","icoX":9}},"segmentStart":{"name":"Mainz Hbf","evaNumber":"8000240"},"segmentDestination":{"name":"Koblenz Hbf","evaNumber":"8000206"},"stops":[{"station":{"evaNumber":"8000240","name":"Mainz Hbf","coordinates":{"lng":8.258453,"lat":50.001239},"ril100":"FMZ"},"departure":{"platform":"3a","scheduledTime":"2023-10-18T15:51:00.000Z","time":"2023-10-18T15:51:00.000Z","reihung":false},"messages":[{"type":"A","code":"text.journeystop.product.or.direction.changes.stop.message","icoX":7,"txtN":"Verkehrt ab hier als RE 4262 in Richtung Koblenz Hbf"}]},{"station":{"evaNumber":"8003075","name":"Ingelheim","coordinates":{"lng":8.053265,"lat":49.976051},"ril100":"FIL"},"arrival":{"platform":"2","scheduledTime":"2023-10-18T16:01:00.000Z","time":"2023-10-18T16:01:00.000Z","reihung":false},"departure":{"platform":"2","scheduledTime":"2023-10-18T16:02:00.000Z","time":"2023-10-18T16:02:00.000Z","reihung":false}},{"station":{"evaNumber":"8000039","name":"Bingen(Rhein) Hbf","coordinates":{"lng":7.884043,"lat":49.968599},"ril100":"FBGK"},"arrival":{"platform":"102","scheduledTime":"2023-10-18T16:11:00.000Z","time":"2023-10-18T16:11:00.000Z","reihung":false},"departure":{"platform":"102","scheduledTime":"2023-10-18T16:13:00.000Z","time":"2023-10-18T16:13:00.000Z","reihung":false}},{"station":{"evaNumber":"8000683","name":"Bacharach","coordinates":{"lng":7.769503,"lat":50.056342},"ril100":"FBCH"},"arrival":{"platform":"2","scheduledTime":"2023-10-18T16:20:00.000Z","time":"2023-10-18T16:20:00.000Z","reihung":false},"departure":{"platform":"2","scheduledTime":"2023-10-18T16:21:00.000Z","time":"2023-10-18T16:21:00.000Z","reihung":false}},{"station":{"evaNumber":"8004601","name":"Oberwesel","coordinates":{"lng":7.731676,"lat":50.104336},"ril100":"FOBW"},"arrival":{"platform":"2","scheduledTime":"2023-10-18T16:25:00.000Z","time":"2023-10-18T16:25:00.000Z","reihung":false},"departure":{"platform":"2","scheduledTime":"2023-10-18T16:26:00.000Z","time":"2023-10-18T16:26:00.000Z","reihung":false},"messages":[{"type":"A","code":"text.journeystop.product.or.direction.changes.stop.message","icoX":7,"txtN":"Verkehrt ab hier als RE 4262 in Richtung Saarbrücken Hbf"}]},{"station":{"evaNumber":"8000045","name":"Boppard Hbf","coordinates":{"lng":7.586051,"lat":50.231398},"ril100":"KBOP"},"arrival":{"platform":"1","scheduledTime":"2023-10-18T16:39:00.000Z","time":"2023-10-18T16:39:00.000Z","reihung":false},"departure":{"platform":"1","scheduledTime":"2023-10-18T16:40:00.000Z","time":"2023-10-18T16:40:00.000Z","reihung":false}},{"station":{"evaNumber":"8000206","name":"Koblenz Hbf","coordinates":{"lng":7.588343,"lat":50.350775},"ril100":"KKO"},"arrival":{"platform":"5","scheduledTime":"2023-10-18T16:56:00.000Z","time":"2023-10-18T16:56:00.000Z","reihung":false}}],"finalDestination":"Koblenz Hbf","jid":"1|255748|0|80|18102023","messages":[{"type":"A","code":"FB","prio":260,"icoX":6,"txtN":"Fahrradmitnahme begrenzt möglich"},{"type":"A","code":"RC","prio":320,"icoX":7,"txtN":"Reservierung an DB-Automaten/Reisezentren/vielen DB-Agenturen möglich"},{"type":"A","code":"RO","prio":560,"icoX":10,"txtN":"Rollstuhlstellplatz"},{"type":"A","code":"EH","prio":560,"icoX":7,"txtN":"Fahrzeuggebundene Einstiegshilfe vorhanden"},{"type":"A","code":"LS","prio":605,"icoX":7,"txtN":"Laptop-Steckdosen"},{"type":"A","code":"KL","prio":610,"icoX":7,"txtN":"Klimaanlage"},{"type":"A","code":"text.journeystop.product.or.direction.changes.journey.message","icoX":7,"txtN":"Verkehrt ab Oberwesel als RE 4262 in Richtung Saarbrücken Hbf"}],"type":"JNY"}],"segmentTypes":["S","S","RE"]},{"checksum":"7120dbf7_3","cid":"C-6","date":"2023-10-17T22:00:00.000Z","duration":6420000,"changes":0,"isRideable":true,"arrival":{"platform":"3","scheduledTime":"2023-10-18T15:42:00.000Z","time":"2023-10-18T15:42:00.000Z","reihung":false},"departure":{"platform":"3","scheduledTime":"2023-10-18T13:55:00.000Z","time":"2023-10-18T13:55:00.000Z","reihung":false},"segments":[{"arrival":{"platform":"3","scheduledTime":"2023-10-18T15:42:00.000Z","time":"2023-10-18T15:42:00.000Z","reihung":false},"departure":{"platform":"3","scheduledTime":"2023-10-18T13:55:00.000Z","time":"2023-10-18T13:55:00.000Z","reihung":false},"duration":6420000,"train":{"name":"ICE 118","line":"32","admin":"80","number":"118","type":"ICE","operator":{"name":"DB Fernverkehr AG","icoX":16}},"segmentStart":{"name":"Heidelberg Hbf","evaNumber":"8000156"},"segmentDestination":{"name":"Koblenz Hbf","evaNumber":"8000206"},"stops":[{"station":{"evaNumber":"8000156","name":"Heidelberg Hbf","coordinates":{"lng":8.67548,"lat":49.403582},"ril100":"RH"},"departure":{"platform":"3","scheduledTime":"2023-10-18T13:55:00.000Z","time":"2023-10-18T13:55:00.000Z","reihung":false},"auslastung":{"first":2,"second":1}},{"station":{"evaNumber":"8000244","name":"Mannheim Hbf","coordinates":{"lng":8.469268,"lat":49.479181},"ril100":"RM"},"arrival":{"platform":"2","scheduledTime":"2023-10-18T14:06:00.000Z","time":"2023-10-18T14:06:00.000Z","reihung":false},"departure":{"platform":"2","scheduledTime":"2023-10-18T14:08:00.000Z","time":"2023-10-18T14:08:00.000Z","reihung":false},"auslastung":{"first":2,"second":1}},{"station":{"evaNumber":"8000240","name":"Mainz Hbf","coordinates":{"lng":8.258453,"lat":50.001239},"ril100":"FMZ"},"arrival":{"platform":"1a/b","scheduledTime":"2023-10-18T14:47:00.000Z","time":"2023-10-18T14:47:00.000Z","reihung":false},"departure":{"platform":"1a/b","scheduledTime":"2023-10-18T14:49:00.000Z","time":"2023-10-18T14:49:00.000Z","reihung":false},"auslastung":{"first":2,"second":1}},{"station":{"evaNumber":"8000039","name":"Bingen(Rhein) Hbf","coordinates":{"lng":7.884043,"lat":49.968599},"ril100":"FBGK"},"arrival":{"platform":"102","scheduledTime":"2023-10-18T15:05:00.000Z","time":"2023-10-18T15:05:00.000Z","reihung":false},"departure":{"platform":"102","scheduledTime":"2023-10-18T15:07:00.000Z","time":"2023-10-18T15:07:00.000Z","reihung":false},"auslastung":{"first":2,"second":1}},{"station":{"evaNumber":"8000206","name":"Koblenz Hbf","coordinates":{"lng":7.588343,"lat":50.350775},"ril100":"KKO"},"arrival":{"platform":"3","scheduledTime":"2023-10-18T15:42:00.000Z","time":"2023-10-18T15:42:00.000Z","reihung":false}}],"finalDestination":"Dortmund Hbf","jid":"1|350281|0|80|18102023","auslastung":{"first":2,"second":1},"messages":[{"type":"A","code":"CK","prio":200,"icoX":7,"txtN":"Sicher & kontaktlos ohne Ticketkontrolle reisen mit Komfort Check-in"},{"type":"A","code":"FR","prio":260,"icoX":20,"txtN":"Fahrradmitnahme reservierungspflichtig"},{"type":"A","code":"FB","prio":260,"icoX":6,"txtN":"Fahrradmitnahme begrenzt möglich"},{"type":"A","code":"BR","prio":450,"icoX":19,"txtN":"Bordrestaurant"},{"type":"A","code":"EH","prio":560,"icoX":7,"txtN":"Fahrzeuggebundene Einstiegshilfe vorhanden"}],"type":"JNY"}],"segmentTypes":["ICE"]}]}