{"context":{"earlier":"3|OB|MT#14#451593#451593#451679#451679#0#0#325#451576#1#0#1275#0#0#-2147483648#1#2|PDH#bbe10b32f5270e429a5a473728022d1b|RD#18102023|RT#141653|US#0|RS#INIT","later":"3|OF|MT#14#451693#451693#451764#451764#0#0#325#451654#7#0#251#0#0#-2147483648#1#2|PDH#bbe10b32f5270e429a5a473728022d1b|RD#18102023|RT#141653|US#0|RS#INIT"},"routes":[{"checksum":"713e7c9f_3","cid":"C-0","date":"2023-10-17T22:00:00.000Z","duration":5160000,"changes":0,"isRideable":true,"arrival":{"platform":"3","scheduledTime":"2023-10-18T13:59:00.000Z","time":"2023-10-18T13:59:00.000Z","reihung":false},"departure":{"platform":"2","scheduledTime":"2023-10-18T12:33:00.000Z","time":"2023-10-18T12:33:00.000Z","reihung":false},"segments":[{"arrival":{"platform":"3","scheduledTime":"2023-10-18T13:59:00.000Z","time":"2023-10-18T13:59:00.000Z","reihung":false},"departure":{"platform":"2","scheduledTime":"2023-10-18T12:33:00.000Z","time":"2023-10-18T12:33:00.000Z","reihung":false},"duration":5160000,"train":{"name":"S 2","line":"2","admin":"801539","number":"38238","type":"S","operator":{"name":"DB Regio AG Mitte","icoX":2}},"segmentStart":{"name":"Heidelberg Hbf","evaNumber":"8000156"},"segmentDestination":{"name":"Kaiserslautern Hbf","evaNumber":"8000189"},"stops":[{"station":{"evaNumber":"8000156","name":"Heidelberg Hbf","coordinates":{"lng":8.67548,"lat":49.403582},"ril100":"RH"},"departure":{"platform":"2","scheduledTime":"2023-10-18T12:33:00.000Z","time":"2023-10-18T12:33:00.000Z","reihung":false}},{"station":{"evaNumber":"8002687","name":"Heidelberg-Pfaffengrund/Wieblingen","coordinates":{"lng":8.641474,"lat":49.411969},"ril100":"RHBP"},"arrival":{"platform":"1","scheduledTime":"2023-10-18T12:36:00.000Z","time":"2023-10-18T12:36:00.000Z","reihung":false},"departure":{"platform":"1","scheduledTime":"2023-10-18T12:36:00.000Z","time":"2023-10-18T12:36:00.000Z","reihung":false}},{"station":{"evaNumber":"8003842","name":"Mannheim-Friedrichsfeld Süd","coordinates":{"lng":8.572239,"lat":49.438217},"ril100":"RMFS"},"arrival":{"platform":"1","scheduledTime":"2023-10-18T12:40:00.000Z","time":"2023-10-18T12:40:00.000Z","reihung":false},"departure":{"platform":"1","scheduledTime":"2023-10-18T12:40:00.000Z","time":"2023-10-18T12:40:00.000Z","reihung":false}},{"station":{"evaNumber":"8003847","name":"Mannheim-Seckenheim","coordinates":{"lng":8.538098,"lat":49.451413},"ril100":"RMSE"},"arrival":{"platform":"1","scheduledTime":"2023-10-18T12:43:00.000Z","time":"2023-10-18T12:43:00.000Z","reihung":false},"departure":{"platform":"1","scheduledTime":"2023-10-18T12:43:00.000Z","time":"2023-10-18T12:43:00.000Z","reihung":false}},{"station":{"evaNumber":"8003841","name":"Mannheim ARENA/Maimarkt","coordinates":{"lng":8.515922,"lat":49.45998},"ril100":"RMSM"},"arrival":{"platform":"1","scheduledTime":"2023-10-18T12:45:00.000Z","time":"2023-10-18T12:45:00.000Z","reihung":false},"departure":{"platform":"1","scheduledTime":"2023-10-18T12:45:00.000Z","time":"2023-10-18T12:45:00.000Z","reihung":false}},{"station":{"evaNumber":"8000244","name":"Mannheim Hbf","coordinates":{"lng":8.469268,"lat":49.479181},"ril100":"RM"},"arrival":{"platform":"1","scheduledTime":"2023-10-18T12:51:00.000Z","time":"2023-10-18T12:51:00.000Z","reihung":false},"departure":{"platform":"1","scheduledTime":"2023-10-18T12:56:00.000Z","time":"2023-10-18T12:56:00.000Z","reihung":false}},{"station":{"evaNumber":"8003759","name":"Ludwigshafen(Rhein) Mitte","coordinates":{"lng":8.452215,"lat":49.478938},"ril100":"RLSM"},"arrival":{"platform":"1","scheduledTime":"2023-10-18T12:58:00.000Z","time":"2023-10-18T12:58:00.000Z","reihung":false},"departure":{"platform":"1","scheduledTime":"2023-10-18T12:58:00.000Z","time":"2023-10-18T12:58:00.000Z","reihung":false}},{"station":{"evaNumber":"8000236","name":"Ludwigshafen(Rh)Hbf","coordinates":{"lng":8.433769,"lat":49.477257},"ril100":"RL"},"arrival":{"platform":"5","scheduledTime":"2023-10-18T13:01:00.000Z","time":"2023-10-18T13:01:00.000Z","reihung":false},"departure":{"platform":"5","scheduledTime":"2023-10-18T13:03:00.000Z","time":"2023-10-18T13:03:00.000Z","reihung":false}},{"station":{"evaNumber":"8003765","name":"Ludwigshafen-Mundenheim","coordinates":{"lng":8.421158,"lat":49.461544},"ril100":"RLUM"},"arrival":{"platform":"2","scheduledTime":"2023-10-18T13:05:00.000Z","time":"2023-10-18T13:05:00.000Z","reihung":false},"departure":{"platform":"2","scheduledTime":"2023-10-18T13:06:00.000Z","time":"2023-10-18T13:06:00.000Z","reihung":false}},{"station":{"evaNumber":"8003767","name":"Ludwigshafen-Rheingönheim","coordinates":{"lng":8.409562,"lat":49.447449},"ril100":"RLUR"},"arrival":{"platform":"2","scheduledTime":"2023-10-18T13:07:00.000Z","time":"2023-10-18T13:07:00.000Z","reihung":false},"departure":{"platform":"2","scheduledTime":"2023-10-18T13:08:00.000Z","time":"2023-10-18T13:08:00.000Z","reihung":false}},{"station":{"evaNumber":"8003687","name":"Limburgerhof","coordinates":{"lng":8.39063,"lat":49.424068},"ril100":"RLI"},"arrival":{"platform":"3","scheduledTime":"2023-10-18T13:10:00.000Z","time":"2023-10-18T13:10:00.000Z","reihung":false},"departure":{"platform":"3","scheduledTime":"2023-10-18T13:11:00.000Z","time":"2023-10-18T13:11:00.000Z","reihung":false}},{"station":{"evaNumber":"8000326","name":"Schifferstadt","coordinates":{"lng":8.365047,"lat":49.392687},"ril100":"RSD"},"arrival":{"platform":"3","scheduledTime":"2023-10-18T13:14:00.000Z","time":"2023-10-18T13:14:00.000Z","reihung":false},"departure":{"platform":"3","scheduledTime":"2023-10-18T13:15:00.000Z","time":"2023-10-18T13:15:00.000Z","reihung":false}},{"station":{"evaNumber":"8001057","name":"Böhl-Iggelheim","coordinates":{"lng":8.303758,"lat":49.379733},"ril100":"RBOE"},"arrival":{"platform":"2","scheduledTime":"2023-10-18T13:18:00.000Z","time":"2023-10-18T13:18:00.000Z","reihung":false},"departure":{"platform":"2","scheduledTime":"2023-10-18T13:19:00.000Z","time":"2023-10-18T13:19:00.000Z","reihung":false}},{"station":{"evaNumber":"8002632","name":"Haßloch(Pfalz)","coordinates":{"lng":8.253248,"lat":49.372021},"ril100":"RHLO"},"arrival":{"platform":"2","scheduledTime":"2023-10-18T13:22:00.000Z","time":"2023-10-18T13:22:00.000Z","reihung":false},"departure":{"platform":"2","scheduledTime":"2023-10-18T13:22:00.000Z","time":"2023-10-18T13:22:00.000Z","reihung":false}},{"station":{"evaNumber":"8004489","name":"Neustadt-Böbig","coordinates":{"lng":8.157639,"lat":49.353844},"ril100":"RNBO"},"arrival":{"platform":"1","scheduledTime":"2023-10-18T13:28:00.000Z","time":"2023-10-18T13:28:00.000Z","reihung":false},"departure":{"platform":"1","scheduledTime":"2023-10-18T13:28:00.000Z","time":"2023-10-18T13:28:00.000Z","reihung":false}},{"station":{"evaNumber":"8000275","name":"Neustadt(Weinstr)Hbf","coordinates":{"lng":8.14038,"lat":49.349601},"ril100":"RN"},"arrival":{"platform":"2","scheduledTime":"2023-10-18T13:31:00.000Z","time":"2023-10-18T13:31:00.000Z","reihung":false},"departure":{"platform":"2","scheduledTime":"2023-10-18T13:32:00.000Z","time":"2023-10-18T13:32:00.000Z","reihung":false}},{"station":{"evaNumber":"8003497","name":"Lambrecht(Pfalz)","coordinates":{"lng":8.074408,"lat":49.373252},"ril100":"RLBP"},"arrival":{"platform":"3","scheduledTime":"2023-10-18T13:37:00.000Z","time":"2023-10-18T13:37:00.000Z","reihung":false},"departure":{"platform":"3","scheduledTime":"2023-10-18T13:37:00.000Z","time":"2023-10-18T13:37:00.000Z","reihung":false}},{"station":{"evaNumber":"8079146","name":"Neidenfels","coordinates":{"lng":8.045256,"lat":49.386215}},"arrival":{"platform":"1","scheduledTime":"2023-10-18T13:40:00.000Z","time":"2023-10-18T13:40:00.000Z","reihung":false},"departure":{"platform":"1","scheduledTime":"2023-10-18T13:40:00.000Z","time":"2023-10-18T13:40:00.000Z","reihung":false}},{"station":{"evaNumber":"8006261","name":"Weidenthal","coordinates":{"lng":7.99453,"lat":49.417578},"ril100":"RWD"},"arrival":{"platform":"1","scheduledTime":"2023-10-18T13:44:00.000Z","time":"2023-10-18T13:44:00.000Z","reihung":false},"departure":{"platform":"1","scheduledTime":"2023-10-18T13:45:00.000Z","time":"2023-10-18T13:45:00.000Z","reihung":false}},{"station":{"evaNumber":"8002036","name":"Frankenstein(Pfalz)","coordinates":{"lng":7.969818,"lat":49.438927},"ril100":"RFST"},"arrival":{"platform":"1","scheduledTime":"2023-10-18T13:48:00.000Z","time":"2023-10-18T13:48:00.000Z","reihung":false},"departure":{"platform":"1","scheduledTime":"2023-10-18T13:48:00.000Z","time":"2023-10-18T13:48:00.000Z","reihung":false}},{"station":{"evaNumber":"8002875","name":"Hochspeyer","coordinates":{"lng":7.904557,"lat":49.444195},"ril100":"SHY"},"arrival":{"platform":"2","scheduledTime":"2023-10-18T13:52:00.000Z","time":"2023-10-18T13:52:00.000Z","reihung":false},"departure":{"platform":"2","scheduledTime":"2023-10-18T13:53:00.000Z","time":"2023-10-18T13:53:00.000Z","reihung":false}},{"station":{"evaNumber":"8000189","name":"Kaiserslautern Hbf","coordinates":{"lng":7.768765,"lat":49.436042},"ril100":"SKL"},"arrival":{"platform":"3","scheduledTime":"2023-10-18T13:59:00.000Z","time":"2023-10-18T13:59:00.000Z","reihung":false}}],"finalDestination":"Kaiserslautern Hbf","jid":"1|253886|0|80|18102023","messages":[{"type":"A","code":"FB","prio":260,"icoX":6,"txtN":"Fahrradmitnahme begrenzt möglich"},{"type":"A","code":"EH","prio":560,"icoX":7,"txtN":"Fahrzeuggebundene Einstiegshilfe vorhanden"}],"type":"JNY"}],"segmentTypes":["S"],"tarifSet":[{"fares":[{"price":-1,"moreExpensiveAvailable":false,"bookable":true,"upsell":false,"targetContext":"M"}]}]},{"checksum":"db4e8ee6_3","cid":"C-1","date":"2023-10-17T22:00:00.000Z","duration":5400000,"changes":0,"isRideable":true,"arrival":{"platform":"3","scheduledTime":"2023-10-18T14:33:00.000Z","time":"2023-10-18T14:33:00.000Z","reihung":false},"departure":{"platform":"2","scheduledTime":"2023-10-18T13:03:00.000Z","time":"2023-10-18T13:03:00.000Z","reihung":false},"segments":[{"arrival":{"platform":"3","scheduledTime":"2023-10-18T14:33:00.000Z","time":"2023-10-18T14:33:00.000Z","reihung":false},"departure":{"platform":"2","scheduledTime":"2023-10-18T13:03:00.000Z","time":"2023-10-18T13:03:00.000Z","reihung":false},"duration":5400000,"train":{"name":"S 1","line":"1","admin":"801539","number":"38132","type":"S","operator":{"name":"DB Regio AG Mitte","icoX":2}},"segmentStart":{"name":"Heidelberg Hbf","evaNumber":"8000156"},"segmentDestination":{"name":"Kaiserslautern Hbf","evaNumber":"8000189"},"stops":[{"station":{"evaNumber":"8000156","name":"Heidelberg Hbf","coordinates":{"lng":8.67548,"lat":49.403582},"ril100":"RH"},"departure":{"platform":"2","scheduledTime":"2023-10-18T13:03:00.000Z","time":"2023-10-18T13:03:00.000Z","reihung":false}},{"station":{"evaNumber":"8002687","name":"Heidelberg-Pfaffengrund/Wieblingen","coordinates":{"lng":8.641474,"lat":49.411969},"ril100":"RHBP"},"arrival":{"platform":"1","scheduledTime":"2023-10-18T13:06:00.000Z","time":"2023-10-18T13:06:00.000Z","reihung":false},"departure":{"platform":"1","scheduledTime":"2023-10-18T13:06:00.000Z","time":"2023-10-18T13:06:00.000Z","reihung":false}},{"station":{"evaNumber":"8003842","name":"Mannheim-Friedrichsfeld Süd","coordinates":{"lng":8.572239,"lat":49.438217},"ril100":"RMFS"},"arrival":{"platform":"1","scheduledTime":"2023-10-18T13:10:00.000Z","time":"2023-10-18T13:10:00.000Z","reihung":false},"departure":{"platform":"1","scheduledTime":"2023-10-18T13:10:00.000Z","time":"2023-10-18T13:10:00.000Z","reihung":false}},{"station":{"evaNumber":"8003847","name":"Mannheim-Seckenheim","coordinates":{"lng":8.538098,"lat":49.451413},"ril100":"RMSE"},"arrival":{"platform":"1","scheduledTime":"2023-10-18T13:13:00.000Z","time":"2023-10-18T13:13:00.000Z","reihung":false},"departure":{"platform":"1","scheduledTime":"2023-10-18T13:13:00.000Z","time":"2023-10-18T13:13:00.000Z","reihung":false}},{"station":{"evaNumber":"8003841","name":"Mannheim ARENA/Maimarkt","coordinates":{"lng":8.515922,"lat":49.45998},"ril100":"RMSM"},"arrival":{"platform":"1","scheduledTime":"2023-10-18T13:15:00.000Z","time":"2023-10-18T13:15:00.000Z","reihung":false},"departure":{"platform":"1","scheduledTime":"2023-10-18T13:15:00.000Z","time":"2023-10-18T13:15:00.000Z","reihung":false}},{"station":{"evaNumber":"8000244","name":"Mannheim Hbf","coordinates":{"lng":8.469268,"lat":49.479181},"ril100":"RM"},"arrival":{"platform":"1","scheduledTime":"2023-10-18T13:20:00.000Z","time":"2023-10-18T13:20:00.000Z","reihung":false},"departure":{"platform":"1","scheduledTime":"2023-10-18T13:26:00.000Z","time":"2023-10-18T13:26:00.000Z","reihung":false}},{"station":{"evaNumber":"8003759","name":"Ludwigshafen(Rhein) Mitte","coordinates":{"lng":8.452215,"lat":49.478938},"ril100":"RLSM"},"arrival":{"platform":"1","scheduledTime":"2023-10-18T13:28:00.000Z","time":"2023-10-18T13:28:00.000Z","reihung":false},"departure":{"platform":"1","scheduledTime":"2023-10-18T13:28:00.000Z","time":"2023-10-18T13:28:00.000Z","reihung":false}},{"station":{"evaNumber":"8000236","name":"Ludwigshafen(Rh)Hbf","coordinates":{"lng":8.433769,"lat":49.477257},"ril100":"RL"},"arrival":{"platform":"5","scheduledTime":"2023-10-18T13:31:00.000Z","time":"2023-10-18T13:31:00.000Z","reihung":false},"departure":{"platform":"5","scheduledTime":"2023-10-18T13:31:00.000Z","time":"2023-10-18T13:31:00.000Z","reihung":false}},{"station":{"evaNumber":"8003687","name":"Limburgerhof","coordinates":{"lng":8.39063,"lat":49.424068},"ril100":"RLI"},"arrival":{"platform":"3","scheduledTime":"2023-10-18T13:37:00.000Z","time":"2023-10-18T13:37:00.000Z","reihung":false},"departure":{"platform":"3","scheduledTime":"2023-10-18T13:37:00.000Z","time":"2023-10-18T13:37:00.000Z","reihung":false}},{"station":{"evaNumber":"8000326","name":"Schifferstadt","coordinates":{"lng":8.365047,"lat":49.392687},"ril100":"RSD"},"arrival":{"platform":"3","scheduledTime":"2023-10-18T13:41:00.000Z","time":"2023-10-18T13:41:00.000Z","reihung":false},"departure":{"platform":"3","scheduledTime":"2023-10-18T13:41:00.000Z","time":"2023-10-18T13:41:00.000Z","reihung":false}},{"station":{"evaNumber":"8001057","name":"Böhl-Iggelheim","coordinates":{"lng":8.303758,"lat":49.379733},"ril100":"RBOE"},"arrival":{"platform":"2","scheduledTime":"2023-10-18T13:45:00.000Z","time":"2023-10-18T13:45:00.000Z","reihung":false},"departure":{"platform":"2","scheduledTime":"2023-10-18T13:45:00.000Z","time":"2023-10-18T13:45:00.000Z","reihung":false}},{"station":{"evaNumber":"8002632","name":"Haßloch(Pfalz)","coordinates":{"lng":8.253248,"lat":49.372021},"ril100":"RHLO"},"arrival":{"platform":"2","scheduledTime":"2023-10-18T13:48:00.000Z","time":"2023-10-18T13:48:00.000Z","reihung":false},"departure":{"platform":"2","scheduledTime":"2023-10-18T13:48:00.000Z","time":"2023-10-18T13:48:00.000Z","reihung":false}},{"station":{"evaNumber":"8004489","name":"Neustadt-Böbig","coordinates":{"lng":8.157639,"lat":49.353844},"ril100":"RNBO"},"arrival":{"platform":"1","scheduledTime":"2023-10-18T13:54:00.000Z","time":"2023-10-18T13:54:00.000Z","reihung":false},"departure":{"platform":"1","scheduledTime":"2023-10-18T13:54:00.000Z","time":"2023-10-18T13:54:00.000Z","reihung":false}},{"station":{"evaNumber":"8000275","name":"Neustadt(Weinstr)Hbf","coordinates":{"lng":8.14038,"lat":49.349601},"ril100":"RN"},"arrival":{"platform":"1","scheduledTime":"2023-10-18T13:57:00.000Z","time":"2023-10-18T13:57:00.000Z","reihung":false},"departure":{"platform":"1","scheduledTime":"2023-10-18T14:03:00.000Z","time":"2023-10-18T14:03:00.000Z","reihung":false}},{"station":{"evaNumber":"8003497","name":"Lambrecht(Pfalz)","coordinates":{"lng":8.074408,"lat":49.373252},"ril100":"RLBP"},"arrival":{"platform":"3","scheduledTime":"2023-10-18T14:09:00.000Z","time":"2023-10-18T14:09:00.000Z","reihung":false},"departure":{"platform":"3","scheduledTime":"2023-10-18T14:09:00.000Z","time":"2023-10-18T14:09:00.000Z","reihung":false}},{"station":{"evaNumber":"8079146","name":"Neidenfels","coordinates":{"lng":8.045256,"lat":49.386215}},"arrival":{"platform":"1","scheduledTime":"2023-10-18T14:12:00.000Z","time":"2023-10-18T14:12:00.000Z","reihung":false},"departure":{"platform":"1","scheduledTime":"2023-10-18T14:12:00.000Z","time":"2023-10-18T14:12:00.000Z","reihung":false}},{"station":{"evaNumber":"8006261","name":"Weidenthal","coordinates":{"lng":7.99453,"lat":49.417578},"ril100":"RWD"},"arrival":{"platform":"1","scheduledTime":"2023-10-18T14:16:00.000Z","time":"2023-10-18T14:16:00.000Z","reihung":false},"departure":{"platform":"1","scheduledTime":"2023-10-18T14:17:00.000Z","time":"2023-10-18T14:17:00.000Z","reihung":false}},{"station":{"evaNumber":"8002036","name":"Frankenstein(Pfalz)","coordinates":{"lng":7.969818,"lat":49.438927},"ril100":"RFST"},"arrival":{"platform":"1","scheduledTime":"2023-10-18T14:20:00.000Z","time":"2023-10-18T14:20:00.000Z","reihung":false},"departure":{"platform":"1","scheduledTime":"2023-10-18T14:20:00.000Z","time":"2023-10-18T14:20:00.000Z","reihung":false}},{"station":{"evaNumber":"8002875","name":"Hochspeyer","coordinates":{"lng":7.904557,"lat":49.444195},"ril100":"SHY"},"arrival":{"platform":"2","scheduledTime":"2023-10-18T14:24:00.000Z","time":"2023-10-18T14:24:00.000Z","reihung":false},"departure":{"platform":"2","scheduledTime":"2023-10-18T14:25:00.000Z","time":"2023-10-18T14:25:00.000Z","reihung":false}},{"station":{"evaNumber":"8000189","name":"Kaiserslautern Hbf","coordinates":{"lng":7.768765,"lat":49.436042},"ril100":"SKL"},"arrival":{"platform":"3","scheduledTime":"2023-10-18T14:33:00.000Z","time":"2023-10-18T14:33:00.000Z","reihung":false}}],"finalDestination":"Homburg(Saar)Hbf","jid":"1|253774|0|80|18102023","messages":[{"type":"A","code":"FB","prio":260,"icoX":6,"txtN":"Fahrradmitnahme begrenzt möglich"},{"type":"A","code":"EH","prio":560,"icoX":7,"txtN":"Fahrzeuggebundene Einstiegshilfe vorhanden"}],"type":"JNY"}],"segmentTypes":["S"],"tarifSet":[{"fares":[{"price":-1,"moreExpensiveAvailable":false,"bookable":true,"upsell":false,"targetContext":"M"}]}]},{"checksum":"b4d96476_3","cid":"C-2","date":"2023-10-17T22:00:00.000Z","duration":4260000,"changes":1,"isRideable":true,"arrival":{"platform":"2","scheduledTime":"2023-10-18T14:24:00.000Z","time":"2023-10-18T14:24:00.000Z","reihung":false},"departure":{"platform":"5","scheduledTime":"2023-10-18T13:13:00.000Z","time":"2023-10-18T13:13:00.000Z","reihung":false},"segments":[{"arrival":{"platform":"1","scheduledTime":"2023-10-18T13:29:00.000Z","time":"2023-10-18T13:29:00.000Z","reihung":false},"departure":{"platform":"5","scheduledTime":"2023-10-18T13:13:00.000Z","time":"2023-10-18T13:13:00.000Z","reihung":false},"duration":960000,"train":{"name":"S 3","line":"3","admin":"801539","number":"38338","type":"S","operator":{"name":"DB Regio AG Mitte","icoX":2}},"changeDuration":10,"segmentStart":{"name":"Heidelberg Hbf","evaNumber":"8000156"},"segmentDestination":{"name":"Mannheim Hbf","evaNumber":"8000244"},"stops":[{"station":{"evaNumber":"8000156","name":"Heidelberg Hbf","coordinates":{"lng":8.67548,"lat":49.403582},"ril100":"RH"},"departure":{"platform":"5","scheduledTime":"2023-10-18T13:13:00.000Z","time":"2023-10-18T13:13:00.000Z","reihung":false}},{"station":{"evaNumber":"8002687","name":"Heidelberg-Pfaffengrund/Wieblingen","coordinates":{"lng":8.641474,"lat":49.411969},"ril100":"RHBP"},"arrival":{"platform":"1","scheduledTime":"2023-10-18T13:15:00.000Z","time":"2023-10-18T13:15:00.000Z","reihung":false},"departure":{"platform":"1","scheduledTime":"2023-10-18T13:16:00.000Z","time":"2023-10-18T13:16:00.000Z","reihung":false}},{"station":{"evaNumber":"8003842","name":"Mannheim-Friedrichsfeld Süd","coordinates":{"lng":8.572239,"lat":49.438217},"ril100":"RMFS"},"arrival":{"platform":"1","scheduledTime":"2023-10-18T13:19:00.000Z","time":"2023-10-18T13:19:00.000Z","reihung":false},"departure":{"platform":"1","scheduledTime":"2023-10-18T13:20:00.000Z","time":"2023-10-18T13:20:00.000Z","reihung":false}},{"station":{"evaNumber":"8000244","name":"Mannheim Hbf","coordinates":{"lng":8.469268,"lat":49.479181},"ril100":"RM"},"arrival":{"platform":"1","scheduledTime":"2023-10-18T13:29:00.000Z","time":"2023-10-18T13:29:00.000Z","reihung":false}}],"finalDestination":"Schifferstadt","jid":"1|254220|0|80|18102023","messages":[{"type":"A","code":"FB","prio":260,"icoX":6,"txtN":"Fahrradmitnahme begrenzt möglich"},{"type":"A","code":"EH","prio":560,"icoX":7,"txtN":"Fahrzeuggebundene Einstiegshilfe vorhanden"}],"type":"JNY"},{"arrival":{"platform":"2","scheduledTime":"2023-10-18T14:24:00.000Z","time":"2023-10-18T14:24:00.000Z","reihung":false},"departure":{"platform":"1","scheduledTime":"2023-10-18T13:39:00.000Z","time":"2023-10-18T13:39:00.000Z","reihung":false},"duration":2700000,"train":{"name":"RE 1","line":"1","admin":"800640","number":"4129","type":"RE","operator":{"name":"DB Regio AG Mitte SÜWEX","icoX":9}},"segmentStart":{"name":"Mannheim Hbf","evaNumber":"8000244"},"segmentDestination":{"name":"Kaiserslautern Hbf","evaNumber":"8000189"},"stops":[{"station":{"evaNumber":"8000244","name":"Mannheim Hbf","coordinates":{"lng":8.469268,"lat":49.479181},"ril100":"RM"},"departure":{"platform":"1","scheduledTime":"2023-10-18T13:39:00.000Z","time":"2023-10-18T13:39:00.000Z","reihung":false}},{"station":{"evaNumber":"8000236","name":"Ludwigshafen(Rh)Hbf","coordinates":{"lng":8.433769,"lat":49.477257},"ril100":"RL"},"arrival":{"platform":"4","scheduledTime":"2023-10-18T13:43:00.000Z","time":"2023-10-18T13:43:00.000Z","reihung":false},"departure":{"platform":"4","scheduledTime":"2023-10-18T13:44:00.000Z","time":"2023-10-18T13:44:00.000Z","reihung":false}},{"station":{"evaNumber":"8000275","name":"Neustadt(Weinstr)Hbf","coordinates":{"lng":8.14038,"lat":49.349601},"ril100":"RN"},"arrival":{"platform":"2","scheduledTime":"2023-10-18T13:59:00.000Z","time":"2023-10-18T13:59:00.000Z","reihung":false},"departure":{"platform":"2","scheduledTime":"2023-10-18T14:00:00.000Z","time":"2023-10-18T14:00:00.000Z","reihung":false}},{"station":{"evaNumber":"8000189","name":"Kaiserslautern Hbf","coordinates":{"lng":7.768765,"lat":49.436042},"ril100":"SKL"},"arrival":{"platform":"2","scheduledTime":"2023-10-18T14:24:00.000Z","time":"2023-10-18T14:24:00.000Z","reihung":false}}],"finalDestination":"Trier Hbf","jid":"1|255355|0|80|18102023","messages":[{"type":"A","code":"FB","prio":260,"icoX":6,"txtN":"Fahrradmitnahme begrenzt möglich"},{"type":"A","code":"RC","prio":320,"icoX":7,"txtN":"Reservierung an DB-Automaten/Reisezentren/vielen DB-Agenturen möglich"},{"type":"A","code":"EH","prio":560,"icoX":7,"txtN":"Fahrzeuggebundene Einstiegshilfe vorhanden"},{"type":"A","code":"LS","prio":605,"icoX":7,"txtN":"Laptop-Steckdosen"}],"type":"JNY"}],"segmentTypes":["S","RE"],"tarifSet":[{"fares":[{"price":-1,"moreExpensiveAvailable":false,"bookable":true,"upsell":false,"targetContext":"M"}]}]},{"checksum":"8b527705_3","cid":"C-3","date":"2023-10-17T22:00:00.000Z","duration":3840000,"changes":1,"isRideable":true,"arrival":{"platform":"2","scheduledTime":"2023-10-18T14:24:00.000Z","time":"2023-10-18T14:24:00.000Z","reihung":false},"departure":{"platform":"5","scheduledTime":"2023-10-18T13:20:00.000Z","time":"2023-10-18T13:20:00.000Z","reihung":false},"segments":[{"arrival":{"platform":"8","scheduledTime":"2023-10-18T13:31:00.000Z","time":"2023-10-18T13:31:00.000Z","reihung":false},"departure":{"platform":"5","scheduledTime":"2023-10-18T13:20:00.000Z","time":"2023-10-18T13:20:00.000Z","reihung":false},"duration":660000,"train":{"name":"ICE 710","line":"45","admin":"80","number":"710","type":"ICE","operator":{"name":"DB Fernverkehr AG","icoX":10}},"changeDuration":8,"segmentStart":{"name":"Heidelberg Hbf","evaNumber":"8000156"},"segmentDestination":{"name":"Mannheim Hbf","evaNumber":"8000244"},"stops":[{"station":{"evaNumber":"8000156","name":"Heidelberg Hbf","coordinates":{"lng":8.67548,"lat":49.403582},"ril100":"RH"},"departure":{"platform":"5","scheduledTime":"2023-10-18T13:20:00.000Z","time":"2023-10-18T13:20:00.000Z","reihung":false},"auslastung":{"first":1,"second":1}},{"station":{"evaNumber":"8000244","name":"Mannheim Hbf","coordinates":{"lng":8.469268,"lat":49.479181},"ril100":"RM"},"arrival":{"platform":"8","scheduledTime":"2023-10-18T13:31:00.000Z","time":"2023-10-18T13:31:00.000Z","reihung":false}}],"finalDestination":"Köln Hbf","jid":"1|209279|0|80|18102023","auslastung":{"first":1,"second":1},"messages":[{"type":"A","code":"CK","prio":200,"icoX":7,"txtN":"Sicher & kontaktlos ohne Ticketkontrolle reisen mit Komfort Check-in"},{"type":"A","code":"BR","prio":450,"icoX":11,"txtN":"Bordrestaurant"},{"type":"A","code":"EH","prio":560,"icoX":7,"txtN":"Fahrzeuggebundene Einstiegshilfe vorhanden"}],"type":"JNY"},{"arrival":{"platform":"2","scheduledTime":"2023-10-18T14:24:00.000Z","time":"2023-10-18T14:24:00.000Z","reihung":false},"departure":{"platform":"1","scheduledTime":"2023-10-18T13:39:00.000Z","time":"2023-10-18T13:39:00.000Z","reihung":false},"duration":2700000,"train":{"name":"RE 1","line":"1","admin":"800640","number":"4129","type":"RE","operator":{"name":"DB Regio AG Mitte SÜWEX","icoX":9}},"segmentStart":{"name":"Mannheim Hbf","evaNumber":"8000244"},"segmentDestination":{"name":"Kaiserslautern Hbf","evaNumber":"8000189"},"stops":[{"station":{"evaNumber":"8000244","name":"Mannheim Hbf","coordinates":{"lng":8.469268,"lat":49.479181},"ril100":"RM"},"departure":{"platform":"1","scheduledTime":"2023-10-18T13:39:00.000Z","time":"2023-10-18T13:39:00.000Z","reihung":false}},{"station":{"evaNumber":"8000236","name":"Ludwigshafen(Rh)Hbf","coordinates":{"lng":8.433769,"lat":49.477257},"ril100":"RL"},"arrival":{"platform":"4","scheduledTime":"2023-10-18T13:43:00.000Z","time":"2023-10-18T13:43:00.000Z","reihung":false},"departure":{"platform":"4","scheduledTime":"2023-10-18T13:44:00.000Z","time":"2023-10-18T13:44:00.000Z","reihung":false}},{"station":{"evaNumber":"8000275","name":"Neustadt(Weinstr)Hbf","coordinates":{"lng":8.14038,"lat":49.349601},"ril100":"RN"},"arrival":{"platform":"2","scheduledTime":"2023-10-18T13:59:00.000Z","time":"2023-10-18T13:59:00.000Z","reihung":false},"departure":{"platform":"2","scheduledTime":"2023-10-18T14:00:00.000Z","time":"2023-10-18T14:00:00.000Z","reihung":false}},{"station":{"evaNumber":"8000189","name":"Kaiserslautern Hbf","coordinates":{"lng":7.768765,"lat":49.436042},"ril100":"SKL"},"arrival":{"platform":"2","scheduledTime":"2023-10-18T14:24:00.000Z","time":"2023-10-18T14:24:00.000Z","reihung":false}}],"finalDestination":"Trier Hbf","jid":"1|255355|0|80|18102023","messages":[{"type":"A","code":"FB","prio":260,"icoX":6,"txtN":"Fahrradmitnahme begrenzt möglich"},{"type":"A","code":"RC","prio":320,"icoX":7,"txtN":"Reservierung an DB-Automaten/Reisezentren/vielen DB-Agenturen möglich"},{"type":"A","code":"EH","prio":560,"icoX":7,"txtN":"Fahrzeuggebundene Einstiegshilfe vorhanden"},{"type":"A","code":"LS","prio":605,"icoX":7,"txtN":"Laptop-Steckdosen"}],"type":"JNY"}],"segmentTypes":["ICE","RE"]},{"checksum":"80dfba60_3","cid":"C-4","date":"2023-10-17T22:00:00.000Z","duration":5160000,"changes":0,"isRideable":true,"arrival":{"platform":"3","scheduledTime":"2023-10-18T14:59:00.000Z","time":"2023-10-18T14:59:00.000Z","reihung":false},"departure":{"platform":"2","scheduledTime":"2023-10-18T13:33:00.000Z","time":"2023-10-18T13:33:00.000Z","reihung":false},"segments":[{"arrival":{"platform":"3","scheduledTime":"2023-10-18T14:59:00.000Z","time":"2023-10-18T14:59:00.000Z","reihung":false},"departure":{"platform":"2","scheduledTime":"2023-10-18T13:33:00.000Z","time":"2023-10-18T13:33:00.000Z","reihung":false},"duration":5160000,"train":{"name":"S 2","line":"2","admin":"801539","number":"38240","type":"S","operator":{"name":"DB Regio AG Mitte","icoX":2}},"segmentStart":{"name":"Heidelberg Hbf","evaNumber":"8000156"},"segmentDestination":{"name":"Kaiserslautern Hbf","evaNumber":"8000189"},"stops":[{"station":{"evaNumber":"8000156","name":"Heidelberg Hbf","coordinates":{"lng":8.67548,"lat":49.403582},"ril100":"RH"},"departure":{"platform":"2","scheduledTime":"2023-10-18T13:33:00.000Z","time":"2023-10-18T13:33:00.000Z","reihung":false}},{"station":{"evaNumber":"8002687","name":"Heidelberg-Pfaffengrund/Wieblingen","coordinates":{"lng":8.641474,"lat":49.411969},"ril100":"RHBP"},"arrival":{"platform":"1","scheduledTime":"2023-10-18T13:35:00.000Z","time":"2023-10-18T13:35:00.000Z","reihung":false},"departure":{"platform":"1","scheduledTime":"2023-10-18T13:36:00.000Z","time":"2023-10-18T13:36:00.000Z","reihung":false}},{"station":{"evaNumber":"8003842","name":"Mannheim-Friedrichsfeld Süd","coordinates":{"lng":8.572239,"lat":49.438217},"ril100":"RMFS"},"arrival":{"platform":"1","scheduledTime":"2023-10-18T13:40:00.000Z","time":"2023-10-18T13:40:00.000Z","reihung":false},"departure":{"platform":"1","scheduledTime":"2023-10-18T13:40:00.000Z","time":"2023-10-18T13:40:00.000Z","reihung":false}},{"station":{"evaNumber":"8003847","name":"Mannheim-Seckenheim","coordinates":{"lng":8.538098,"lat":49.451413},"ril100":"RMSE"},"arrival":{"platform":"1","scheduledTime":"2023-10-18T13:42:00.000Z","time":"2023-10-18T13:42:00.000Z","reihung":false},"departure":{"platform":"1","scheduledTime":"2023-10-18T13:43:00.000Z","time":"2023-10-18T13:43:00.000Z","reihung":false}},{"station":{"evaNumber":"8003841","name":"Mannheim ARENA/Maimarkt","coordinates":{"lng":8.515922,"lat":49.45998},"ril100":"RMSM"},"arrival":{"platform":"1","scheduledTime":"2023-10-18T13:45:00.000Z","time":"2023-10-18T13:45:00.000Z","reihung":false},"departure":{"platform":"1","scheduledTime":"2023-10-18T13:45:00.000Z","time":"2023-10-18T13:45:00.000Z","reihung":false}},{"station":{"evaNumber":"8000244","name":"Mannheim Hbf","coordinates":{"lng":8.469268,"lat":49.479181},"ril100":"RM"},"arrival":{"platform":"1","scheduledTime":"2023-10-18T13:49:00.000Z","time":"2023-10-18T13:49:00.000Z","reihung":false},"departure":{"platform":"1","scheduledTime":"2023-10-18T13:56:00.000Z","time":"2023-10-18T13:56:00.000Z","reihung":false}},{"station":{"evaNumber":"8003759","name":"Ludwigshafen(Rhein) Mitte","coordinates":{"lng":8.452215,"lat":49.478938},"ril100":"RLSM"},"arrival":{"platform":"1","scheduledTime":"2023-10-18T13:58:00.000Z","time":"2023-10-18T13:58:00.000Z","reihung":false},"departure":{"platform":"1","scheduledTime":"2023-10-18T13:58:00.000Z","time":"2023-10-18T13:58:00.000Z","reihung":false}},{"station":{"evaNumber":"8000236","name":"Ludwigshafen(Rh)Hbf","coordinates":{"lng":8.433769,"lat":49.477257},"ril100":"RL"},"arrival":{"platform":"5","scheduledTime":"2023-10-18T14:01:00.000Z","time":"2023-10-18T14:01:00.000Z","reihung":false},"departure":{"platform":"5","scheduledTime":"2023-10-18T14:03:00.000Z","time":"2023-10-18T14:03:00.000Z","reihung":false}},{"station":{"evaNumber":"8003765","name":"Ludwigshafen-Mundenheim","coordinates":{"lng":8.421158,"lat":49.461544},"ril100":"RLUM"},"arrival":{"platform":"2","scheduledTime":"2023-10-18T14:06:00.000Z","time":"2023-10-18T14:06:00.000Z","reihung":false},"departure":{"platform":"2","scheduledTime":"2023-10-18T14:07:00.000Z","time":"2023-10-18T14:07:00.000Z","reihung":false}},{"station":{"evaNumber":"8003767","name":"Ludwigshafen-Rheingönheim","coordinates":{"lng":8.409562,"lat":49.447449},"ril100":"RLUR"},"arrival":{"platform":"2","scheduledTime":"2023-10-18T14:09:00.000Z","time":"2023-10-18T14:09:00.000Z","reihung":false},"departure":{"platform":"2","scheduledTime":"2023-10-18T14:10:00.000Z","time":"2023-10-18T14:10:00.000Z","reihung":false}},{"station":{"evaNumber":"8003687","name":"Limburgerhof","coordinates":{"lng":8.39063,"lat":49.424068},"ril100":"RLI"},"arrival":{"platform":"3","scheduledTime":"2023-10-18T14:13:00.000Z","time":"2023-10-18T14:13:00.000Z","reihung":false},"departure":{"platform":"3","scheduledTime":"2023-10-18T14:13:00.000Z","time":"2023-10-18T14:13:00.000Z","reihung":false}},{"station":{"evaNumber":"8000326","name":"Schifferstadt","coordinates":{"lng":8.365047,"lat":49.392687},"ril100":"RSD"},"arrival":{"platform":"3","scheduledTime":"2023-10-18T14:16:00.000Z","time":"2023-10-18T14:16:00.000Z","reihung":false},"departure":{"platform":"3","scheduledTime":"2023-10-18T14:16:00.000Z","time":"2023-10-18T14:16:00.000Z","reihung":false}},{"station":{"evaNumber":"8001057","name":"Böhl-Iggelheim","coordinates":{"lng":8.303758,"lat":49.379733},"ril100":"RBOE"},"arrival":{"platform":"2","scheduledTime":"2023-10-18T14:20:00.000Z","time":"2023-10-18T14:20:00.000Z","reihung":false},"departure":{"platform":"2","scheduledTime":"2023-10-18T14:20:00.000Z","time":"2023-10-18T14:20:00.000Z","reihung":false}},{"station":{"evaNumber":"8002632","name":"Haßloch(Pfalz)","coordinates":{"lng":8.253248,"lat":49.372021},"ril100":"RHLO"},"arrival":{"platform":"2","scheduledTime":"2023-10-18T14:23:00.000Z","time":"2023-10-18T14:23:00.000Z","reihung":false},"departure":{"platform":"2","scheduledTime":"2023-10-18T14:24:00.000Z","time":"2023-10-18T14:24:00.000Z","reihung":false}},{"station":{"evaNumber":"8004489","name":"Neustadt-Böbig","coordinates":{"lng":8.157639,"lat":49.353844},"ril100":"RNBO"},"arrival":{"platform":"1","scheduledTime":"2023-10-18T14:28:00.000Z","time":"2023-10-18T14:28:00.000Z","reihung":false},"departure":{"platform":"1","scheduledTime":"2023-10-18T14:29:00.000Z","time":"2023-10-18T14:29:00.000Z","reihung":false}},{"station":{"evaNumber":"8000275","name":"Neustadt(Weinstr)Hbf","coordinates":{"lng":8.14038,"lat":49.349601},"ril100":"RN"},"arrival":{"platform":"1","scheduledTime":"2023-10-18T14:31:00.000Z","time":"2023-10-18T14:31:00.000Z","reihung":false},"departure":{"platform":"1","scheduledTime":"2023-10-18T14:32:00.000Z","time":"2023-10-18T14:32:00.000Z","reihung":false}},{"station":{"evaNumber":"8003497","name":"Lambrecht(Pfalz)","coordinates":{"lng":8.074408,"lat":49.373252},"ril100":"RLBP"},"arrival":{"platform":"3","scheduledTime":"2023-10-18T14:37:00.000Z","time":"2023-10-18T14:37:00.000Z","reihung":false},"departure":{"platform":"3","scheduledTime":"2023-10-18T14:38:00.000Z","time":"2023-10-18T14:38:00.000Z","reihung":false}},{"station":{"evaNumber":"8079146","name":"Neidenfels","coordinates":{"lng":8.045256,"lat":49.386215}},"arrival":{"platform":"1","scheduledTime":"2023-10-18T14:40:00.000Z","time":"2023-10-18T14:40:00.000Z","reihung":false},"departure":{"platform":"1","scheduledTime":"2023-10-18T14:41:00.000Z","time":"2023-10-18T14:41:00.000Z","reihung":false}},{"station":{"evaNumber":"8006261","name":"Weidenthal","coordinates":{"lng":7.99453,"lat":49.417578},"ril100":"RWD"},"arrival":{"platform":"1","scheduledTime":"2023-10-18T14:45:00.000Z","time":"2023-10-18T14:45:00.000Z","reihung":false},"departure":{"platform":"1","scheduledTime":"2023-10-18T14:45:00.000Z","time":"2023-10-18T14:45:00.000Z","reihung":false}},{"station":{"evaNumber":"8002036","name":"Frankenstein(Pfalz)","coordinates":{"lng":7.969818,"lat":49.438927},"ril100":"RFST"},"arrival":{"platform":"1","scheduledTime":"2023-10-18T14:48:00.000Z","time":"2023-10-18T14:48:00.000Z","reihung":false},"departure":{"platform":"1","scheduledTime":"2023-10-18T14:49:00.000Z","time":"2023-10-18T14:49:00.000Z","reihung":false}},{"station":{"evaNumber":"8002875","name":"Hochspeyer","coordinates":{"lng":7.904557,"lat":49.444195},"ril100":"SHY"},"arrival":{"platform":"2","scheduledTime":"2023-10-18T14:53:00.000Z","time":"2023-10-18T14:53:00.000Z","reihung":false},"departure":{"platform":"2","scheduledTime":"2023-10-18T14:53:00.000Z","time":"2023-10-18T14:53:00.000Z","reihung":false}},{"station":{"evaNumber":"8000189","name":"Kaiserslautern Hbf","coordinates":{"lng":7.768765,"lat":49.436042},"ril100":"SKL"},"arrival":{"platform":"3","scheduledTime":"2023-10-18T14:59:00.000Z","time":"2023-10-18T14:59:00.000Z","reihung":false}}],"finalDestination":"Kaiserslautern Hbf","jid":"1|253890|0|80|18102023","messages":[{"type":"A","code":"FB","prio":260,"icoX":6,"txtN":"Fahrradmitnahme begrenzt möglich"},{"type":"A","code":"EH","prio":560,"icoX":7,"txtN":"Fahrzeuggebundene Einstiegshilfe vorhanden"}],"type":"JNY"}],"segmentTypes":["S"],"tarifSet":[{"fares":[{"price":-1,"moreExpensiveAvailable":false,"bookable":true,"upsell":false,"targetContext":"M"}]}]},{"checksum":"0abf3b67_3","cid":"C-5","date":"2023-10-17T22:00:00.000Z","duration":5280000,"changes":0,"isRideable":true,"arrival":{"platform":"3","scheduledTime":"2023-10-18T15:31:00.000Z","time":"2023-10-18T15:31:00.000Z","reihung":false},"departure":{"platform":"2","scheduledTime":"2023-10-18T14:03:00.000Z","time":"2023-10-18T14:03:00.000Z","reihung":false},"segments":[{"arrival":{"platform":"3","scheduledTime":"2023-10-18T15:31:00.000Z","time":"2023-10-18T15:31:00.000Z","reihung":false},"departure":{"platform":"2","scheduledTime":"2023-10-18T14:03:00.000Z","time":"2023-10-18T14:03:00.000Z","reihung":false},"duration":5280000,"train":{"name":"S 1","line":"1","admin":"801539","number":"38134","type":"S","operator":{"name":"DB Regio AG Mitte","icoX":2}},"segmentStart":{"name":"Heidelberg Hbf","evaNumber":"8000156"},"segmentDestination":{"name":"Kaiserslautern Hbf","evaNumber":"8000189"},"stops":[{"station":{"evaNumber":"8000156","name":"Heidelberg Hbf","coordinates":{"lng":8.67548,"lat":49.403582},"ril100":"RH"},"departure":{"platform":"2","scheduledTime":"2023-10-18T14:03:00.000Z","time":"2023-10-18T14:03:00.000Z","reihung":false}},{"station":{"evaNumber":"8002687","name":"Heidelberg-Pfaffengrund/Wieblingen","coordinates":{"lng":8.641474,"lat":49.411969},"ril100":"RHBP"},"arrival":{"platform":"1","scheduledTime":"2023-10-18T14:05:00.000Z","time":"2023-10-18T14:05:00.000Z","reihung":false},"departure":{"platform":"1","scheduledTime":"2023-10-18T14:06:00.000Z","time":"2023-10-18T14:06:00.000Z","reihung":false}},{"station":{"evaNumber":"8003842","name":"Mannheim-Friedrichsfeld Süd","coordinates":{"lng":8.572239,"lat":49.438217},"ril100":"RMFS"},"arrival":{"platform":"1","scheduledTime":"2023-10-18T14:10:00.000Z","time":"2023-10-18T14:10:00.000Z","reihung":false},"departure":{"platform":"1","scheduledTime":"2023-10-18T14:10:00.000Z","time":"2023-10-18T14:10:00.000Z","reihung":false}},{"station":{"evaNumber":"8003847","name":"Mannheim-Seckenheim","coordinates":{"lng":8.538098,"lat":49.451413},"ril100":"RMSE"},"arrival":{"platform":"1","scheduledTime":"2023-10-18T14:13:00.000Z","time":"2023-10-18T14:13:00.000Z","reihung":false},"departure":{"platform":"1","scheduledTime":"2023-10-18T14:13:00.000Z","time":"2023-10-18T14:13:00.000Z","reihung":false}},{"station":{"evaNumber":"8003841","name":"Mannheim ARENA/Maimarkt","coordinates":{"lng":8.515922,"lat":49.45998},"ril100":"RMSM"},"arrival":{"platform":"1","scheduledTime":"2023-10-18T14:15:00.000Z","time":"2023-10-18T14:15:00.000Z","reihung":false},"departure":{"platform":"1","scheduledTime":"2023-10-18T14:15:00.000Z","time":"2023-10-18T14:15:00.000Z","reihung":false}},{"station":{"evaNumber":"8000244","name":"Mannheim Hbf","coordinates":{"lng":8.469268,"lat":49.479181},"ril100":"RM"},"arrival":{"platform":"1","scheduledTime":"2023-10-18T14:19:00.000Z","time":"2023-10-18T14:19:00.000Z","reihung":false},"departure":{"platform":"1","scheduledTime":"2023-10-18T14:24:00.000Z","time":"2023-10-18T14:24:00.000Z","reihung":false}},{"station":{"evaNumber":"8003759","name":"Ludwigshafen(Rhein) Mitte","coordinates":{"lng":8.452215,"lat":49.478938},"ril100":"RLSM"},"arrival":{"platform":"1","scheduledTime":"2023-10-18T14:26:00.000Z","time":"2023-10-18T14:26:00.000Z","reihung":false},"departure":{"platform":"1","scheduledTime":"2023-10-18T14:26:00.000Z","time":"2023-10-18T14:26:00.000Z","reihung":false}},{"station":{"evaNumber":"8000236","name":"Ludwigshafen(Rh)Hbf","coordinates":{"lng":8.433769,"lat":49.477257},"ril100":"RL"},"arrival":{"platform":"5","scheduledTime":"2023-10-18T14:29:00.000Z","time":"2023-10-18T14:29:00.000Z","reihung":false},"departure":{"platform":"5","scheduledTime":"2023-10-18T14:29:00.000Z","time":"2023-10-18T14:29:00.000Z","reihung":false}},{"station":{"evaNumber":"8003765","name":"Ludwigshafen-Mundenheim","coordinates":{"lng":8.421158,"lat":49.461544},"ril100":"RLUM"},"arrival":{"platform":"2","scheduledTime":"2023-10-18T14:32:00.000Z","time":"2023-10-18T14:32:00.000Z","reihung":false},"departure":{"platform":"2","scheduledTime":"2023-10-18T14:32:00.000Z","time":"2023-10-18T14:32:00.000Z","reihung":false}},{"station":{"evaNumber":"8003767","name":"Ludwigshafen-Rheingönheim","coordinates":{"lng":8.409562,"lat":49.447449},"ril100":"RLUR"},"arrival":{"platform":"2","scheduledTime":"2023-10-18T14:34:00.000Z","time":"2023-10-18T14:34:00.000Z","reihung":false},"departure":{"platform":"2","scheduledTime":"2023-10-18T14:34:00.000Z","time":"2023-10-18T14:34:00.000Z","reihung":false}},{"station":{"evaNumber":"8003687","name":"Limburgerhof","coordinates":{"lng":8.39063,"lat":49.424068},"ril100":"RLI"},"arrival":{"platform":"3","scheduledTime":"2023-10-18T14:37:00.000Z","time":"2023-10-18T14:37:00.000Z","reihung":false},"departure":{"platform":"3","scheduledTime":"2023-10-18T14:37:00.000Z","time":"2023-10-18T14:37:00.000Z","reihung":false}},{"station":{"evaNumber":"8000326","name":"Schifferstadt","coordinates":{"lng":8.365047,"lat":49.392687},"ril100":"RSD"},"arrival":{"platform":"3","scheduledTime":"2023-10-18T14:41:00.000Z","time":"2023-10-18T14:41:00.000Z","reihung":false},"departure":{"platform":"3","scheduledTime":"2023-10-18T14:41:00.000Z","time":"2023-10-18T14:41:00.000Z","reihung":false}},{"station":{"evaNumber":"8001057","name":"Böhl-Iggelheim","coordinates":{"lng":8.303758,"lat":49.379733},"ril100":"RBOE"},"arrival":{"platform":"2","scheduledTime":"2023-10-18T14:45:00.000Z","time":"2023-10-18T14:45:00.000Z","reihung":false},"departure":{"platform":"2","scheduledTime":"2023-10-18T14:45:00.000Z","time":"2023-10-18T14:45:00.000Z","reihung":false}},{"station":{"evaNumber":"8002632","name":"Haßloch(Pfalz)","coordinates":{"lng":8.253248,"lat":49.372021},"ril100":"RHLO"},"arrival":{"platform":"2","scheduledTime":"2023-10-18T14:48:00.000Z","time":"2023-10-18T14:48:00.000Z","reihung":false},"departure":{"platform":"2","scheduledTime":"2023-10-18T14:48:00.000Z","time":"2023-10-18T14:48:00.000Z","reihung":false}},{"station":{"evaNumber":"8004489","name":"Neustadt-Böbig","coordinates":{"lng":8.157639,"lat":49.353844},"ril100":"RNBO"},"arrival":{"platform":"1","scheduledTime":"2023-10-18T14:53:00.000Z","time":"2023-10-18T14:53:00.000Z","reihung":false},"departure":{"platform":"1","scheduledTime":"2023-10-18T14:54:00.000Z","time":"2023-10-18T14:54:00.000Z","reihung":false}},{"station":{"evaNumber":"8000275","name":"Neustadt(Weinstr)Hbf","coordinates":{"lng":8.14038,"lat":49.349601},"ril100":"RN"},"arrival":{"platform":"1","scheduledTime":"2023-10-18T14:57:00.000Z","time":"2023-10-18T14:57:00.000Z","reihung":false},"departure":{"platform":"1","scheduledTime":"2023-10-18T15:03:00.000Z","time":"2023-10-18T15:03:00.000Z","reihung":false}},{"station":{"evaNumber":"8003497","name":"Lambrecht(Pfalz)","coordinates":{"lng":8.074408,"lat":49.373252},"ril100":"RLBP"},"arrival":{"platform":"3","scheduledTime":"2023-10-18T15:08:00.000Z","time":"2023-10-18T15:08:00.000Z","reihung":false},"departure":{"platform":"3","scheduledTime":"2023-10-18T15:09:00.000Z","time":"2023-10-18T15:09:00.000Z","reihung":false}},{"station":{"evaNumber":"8079146","name":"Neidenfels","coordinates":{"lng":8.045256,"lat":49.386215}},"arrival":{"platform":"1","scheduledTime":"2023-10-18T15:11:00.000Z","time":"2023-10-18T15:11:00.000Z","reihung":false},"departure":{"platform":"1","scheduledTime":"2023-10-18T15:12:00.000Z","time":"2023-10-18T15:12:00.000Z","reihung":false}},{"station":{"evaNumber":"8006261","name":"Weidenthal","coordinates":{"lng":7.99453,"lat":49.417578},"ril100":"RWD"},"arrival":{"platform":"1","scheduledTime":"2023-10-18T15:16:00.000Z","time":"2023-10-18T15:16:00.000Z","reihung":false},"departure":{"platform":"1","scheduledTime":"2023-10-18T15:17:00.000Z","time":"2023-10-18T15:17:00.000Z","reihung":false}},{"station":{"evaNumber":"8002036","name":"Frankenstein(Pfalz)","coordinates":{"lng":7.969818,"lat":49.438927},"ril100":"RFST"},"arrival":{"platform":"1","scheduledTime":"2023-10-18T15:20:00.000Z","time":"2023-10-18T15:20:00.000Z","reihung":false},"departure":{"platform":"1","scheduledTime":"2023-10-18T15:20:00.000Z","time":"2023-10-18T15:20:00.000Z","reihung":false}},{"station":{"evaNumber":"8002875","name":"Hochspeyer","coordinates":{"lng":7.904557,"lat":49.444195},"ril100":"SHY"},"arrival":{"platform":"2","scheduledTime":"2023-10-18T15:24:00.000Z","time":"2023-10-18T15:24:00.000Z","reihung":false},"departure":{"platform":"2","scheduledTime":"2023-10-18T15:25:00.000Z","time":"2023-10-18T15:25:00.000Z","reihung":false}},{"station":{"evaNumber":"8000189","name":"Kaiserslautern Hbf","coordinates":{"lng":7.768765,"lat":49.436042},"ril100":"SKL"},"arrival":{"platform":"3","scheduledTime":"2023-10-18T15:31:00.000Z","time":"2023-10-18T15:31:00.000Z","reihung":false}}],"finalDestination":"Kaiserslautern Hbf","jid":"1|253777|0|80|18102023","messages":[{"type":"A","code":"FB","prio":260,"icoX":6,"txtN":"Fahrradmitnahme begrenzt möglich"},{"type":"A","code":"EH","prio":560,"icoX":7,"txtN":"Fahrzeuggebundene Einstiegshilfe vorhanden"}],"type":"JNY"}],"segmentTypes":["S"],"tarifSet":[{"fares":[{"price":-1,"moreExpensiveAvailable":false,"bookable":true,"upsell":false,"targetContext":"M"}]}]},{"checksum":"0da03de1_3","cid":"C-6","date":"2023-10-17T22:00:00.000Z","duration":4260000,"changes":1,"isRideable":true,"arrival":{"platform":"2","scheduledTime":"2023-10-18T15:24:00.000Z","time":"2023-10-18T15:24:00.000Z","reihung":false},"departure":{"platform":"4","scheduledTime":"2023-10-18T14:13:00.000Z","time":"2023-10-18T14:13:00.000Z","reihung":false},"segments":[{"arrival":{"platform":"1","scheduledTime":"2023-10-18T14:29:00.000Z","time":"2023-10-18T14:29:00.000Z","reihung":false},"departure":{"platform":"4","scheduledTime":"2023-10-18T14:13:00.000Z","time":"2023-10-18T14:13:00.000Z","reihung":false},"duration":960000,"train":{"name":"S 3","line":"3","admin":"801539","number":"38342","type":"S","operator":{"name":"DB Regio AG Mitte","icoX":2}},"changeDuration":7,"segmentStart":{"name":"Heidelberg Hbf","evaNumber":"8000156"},"segmentDestination":{"name":"Mannheim Hbf","evaNumber":"8000244"},"stops":[{"station":{"evaNumber":"8000156","name":"Heidelberg Hbf","coordinates":{"lng":8.67548,"lat":49.403582},"ril100":"RH"},"departure":{"platform":"4","scheduledTime":"2023-10-18T14:13:00.000Z","time":"2023-10-18T14:13:00.000Z","reihung":false}},{"station":{"evaNumber":"8002687","name":"Heidelberg-Pfaffengrund/Wieblingen","coordinates":{"lng":8.641474,"lat":49.411969},"ril100":"RHBP"},"arrival":{"platform":"1","scheduledTime":"2023-10-18T14:15:00.000Z","time":"2023-10-18T14:15:00.000Z","reihung":false},"departure":{"platform":"1","scheduledTime":"2023-10-18T14:16:00.000Z","time":"2023-10-18T14:16:00.000Z","reihung":false}},{"station":{"evaNumber":"8003842","name":"Mannheim-Friedrichsfeld Süd","coordinates":{"lng":8.572239,"lat":49.438217},"ril100":"RMFS"},"arrival":{"platform":"1","scheduledTime":"2023-10-18T14:20:00.000Z","time":"2023-10-18T14:20:00.000Z","reihung":false},"departure":{"platform":"1","scheduledTime":"2023-10-18T14:20:00.000Z","time":"2023-10-18T14:20:00.000Z","reihung":false}},{"station":{"evaNumber":"8000244","name":"Mannheim Hbf","coordinates":{"lng":8.469268,"lat":49.479181},"ril100":"RM"},"arrival":{"platform":"1","scheduledTime":"2023-10-18T14:29:00.000Z","time":"2023-10-18T14:29:00.000Z","reihung":false}}],"finalDestination":"Schifferstadt","jid":"1|254232|0|80|18102023","messages":[{"type":"A","code":"FB","prio":260,"icoX":6,"txtN":"Fahrradmitnahme begrenzt möglich"},{"type":"A","code":"EH","prio":560,"icoX":7,"txtN":"Fahrzeuggebundene Einstiegshilfe vorhanden"}],"type":"JNY"},{"arrival":{"platform":"2","scheduledTime":"2023-10-18T15:24:00.000Z","time":"2023-10-18T15:24:00.000Z","reihung":false},"departure":{"platform":"10","scheduledTime":"2023-10-18T14:36:00.000Z","time":"2023-10-18T14:36:00.000Z","reihung":false},"duration":2880000,"train":{"name":"RE 1","line":"1","admin":"800640","number":"4131","type":"RE","operator":{"name":"DB Regio AG Mitte SÜWEX","icoX":9}},"segmentStart":{"name":"Mannheim Hbf","evaNumber":"8000244"},"segmentDestination":{"name":"Kaiserslautern Hbf","evaNumber":"8000189"},"stops":[{"station":{"evaNumber":"8000244","name":"Mannheim Hbf","coordinates":{"lng":8.469268,"lat":49.479181},"ril100":"RM"},"departure":{"platform":"10","scheduledTime":"2023-10-18T14:36:00.000Z","time":"2023-10-18T14:36:00.000Z","reihung":false}},{"station":{"evaNumber":"8000236","name":"Ludwigshafen(Rh)Hbf","coordinates":{"lng":8.433769,"lat":49.477257},"ril100":"RL"},"arrival":{"platform":"5","scheduledTime":"2023-10-18T14:42:00.000Z","time":"2023-10-18T14:42:00.000Z","reihung":false},"departure":{"platform":"5","scheduledTime":"2023-10-18T14:44:00.000Z","time":"2023-10-18T14:44:00.000Z","reihung":false}},{"station":{"evaNumber":"8000275","name":"Neustadt(Weinstr)Hbf","coordinates":{"lng":8.14038,"lat":49.349601},"ril100":"RN"},"arrival":{"platform":"2","scheduledTime":"2023-10-18T14:59:00.000Z","time":"2023-10-18T14:59:00.000Z","reihung":false},"departure":{"platform":"2","scheduledTime":"2023-10-18T15:00:00.000Z","time":"2023-10-18T15:00:00.000Z","reihung":false}},{"station":{"evaNumber":"8000189","name":"Kaiserslautern Hbf","coordinates":{"lng":7.768765,"lat":49.436042},"ril100":"SKL"},"arrival":{"platform":"2","scheduledTime":"2023-10-18T15:24:00.000Z","time":"2023-10-18T15:24:00.000Z","reihung":false}}],"finalDestination":"Trier Hbf","jid":"1|255369|0|80|18102023","messages":[{"type":"A","code":"FB","prio":260,"icoX":6,"txtN":"Fahrradmitnahme begrenzt möglich"},{"type":"A","code":"RC","prio":320,"icoX":7,"txtN":"Reservierung an DB-Automaten/Reisezentren/vielen DB-Agenturen möglich"},{"type":"A","code":"EH","prio":560,"icoX":7,"txtN":"Fahrzeuggebundene Einstiegshilfe vorhanden"},{"type":"A","code":"LS","prio":605,"icoX":7,"txtN":"Laptop-Steckdosen"}],"type":"JNY"}],"segmentTypes":["S","RE"],"tarifSet":[{"fares":[{"price":-1,"moreExpensiveAvailable":false,"bookable":true,"upsell":false,"targetContext":"M"}]}]}]}