{"context":{"earlier":"3|OB|MT#14#451615#451615#451835#451835#0#0#485#451576#1#0#19#0#0#-2147483648#1#2|PDH#bbe10b32f5270e429a5a473728022d1b|RD#18102023|RT#141653|US#0|RS#INIT","later":"3|OF|MT#14#451735#451735#451962#452011#0#0#485#451676#9#0#8#0#0#-2147483648#1#2|PDH#bbe10b32f5270e429a5a473728022d1b|RD#18102023|RT#141653|US#0|RS#INIT"},"routes":[{"checksum":"200331a5_3","cid":"C-0","date":"2023-10-17T22:00:00.000Z","duration":13200000,"changes":2,"isRideable":true,"arrival":{"platform":"3","scheduledTime":"2023-10-18T16:35:00.000Z","time":"2023-10-18T16:35:00.000Z","reihung":false},"departure":{"platform":"1","scheduledTime":"2023-10-18T12:55:00.000Z","time":"2023-10-18T12:55:00.000Z","reihung":false},"segments":[{"arrival":{"platform":"2","scheduledTime":"2023-10-18T14:24:00.000Z","time":"2023-10-18T14:24:00.000Z","reihung":false},"departure":{"platform":"1","scheduledTime":"2023-10-18T12:55:00.000Z","time":"2023-10-18T12:55:00.000Z","reihung":false},"duration":5340000,"train":{"name":"ICE 276","line":"12","admin":"80","number":"276","type":"ICE","operator":{"name":"DB Fernverkehr AG","icoX":2}},"changeDuration":12,"segmentStart":{"name":"Freiburg(Breisgau) Hbf","evaNumber":"8000107"},"segmentDestination":{"name":"Mannheim Hbf","evaNumber":"8000244"},"stops":[{"station":{"evaNumber":"8000107","name":"Freiburg(Breisgau) Hbf","coordinates":{"lng":7.841344,"lat":47.997974},"ril100":"RF"},"departure":{"platform":"1","scheduledTime":"2023-10-18T12:55:00.000Z","time":"2023-10-18T12:55:00.000Z","reihung":false},"auslastung":{"first":2,"second":1}},{"station":{"evaNumber":"8000290","name":"Offenburg","coordinates":{"lng":7.94677,"lat":48.476506},"ril100":"RO"},"arrival":{"platform":"3","scheduledTime":"2023-10-18T13:26:00.000Z","time":"2023-10-18T13:26:00.000Z","reihung":false},"departure":{"platform":"3","scheduledTime":"2023-10-18T13:27:00.000Z","time":"2023-10-18T13:27:00.000Z","reihung":false},"auslastung":{"first":2,"second":1}},{"station":{"evaNumber":"8000191","name":"Karlsruhe Hbf","coordinates":{"lng":8.401939,"lat":48.99353},"ril100":"RK"},"arrival":{"platform":"3","scheduledTime":"2023-10-18T13:58:00.000Z","time":"2023-10-18T13:58:00.000Z","reihung":false},"departure":{"platform":"3","scheduledTime":"2023-10-18T14:00:00.000Z","time":"2023-10-18T14:00:00.000Z","reihung":false},"auslastung":{"first":2,"second":1}},{"station":{"evaNumber":"8000244","name":"Mannheim Hbf","coordinates":{"lng":8.469268,"lat":49.479181},"ril100":"RM"},"arrival":{"platform":"2","scheduledTime":"2023-10-18T14:24:00.000Z","time":"2023-10-18T14:24:00.000Z","reihung":false}}],"finalDestination":"Hamburg-Altona","jid":"1|204246|0|80|18102023","auslastung":{"first":2,"second":1},"messages":[{"type":"A","code":"CK","prio":200,"icoX":3,"txtN":"Sicher & kontaktlos ohne Ticketkontrolle reisen mit Komfort Check-in"},{"type":"A","code":"FR","prio":260,"icoX":4,"txtN":"Fahrradmitnahme reservierungspflichtig"},{"type":"A","code":"FB","prio":260,"icoX":5,"txtN":"Fahrradmitnahme begrenzt möglich"},{"type":"A","code":"BR","prio":450,"icoX":6,"txtN":"Bordrestaurant"},{"type":"A","code":"EH","prio":560,"icoX":3,"txtN":"Fahrzeuggebundene Einstiegshilfe vorhanden"}],"type":"JNY"},{"arrival":{"platform":"4","scheduledTime":"2023-10-18T16:04:00.000Z","time":"2023-10-18T16:04:00.000Z","reihung":false},"departure":{"platform":"3","scheduledTime":"2023-10-18T14:36:00.000Z","time":"2023-10-18T14:36:00.000Z","reihung":false},"duration":5280000,"train":{"name":"ICE 516","line":"42","admin":"80","number":"516","type":"ICE","operator":{"name":"DB Fernverkehr AG","icoX":2}},"changeDuration":13,"segmentStart":{"name":"Mannheim Hbf","evaNumber":"8000244"},"segmentDestination":{"name":"Köln Hbf","evaNumber":"8000207"},"stops":[{"station":{"evaNumber":"8000244","name":"Mannheim Hbf","coordinates":{"lng":8.469268,"lat":49.479181},"ril100":"RM"},"departure":{"platform":"3","scheduledTime":"2023-10-18T14:36:00.000Z","time":"2023-10-18T14:36:00.000Z","reihung":false},"auslastung":{"first":2,"second":2}},{"station":{"evaNumber":"8070003","name":"Frankfurt(M) Flughafen Fernbf","coordinates":{"lng":8.569776,"lat":50.052926},"ril100":"FFLF"},"arrival":{"platform":"Fern 6","scheduledTime":"2023-10-18T15:06:00.000Z","time":"2023-10-18T15:06:00.000Z","reihung":false},"departure":{"platform":"Fern 6","scheduledTime":"2023-10-18T15:07:00.000Z","time":"2023-10-18T15:07:00.000Z","reihung":false},"auslastung":{"first":2,"second":2}},{"station":{"evaNumber":"8000207","name":"Köln Hbf","coordinates":{"lng":6.959197,"lat":50.942823},"ril100":"KK"},"arrival":{"platform":"4","scheduledTime":"2023-10-18T16:04:00.000Z","time":"2023-10-18T16:04:00.000Z","reihung":false}}],"finalDestination":"Münster(Westf)Hbf","jid":"1|205093|0|80|18102023","auslastung":{"first":2,"second":2},"messages":[{"type":"A","code":"CK","prio":200,"icoX":3,"txtN":"Sicher & kontaktlos ohne Ticketkontrolle reisen mit Komfort Check-in"},{"type":"A","code":"FR","prio":260,"icoX":4,"txtN":"Fahrradmitnahme reservierungspflichtig"},{"type":"A","code":"FB","prio":260,"icoX":5,"txtN":"Fahrradmitnahme begrenzt möglich"},{"type":"A","code":"BR","prio":450,"icoX":6,"txtN":"Bordrestaurant"},{"type":"A","code":"EH","prio":560,"icoX":3,"txtN":"Fahrzeuggebundene Einstiegshilfe vorhanden"}],"type":"JNY"},{"arrival":{"platform":"3","scheduledTime":"2023-10-18T16:35:00.000Z","time":"2023-10-18T16:35:00.000Z","reihung":false},"departure":{"platform":"7","scheduledTime":"2023-10-18T16:17:00.000Z","time":"2023-10-18T16:17:00.000Z","reihung":false},"duration":1080000,"train":{"name":"IC 2205","line":"35","admin":"80","number":"2205","type":"IC","operator":{"name":"DB Fernverkehr AG","icoX":2}},"segmentStart":{"name":"Köln Hbf","evaNumber":"8000207"},"segmentDestination":{"name":"Bonn Hbf","evaNumber":"8000044"},"stops":[{"station":{"evaNumber":"8000207","name":"Köln Hbf","coordinates":{"lng":6.959197,"lat":50.942823},"ril100":"KK"},"departure":{"platform":"7","scheduledTime":"2023-10-18T16:17:00.000Z","time":"2023-10-18T16:17:00.000Z","reihung":false},"auslastung":{"first":2,"second":1}},{"station":{"evaNumber":"8000044","name":"Bonn Hbf","coordinates":{"lng":7.096678,"lat":50.731963},"ril100":"KB"},"arrival":{"platform":"3","scheduledTime":"2023-10-18T16:35:00.000Z","time":"2023-10-18T16:35:00.000Z","reihung":false}}],"finalDestination":"Koblenz Hbf","jid":"1|201784|0|80|18102023","auslastung":{"first":2,"second":1},"messages":[{"type":"A","code":"CK","prio":200,"icoX":3,"txtN":"Sicher & kontaktlos ohne Ticketkontrolle reisen mit Komfort Check-in"},{"type":"A","code":"FR","prio":260,"icoX":4,"txtN":"Fahrradmitnahme reservierungspflichtig"},{"type":"A","code":"FB","prio":260,"icoX":5,"txtN":"Fahrradmitnahme begrenzt möglich"},{"type":"A","code":"MP","prio":460,"icoX":3,"txtN":"Snacks und Getränke am Platz"},{"type":"A","code":"IZ","prio":800,"icoX":3,"txtN":"Intercity 2: Info unter www.bahn.de/ic2"}],"type":"JNY"}],"segmentTypes":["ICE","ICE","IC"]},{"checksum":"ed278010_3","cid":"C-1","date":"2023-10-17T22:00:00.000Z","duration":12960000,"changes":0,"isRideable":true,"arrival":{"platform":"1","scheduledTime":"2023-10-18T16:43:00.000Z","time":"2023-10-18T16:43:00.000Z","reihung":false},"departure":{"platform":"1","scheduledTime":"2023-10-18T13:07:00.000Z","time":"2023-10-18T13:07:00.000Z","reihung":false},"segments":[{"arrival":{"platform":"1","scheduledTime":"2023-10-18T16:43:00.000Z","time":"2023-10-18T16:43:00.000Z","reihung":false},"departure":{"platform":"1","scheduledTime":"2023-10-18T13:07:00.000Z","time":"2023-10-18T13:07:00.000Z","reihung":false},"duration":12960000,"train":{"name":"EC 6","line":"43","admin":"80","number":"6","type":"EC","operator":{"name":"DB Fernverkehr AG","icoX":2}},"segmentStart":{"name":"Freiburg(Breisgau) Hbf","evaNumber":"8000107"},"segmentDestination":{"name":"Bonn Hbf","evaNumber":"8000044"},"stops":[{"station":{"evaNumber":"8000107","name":"Freiburg(Breisgau) Hbf","coordinates":{"lng":7.841344,"lat":47.997974},"ril100":"RF"},"departure":{"platform":"1","scheduledTime":"2023-10-18T13:07:00.000Z","time":"2023-10-18T13:07:00.000Z","reihung":false},"auslastung":{"first":1,"second":1},"messages":[{"type":"A","code":"text.journeystop.product.or.direction.changes.stop.message","icoX":3,"txtN":"Verkehrt ab hier als EC 6 in Richtung Münster(Westf)Hbf"}]},{"station":{"evaNumber":"8000191","name":"Karlsruhe Hbf","coordinates":{"lng":8.401939,"lat":48.99353},"ril100":"RK"},"arrival":{"platform":"3","scheduledTime":"2023-10-18T14:11:00.000Z","time":"2023-10-18T14:11:00.000Z","reihung":false},"departure":{"platform":"3","scheduledTime":"2023-10-18T14:13:00.000Z","time":"2023-10-18T14:13:00.000Z","reihung":false},"auslastung":{"first":1,"second":1}},{"station":{"evaNumber":"8000244","name":"Mannheim Hbf","coordinates":{"lng":8.469268,"lat":49.479181},"ril100":"RM"},"arrival":{"platform":"2","scheduledTime":"2023-10-18T14:37:00.000Z","time":"2023-10-18T14:37:00.000Z","reihung":false},"departure":{"platform":"2","scheduledTime":"2023-10-18T14:39:00.000Z","time":"2023-10-18T14:39:00.000Z","reihung":false},"auslastung":{"first":1,"second":1}},{"station":{"evaNumber":"8000240","name":"Mainz Hbf","coordinates":{"lng":8.258453,"lat":50.001239},"ril100":"FMZ"},"arrival":{"platform":"3a/b","scheduledTime":"2023-10-18T15:18:00.000Z","time":"2023-10-18T15:18:00.000Z","reihung":false},"departure":{"platform":"3a/b","scheduledTime":"2023-10-18T15:20:00.000Z","time":"2023-10-18T15:20:00.000Z","reihung":false},"auslastung":{"first":1,"second":1},"messages":[{"type":"A","code":"text.journeystop.product.or.direction.changes.stop.message","icoX":3,"txtN":"Verkehrt ab hier als EC 6 in Richtung Hamburg-Altona"}]},{"station":{"evaNumber":"8000206","name":"Koblenz Hbf","coordinates":{"lng":7.588343,"lat":50.350775},"ril100":"KKO"},"arrival":{"platform":"3","scheduledTime":"2023-10-18T16:11:00.000Z","time":"2023-10-18T16:11:00.000Z","reihung":false},"departure":{"platform":"3","scheduledTime":"2023-10-18T16:13:00.000Z","time":"2023-10-18T16:13:00.000Z","reihung":false},"auslastung":{"first":1,"second":1}},{"station":{"evaNumber":"8000044","name":"Bonn Hbf","coordinates":{"lng":7.096678,"lat":50.731963},"ril100":"KB"},"arrival":{"platform":"1","scheduledTime":"2023-10-18T16:43:00.000Z","time":"2023-10-18T16:43:00.000Z","reihung":false}}],"finalDestination":"Münster(Westf)Hbf","jid":"1|362423|0|80|18102023","auslastung":{"first":1,"second":1},"messages":[{"type":"A","code":"FR","prio":260,"icoX":4,"txtN":"Fahrradmitnahme reservierungspflichtig"},{"type":"A","code":"FB","prio":260,"icoX":5,"txtN":"Fahrradmitnahme begrenzt möglich"},{"type":"A","code":"text.journeystop.product.or.direction.changes.journey.message","icoX":3,"txtN":"Verkehrt ab Mainz Hbf als EC 6 in Richtung Hamburg-Altona"}],"type":"JNY"}],"segmentTypes":["EC"]},{"checksum":"86ee6ef9_3","cid":"C-2","date":"2023-10-17T22:00:00.000Z","duration":11700000,"changes":2,"isRideable":true,"arrival":{"scheduledTime":"2023-10-18T17:03:00.000Z","time":"2023-10-18T17:03:00.000Z","reihung":false},"departure":{"platform":"1","scheduledTime":"2023-10-18T13:48:00.000Z","time":"2023-10-18T13:48:00.000Z","reihung":false},"segments":[{"arrival":{"platform":"3","scheduledTime":"2023-10-18T15:14:00.000Z","time":"2023-10-18T15:14:00.000Z","reihung":false},"departure":{"platform":"1","scheduledTime":"2023-10-18T13:48:00.000Z","time":"2023-10-18T13:48:00.000Z","reihung":false},"duration":5160000,"train":{"name":"ICE 70","line":"20","admin":"80","number":"70","type":"ICE","operator":{"name":"DB Fernverkehr AG","icoX":2}},"changeDuration":7,"segmentStart":{"name":"Freiburg(Breisgau) Hbf","evaNumber":"8000107"},"segmentDestination":{"name":"Mannheim Hbf","evaNumber":"8000244"},"stops":[{"station":{"evaNumber":"8000107","name":"Freiburg(Breisgau) Hbf","coordinates":{"lng":7.841344,"lat":47.997974},"ril100":"RF"},"departure":{"platform":"1","scheduledTime":"2023-10-18T13:48:00.000Z","time":"2023-10-18T13:48:00.000Z","reihung":false},"auslastung":{"first":2,"second":1}},{"station":{"evaNumber":"8000774","name":"Baden-Baden","coordinates":{"lng":8.190773,"lat":48.790392},"ril100":"RBB"},"arrival":{"platform":"4","scheduledTime":"2023-10-18T14:31:00.000Z","time":"2023-10-18T14:31:00.000Z","reihung":false},"departure":{"platform":"4","scheduledTime":"2023-10-18T14:32:00.000Z","time":"2023-10-18T14:32:00.000Z","reihung":false},"auslastung":{"first":2,"second":1}},{"station":{"evaNumber":"8000191","name":"Karlsruhe Hbf","coordinates":{"lng":8.401939,"lat":48.99353},"ril100":"RK"},"arrival":{"platform":"3","scheduledTime":"2023-10-18T14:49:00.000Z","time":"2023-10-18T14:49:00.000Z","reihung":false},"departure":{"platform":"3","scheduledTime":"2023-10-18T14:51:00.000Z","time":"2023-10-18T14:51:00.000Z","reihung":false},"auslastung":{"first":2,"second":2}},{"station":{"evaNumber":"8000244","name":"Mannheim Hbf","coordinates":{"lng":8.469268,"lat":49.479181},"ril100":"RM"},"arrival":{"platform":"3","scheduledTime":"2023-10-18T15:14:00.000Z","time":"2023-10-18T15:14:00.000Z","reihung":false}}],"finalDestination":"Berlin Hbf (tief)","jid":"1|363133|0|80|18102023","auslastung":{"first":2,"second":2},"messages":[{"type":"A","code":"CK","prio":200,"icoX":3,"txtN":"Sicher & kontaktlos ohne Ticketkontrolle reisen mit Komfort Check-in"},{"type":"A","code":"FR","prio":260,"icoX":4,"txtN":"Fahrradmitnahme reservierungspflichtig"},{"type":"A","code":"FB","prio":260,"icoX":5,"txtN":"Fahrradmitnahme begrenzt möglich"},{"type":"A","code":"BR","prio":450,"icoX":6,"txtN":"Bordrestaurant"},{"type":"A","code":"EH","prio":560,"icoX":3,"txtN":"Fahrzeuggebundene Einstiegshilfe vorhanden"}],"type":"JNY"},{"arrival":{"platform":"3","scheduledTime":"2023-10-18T16:30:00.000Z","time":"2023-10-18T16:30:00.000Z","reihung":false},"departure":{"platform":"2","scheduledTime":"2023-10-18T15:21:00.000Z","time":"2023-10-18T15:21:00.000Z","reihung":false},"duration":4140000,"train":{"name":"ICE 914","line":"47","admin":"80","number":"914","type":"ICE","operator":{"name":"DB Fernverkehr AG","icoX":2}},"changeDuration":8,"segmentStart":{"name":"Mannheim Hbf","evaNumber":"8000244"},"segmentDestination":{"name":"Siegburg/Bonn","evaNumber":"8005556"},"stops":[{"station":{"evaNumber":"8000244","name":"Mannheim Hbf","coordinates":{"lng":8.469268,"lat":49.479181},"ril100":"RM"},"departure":{"platform":"2","scheduledTime":"2023-10-18T15:21:00.000Z","time":"2023-10-18T15:21:00.000Z","reihung":false},"auslastung":{"first":2,"second":2}},{"station":{"evaNumber":"8070003","name":"Frankfurt(M) Flughafen Fernbf","coordinates":{"lng":8.569776,"lat":50.052926},"ril100":"FFLF"},"arrival":{"platform":"Fern 6","scheduledTime":"2023-10-18T15:51:00.000Z","time":"2023-10-18T15:51:00.000Z","reihung":false},"departure":{"platform":"Fern 6","scheduledTime":"2023-10-18T15:53:00.000Z","time":"2023-10-18T15:53:00.000Z","reihung":false},"auslastung":{"first":2,"second":2}},{"station":{"evaNumber":"8005556","name":"Siegburg/Bonn","coordinates":{"lng":7.202616,"lat":50.794051},"ril100":"KSIB"},"arrival":{"platform":"3","scheduledTime":"2023-10-18T16:30:00.000Z","time":"2023-10-18T16:30:00.000Z","reihung":false}}],"finalDestination":"Dortmund Hbf","jid":"1|211819|0|80|18102023","auslastung":{"first":2,"second":2},"messages":[{"type":"A","code":"CK","prio":200,"icoX":3,"txtN":"Sicher & kontaktlos ohne Ticketkontrolle reisen mit Komfort Check-in"},{"type":"A","code":"BR","prio":450,"icoX":6,"txtN":"Bordrestaurant"}],"type":"JNY"},{"type":"WALK","train":{"name":"Fußweg","type":"Fußweg"},"arrival":{"scheduledTime":"2023-10-18T16:34:00.000Z","time":"2023-10-18T16:34:00.000Z","reihung":false},"departure":{"scheduledTime":"2023-10-18T16:30:00.000Z","time":"2023-10-18T16:30:00.000Z","reihung":false},"duration":240000,"segmentStart":{"evaNumber":"8005556","name":"Siegburg/Bonn","coordinates":{"lng":7.202616,"lat":50.794051},"ril100":"KSIB"},"segmentDestination":{"evaNumber":"8075556","name":"Siegburg Bahnhof","coordinates":{"lng":7.203101,"lat":50.793476},"ril100":"PQSI"}},{"arrival":{"scheduledTime":"2023-10-18T17:03:00.000Z","time":"2023-10-18T17:03:00.000Z","reihung":false},"departure":{"scheduledTime":"2023-10-18T16:38:00.000Z","time":"2023-10-18T16:38:00.000Z","reihung":false},"duration":1500000,"train":{"name":"STR 66","line":"66","admin":"S3","number":"64307","type":"STR","operator":{"name":"Stadtwerke Bonn","icoX":12}},"segmentStart":{"name":"Siegburg Bahnhof","evaNumber":"8075556"},"segmentDestination":{"name":"Bonn Hbf (tief)","evaNumber":"8098044"},"stops":[{"station":{"evaNumber":"8075556","name":"Siegburg Bahnhof","coordinates":{"lng":7.203101,"lat":50.793476},"ril100":"PQSI"},"departure":{"scheduledTime":"2023-10-18T16:38:00.000Z","time":"2023-10-18T16:38:00.000Z","reihung":false}},{"station":{"evaNumber":"8070768","name":"St Augustin-Mülldorf","coordinates":{"lng":7.193456,"lat":50.784738}},"arrival":{"scheduledTime":"2023-10-18T16:40:00.000Z","time":"2023-10-18T16:40:00.000Z","reihung":false},"departure":{"scheduledTime":"2023-10-18T16:40:00.000Z","time":"2023-10-18T16:40:00.000Z","reihung":false}},{"station":{"evaNumber":"8070025","name":"Sankt Augustin Zentrum","coordinates":{"lng":7.187892,"lat":50.776657}},"arrival":{"scheduledTime":"2023-10-18T16:42:00.000Z","time":"2023-10-18T16:42:00.000Z","reihung":false},"departure":{"scheduledTime":"2023-10-18T16:42:00.000Z","time":"2023-10-18T16:42:00.000Z","reihung":false}},{"station":{"evaNumber":"8070767","name":"St Augustin Kloster","coordinates":{"lng":7.184997,"lat":50.773798}},"arrival":{"scheduledTime":"2023-10-18T16:43:00.000Z","time":"2023-10-18T16:43:00.000Z","reihung":false},"departure":{"scheduledTime":"2023-10-18T16:43:00.000Z","time":"2023-10-18T16:43:00.000Z","reihung":false}},{"station":{"evaNumber":"8070766","name":"St Augustin Ort","coordinates":{"lng":7.180421,"lat":50.770266}},"arrival":{"scheduledTime":"2023-10-18T16:44:00.000Z","time":"2023-10-18T16:44:00.000Z","reihung":false},"departure":{"scheduledTime":"2023-10-18T16:44:00.000Z","time":"2023-10-18T16:44:00.000Z","reihung":false}},{"station":{"evaNumber":"8070765","name":"Hangelar Ost","coordinates":{"lng":7.171558,"lat":50.763569}},"arrival":{"scheduledTime":"2023-10-18T16:45:00.000Z","time":"2023-10-18T16:45:00.000Z","reihung":false},"departure":{"scheduledTime":"2023-10-18T16:45:00.000Z","time":"2023-10-18T16:45:00.000Z","reihung":false}},{"station":{"evaNumber":"8070076","name":"Hangelar Mitte","coordinates":{"lng":7.165958,"lat":50.760198},"ril100":"KHIBM"},"arrival":{"scheduledTime":"2023-10-18T16:46:00.000Z","time":"2023-10-18T16:46:00.000Z","reihung":false},"departure":{"scheduledTime":"2023-10-18T16:46:00.000Z","time":"2023-10-18T16:46:00.000Z","reihung":false}},{"station":{"evaNumber":"8070764","name":"Hangelar West","coordinates":{"lng":7.158731,"lat":50.758139}},"arrival":{"scheduledTime":"2023-10-18T16:47:00.000Z","time":"2023-10-18T16:47:00.000Z","reihung":false},"departure":{"scheduledTime":"2023-10-18T16:47:00.000Z","time":"2023-10-18T16:47:00.000Z","reihung":false}},{"station":{"evaNumber":"8070749","name":"Bonn-Vilich-Müldorf","coordinates":{"lng":7.147027,"lat":50.754193}},"arrival":{"scheduledTime":"2023-10-18T16:49:00.000Z","time":"2023-10-18T16:49:00.000Z","reihung":false},"departure":{"scheduledTime":"2023-10-18T16:49:00.000Z","time":"2023-10-18T16:49:00.000Z","reihung":false}},{"station":{"evaNumber":"8070750","name":"Bonn-Vilich","coordinates":{"lng":7.129336,"lat":50.750921}},"arrival":{"scheduledTime":"2023-10-18T16:51:00.000Z","time":"2023-10-18T16:51:00.000Z","reihung":false},"departure":{"scheduledTime":"2023-10-18T16:51:00.000Z","time":"2023-10-18T16:51:00.000Z","reihung":false}},{"station":{"evaNumber":"8070748","name":"Bonn-Vilich-Rheindorf, Adelheidisstr.","coordinates":{"lng":7.125192,"lat":50.747217}},"arrival":{"scheduledTime":"2023-10-18T16:52:00.000Z","time":"2023-10-18T16:52:00.000Z","reihung":false},"departure":{"scheduledTime":"2023-10-18T16:52:00.000Z","time":"2023-10-18T16:52:00.000Z","reihung":false}},{"station":{"evaNumber":"8070075","name":"Bonn Konrad-Adenauer-Platz","coordinates":{"lng":7.117659,"lat":50.739307}},"arrival":{"scheduledTime":"2023-10-18T16:55:00.000Z","time":"2023-10-18T16:55:00.000Z","reihung":false},"departure":{"scheduledTime":"2023-10-18T16:55:00.000Z","time":"2023-10-18T16:55:00.000Z","reihung":false}},{"station":{"evaNumber":"8070195","name":"Bonn Bertha-von-Suttner-Pl./Beethovenhaus","coordinates":{"lng":7.102647,"lat":50.737437}},"arrival":{"scheduledTime":"2023-10-18T16:58:00.000Z","time":"2023-10-18T16:58:00.000Z","reihung":false},"departure":{"scheduledTime":"2023-10-18T16:58:00.000Z","time":"2023-10-18T16:58:00.000Z","reihung":false}},{"station":{"evaNumber":"8070107","name":"Bonn Stadthaus","coordinates":{"lng":7.095267,"lat":50.736592},"ril100":"KB  H"},"arrival":{"scheduledTime":"2023-10-18T17:00:00.000Z","time":"2023-10-18T17:00:00.000Z","reihung":false},"departure":{"scheduledTime":"2023-10-18T17:00:00.000Z","time":"2023-10-18T17:00:00.000Z","reihung":false}},{"station":{"evaNumber":"8098044","name":"Bonn Hbf (tief)","coordinates":{"lng":7.098026,"lat":50.73216},"ril100":"KB  T"},"arrival":{"scheduledTime":"2023-10-18T17:03:00.000Z","time":"2023-10-18T17:03:00.000Z","reihung":false}}],"finalDestination":"Bad Honnef Stadtbahn","jid":"1|1368234|1|80|18102023","type":"JNY"}],"segmentTypes":["ICE","ICE","Fußweg","STR"]},{"checksum":"8d4186bf_3","cid":"C-3","date":"2023-10-17T22:00:00.000Z","duration":12480000,"changes":1,"isRideable":true,"arrival":{"scheduledTime":"2023-10-18T17:23:00.000Z","time":"2023-10-18T17:23:00.000Z","reihung":false},"departure":{"platform":"1","scheduledTime":"2023-10-18T13:55:00.000Z","time":"2023-10-18T13:55:00.000Z","reihung":false},"segments":[{"arrival":{"platform":"3","scheduledTime":"2023-10-18T16:47:00.000Z","time":"2023-10-18T16:47:00.000Z","reihung":false},"departure":{"platform":"1","scheduledTime":"2023-10-18T13:55:00.000Z","time":"2023-10-18T13:55:00.000Z","reihung":false},"duration":10320000,"wings":[{"train":{"name":"ICE 104","line":"43","admin":"80","number":"104","type":"ICE","operator":{"name":"DB Fernverkehr AG","icoX":2}},"segmentStart":{"name":"Freiburg(Breisgau) Hbf","evaNumber":"8000107"},"segmentDestination":{"name":"Siegburg/Bonn","evaNumber":"8005556"},"stops":[{"station":{"evaNumber":"8000107","name":"Freiburg(Breisgau) Hbf","coordinates":{"lng":7.841344,"lat":47.997974},"ril100":"RF"},"departure":{"platform":"1","scheduledTime":"2023-10-18T13:55:00.000Z","time":"2023-10-18T13:55:00.000Z","reihung":false},"auslastung":{"first":1,"second":1}},{"station":{"evaNumber":"8000290","name":"Offenburg","coordinates":{"lng":7.94677,"lat":48.476506},"ril100":"RO"},"arrival":{"platform":"3","scheduledTime":"2023-10-18T14:26:00.000Z","time":"2023-10-18T14:26:00.000Z","reihung":false},"auslastung":{"first":1,"second":1}},{"station":{"evaNumber":"8000191","name":"Karlsruhe Hbf","coordinates":{"lng":8.401939,"lat":48.99353},"ril100":"RK"},"arrival":{"platform":"3","scheduledTime":"2023-10-18T14:58:00.000Z","time":"2023-10-18T14:58:00.000Z","reihung":false},"auslastung":{"first":2,"second":1}},{"station":{"evaNumber":"8000244","name":"Mannheim Hbf","coordinates":{"lng":8.469268,"lat":49.479181},"ril100":"RM"},"arrival":{"platform":"3","scheduledTime":"2023-10-18T15:24:00.000Z","time":"2023-10-18T15:24:00.000Z","reihung":false},"auslastung":{"first":2,"second":2}},{"station":{"evaNumber":"8070003","name":"Frankfurt(M) Flughafen Fernbf","coordinates":{"lng":8.569776,"lat":50.052926},"ril100":"FFLF"},"arrival":{"platform":"Fern 6","scheduledTime":"2023-10-18T16:06:00.000Z","time":"2023-10-18T16:06:00.000Z","reihung":false},"auslastung":{"first":2,"second":2}},{"station":{"evaNumber":"8005556","name":"Siegburg/Bonn","coordinates":{"lng":7.202616,"lat":50.794051},"ril100":"KSIB"},"arrival":{"platform":"3","scheduledTime":"2023-10-18T16:47:00.000Z","time":"2023-10-18T16:47:00.000Z","reihung":false}}],"finalDestination":"Amsterdam Centraal","jid":"1|349066|0|80|18102023","auslastung":{"first":2,"second":2}}],"train":{"name":"ICE 204","line":"43","admin":"80","number":"204","type":"ICE","operator":{"name":"DB Fernverkehr AG","icoX":2}},"changeDuration":11,"segmentStart":{"name":"Freiburg(Breisgau) Hbf","evaNumber":"8000107"},"segmentDestination":{"name":"Siegburg/Bonn","evaNumber":"8005556"},"stops":[{"station":{"evaNumber":"8000107","name":"Freiburg(Breisgau) Hbf","coordinates":{"lng":7.841344,"lat":47.997974},"ril100":"RF"},"departure":{"platform":"1","scheduledTime":"2023-10-18T13:55:00.000Z","time":"2023-10-18T13:55:00.000Z","reihung":false},"auslastung":{"first":1,"second":1}},{"station":{"evaNumber":"8000290","name":"Offenburg","coordinates":{"lng":7.94677,"lat":48.476506},"ril100":"RO"},"arrival":{"platform":"3","scheduledTime":"2023-10-18T14:26:00.000Z","time":"2023-10-18T14:26:00.000Z","reihung":false},"departure":{"platform":"3","scheduledTime":"2023-10-18T14:28:00.000Z","time":"2023-10-18T14:28:00.000Z","reihung":false},"auslastung":{"first":1,"second":1}},{"station":{"evaNumber":"8000191","name":"Karlsruhe Hbf","coordinates":{"lng":8.401939,"lat":48.99353},"ril100":"RK"},"arrival":{"platform":"3","scheduledTime":"2023-10-18T14:58:00.000Z","time":"2023-10-18T14:58:00.000Z","reihung":false},"departure":{"platform":"3","scheduledTime":"2023-10-18T15:00:00.000Z","time":"2023-10-18T15:00:00.000Z","reihung":false},"auslastung":{"first":2,"second":1}},{"station":{"evaNumber":"8000244","name":"Mannheim Hbf","coordinates":{"lng":8.469268,"lat":49.479181},"ril100":"RM"},"arrival":{"platform":"3","scheduledTime":"2023-10-18T15:24:00.000Z","time":"2023-10-18T15:24:00.000Z","reihung":false},"departure":{"platform":"3","scheduledTime":"2023-10-18T15:36:00.000Z","time":"2023-10-18T15:36:00.000Z","reihung":false},"auslastung":{"first":2,"second":2}},{"station":{"evaNumber":"8070003","name":"Frankfurt(M) Flughafen Fernbf","coordinates":{"lng":8.569776,"lat":50.052926},"ril100":"FFLF"},"arrival":{"platform":"Fern 6","scheduledTime":"2023-10-18T16:06:00.000Z","time":"2023-10-18T16:06:00.000Z","reihung":false},"departure":{"platform":"Fern 6","scheduledTime":"2023-10-18T16:07:00.000Z","time":"2023-10-18T16:07:00.000Z","reihung":false},"auslastung":{"first":2,"second":2}},{"station":{"evaNumber":"8005556","name":"Siegburg/Bonn","coordinates":{"lng":7.202616,"lat":50.794051},"ril100":"KSIB"},"arrival":{"platform":"3","scheduledTime":"2023-10-18T16:47:00.000Z","time":"2023-10-18T16:47:00.000Z","reihung":false}}],"finalDestination":"Dortmund Hbf","jid":"1|200621|0|80|18102023","auslastung":{"first":2,"second":2},"messages":[{"type":"A","code":"CK","prio":200,"icoX":3,"txtN":"Sicher & kontaktlos ohne Ticketkontrolle reisen mit Komfort Check-in"},{"type":"A","code":"BR","prio":450,"icoX":6,"txtN":"Bordrestaurant"}],"type":"JNY"},{"type":"WALK","train":{"name":"Fußweg","type":"Fußweg"},"arrival":{"scheduledTime":"2023-10-18T16:51:00.000Z","time":"2023-10-18T16:51:00.000Z","reihung":false},"departure":{"scheduledTime":"2023-10-18T16:47:00.000Z","time":"2023-10-18T16:47:00.000Z","reihung":false},"duration":240000,"segmentStart":{"evaNumber":"8005556","name":"Siegburg/Bonn","coordinates":{"lng":7.202616,"lat":50.794051},"ril100":"KSIB"},"segmentDestination":{"evaNumber":"8075556","name":"Siegburg Bahnhof","coordinates":{"lng":7.203101,"lat":50.793476},"ril100":"PQSI"}},{"arrival":{"scheduledTime":"2023-10-18T17:23:00.000Z","time":"2023-10-18T17:23:00.000Z","reihung":false},"departure":{"scheduledTime":"2023-10-18T16:58:00.000Z","time":"2023-10-18T16:58:00.000Z","reihung":false},"duration":1500000,"train":{"name":"STR 66","line":"66","admin":"S3","number":"64308","type":"STR","operator":{"name":"Stadtwerke Bonn","icoX":12}},"segmentStart":{"name":"Siegburg Bahnhof","evaNumber":"8075556"},"segmentDestination":{"name":"Bonn Hbf (tief)","evaNumber":"8098044"},"stops":[{"station":{"evaNumber":"8075556","name":"Siegburg Bahnhof","coordinates":{"lng":7.203101,"lat":50.793476},"ril100":"PQSI"},"departure":{"scheduledTime":"2023-10-18T16:58:00.000Z","time":"2023-10-18T16:58:00.000Z","reihung":false}},{"station":{"evaNumber":"8070768","name":"St Augustin-Mülldorf","coordinates":{"lng":7.193456,"lat":50.784738}},"arrival":{"scheduledTime":"2023-10-18T17:00:00.000Z","time":"2023-10-18T17:00:00.000Z","reihung":false},"departure":{"scheduledTime":"2023-10-18T17:00:00.000Z","time":"2023-10-18T17:00:00.000Z","reihung":false}},{"station":{"evaNumber":"8070025","name":"Sankt Augustin Zentrum","coordinates":{"lng":7.187892,"lat":50.776657}},"arrival":{"scheduledTime":"2023-10-18T17:02:00.000Z","time":"2023-10-18T17:02:00.000Z","reihung":false},"departure":{"scheduledTime":"2023-10-18T17:02:00.000Z","time":"2023-10-18T17:02:00.000Z","reihung":false}},{"station":{"evaNumber":"8070767","name":"St Augustin Kloster","coordinates":{"lng":7.184997,"lat":50.773798}},"arrival":{"scheduledTime":"2023-10-18T17:03:00.000Z","time":"2023-10-18T17:03:00.000Z","reihung":false},"departure":{"scheduledTime":"2023-10-18T17:03:00.000Z","time":"2023-10-18T17:03:00.000Z","reihung":false}},{"station":{"evaNumber":"8070766","name":"St Augustin Ort","coordinates":{"lng":7.180421,"lat":50.770266}},"arrival":{"scheduledTime":"2023-10-18T17:04:00.000Z","time":"2023-10-18T17:04:00.000Z","reihung":false},"departure":{"scheduledTime":"2023-10-18T17:04:00.000Z","time":"2023-10-18T17:04:00.000Z","reihung":false}},{"station":{"evaNumber":"8070765","name":"Hangelar Ost","coordinates":{"lng":7.171558,"lat":50.763569}},"arrival":{"scheduledTime":"2023-10-18T17:05:00.000Z","time":"2023-10-18T17:05:00.000Z","reihung":false},"departure":{"scheduledTime":"2023-10-18T17:05:00.000Z","time":"2023-10-18T17:05:00.000Z","reihung":false}},{"station":{"evaNumber":"8070076","name":"Hangelar Mitte","coordinates":{"lng":7.165958,"lat":50.760198},"ril100":"KHIBM"},"arrival":{"scheduledTime":"2023-10-18T17:06:00.000Z","time":"2023-10-18T17:06:00.000Z","reihung":false},"departure":{"scheduledTime":"2023-10-18T17:06:00.000Z","time":"2023-10-18T17:06:00.000Z","reihung":false}},{"station":{"evaNumber":"8070764","name":"Hangelar West","coordinates":{"lng":7.158731,"lat":50.758139}},"arrival":{"scheduledTime":"2023-10-18T17:07:00.000Z","time":"2023-10-18T17:07:00.000Z","reihung":false},"departure":{"scheduledTime":"2023-10-18T17:07:00.000Z","time":"2023-10-18T17:07:00.000Z","reihung":false}},{"station":{"evaNumber":"8070749","name":"Bonn-Vilich-Müldorf","coordinates":{"lng":7.147027,"lat":50.754193}},"arrival":{"scheduledTime":"2023-10-18T17:09:00.000Z","time":"2023-10-18T17:09:00.000Z","reihung":false},"departure":{"scheduledTime":"2023-10-18T17:09:00.000Z","time":"2023-10-18T17:09:00.000Z","reihung":false}},{"station":{"evaNumber":"8070750","name":"Bonn-Vilich","coordinates":{"lng":7.129336,"lat":50.750921}},"arrival":{"scheduledTime":"2023-10-18T17:11:00.000Z","time":"2023-10-18T17:11:00.000Z","reihung":false},"departure":{"scheduledTime":"2023-10-18T17:11:00.000Z","time":"2023-10-18T17:11:00.000Z","reihung":false}},{"station":{"evaNumber":"8070748","name":"Bonn-Vilich-Rheindorf, Adelheidisstr.","coordinates":{"lng":7.125192,"lat":50.747217}},"arrival":{"scheduledTime":"2023-10-18T17:12:00.000Z","time":"2023-10-18T17:12:00.000Z","reihung":false},"departure":{"scheduledTime":"2023-10-18T17:12:00.000Z","time":"2023-10-18T17:12:00.000Z","reihung":false}},{"station":{"evaNumber":"8070075","name":"Bonn Konrad-Adenauer-Platz","coordinates":{"lng":7.117659,"lat":50.739307}},"arrival":{"scheduledTime":"2023-10-18T17:15:00.000Z","time":"2023-10-18T17:15:00.000Z","reihung":false},"departure":{"scheduledTime":"2023-10-18T17:15:00.000Z","time":"2023-10-18T17:15:00.000Z","reihung":false}},{"station":{"evaNumber":"8070195","name":"Bonn Bertha-von-Suttner-Pl./Beethovenhaus","coordinates":{"lng":7.102647,"lat":50.737437}},"arrival":{"scheduledTime":"2023-10-18T17:18:00.000Z","time":"2023-10-18T17:18:00.000Z","reihung":false},"departure":{"scheduledTime":"2023-10-18T17:18:00.000Z","time":"2023-10-18T17:18:00.000Z","reihung":false}},{"station":{"evaNumber":"8070107","name":"Bonn Stadthaus","coordinates":{"lng":7.095267,"lat":50.736592},"ril100":"KB  H"},"arrival":{"scheduledTime":"2023-10-18T17:20:00.000Z","time":"2023-10-18T17:20:00.000Z","reihung":false},"departure":{"scheduledTime":"2023-10-18T17:20:00.000Z","time":"2023-10-18T17:20:00.000Z","reihung":false}},{"station":{"evaNumber":"8098044","name":"Bonn Hbf (tief)","coordinates":{"lng":7.098026,"lat":50.73216},"ril100":"KB  T"},"arrival":{"scheduledTime":"2023-10-18T17:23:00.000Z","time":"2023-10-18T17:23:00.000Z","reihung":false}}],"finalDestination":"Bad Honnef Stadtbahn","jid":"1|1368234|2|80|18102023","type":"JNY"}],"segmentTypes":["ICE","Fußweg","STR"]},{"checksum":"e73d13ba_3","cid":"C-4","date":"2023-10-17T22:00:00.000Z","duration":13680000,"changes":2,"isRideable":true,"arrival":{"platform":"1","scheduledTime":"2023-10-18T17:43:00.000Z","time":"2023-10-18T17:43:00.000Z","reihung":false},"departure":{"platform":"1","scheduledTime":"2023-10-18T13:55:00.000Z","time":"2023-10-18T13:55:00.000Z","reihung":false},"segments":[{"arrival":{"platform":"3","scheduledTime":"2023-10-18T15:24:00.000Z","time":"2023-10-18T15:24:00.000Z","reihung":false},"departure":{"platform":"1","scheduledTime":"2023-10-18T13:55:00.000Z","time":"2023-10-18T13:55:00.000Z","reihung":false},"duration":5340000,"wings":[{"train":{"name":"ICE 104","line":"43","admin":"80","number":"104","type":"ICE","operator":{"name":"DB Fernverkehr AG","icoX":2}},"segmentStart":{"name":"Freiburg(Breisgau) Hbf","evaNumber":"8000107"},"segmentDestination":{"name":"Mannheim Hbf","evaNumber":"8000244"},"stops":[{"station":{"evaNumber":"8000107","name":"Freiburg(Breisgau) Hbf","coordinates":{"lng":7.841344,"lat":47.997974},"ril100":"RF"},"departure":{"platform":"1","scheduledTime":"2023-10-18T13:55:00.000Z","time":"2023-10-18T13:55:00.000Z","reihung":false},"auslastung":{"first":1,"second":1}},{"station":{"evaNumber":"8000290","name":"Offenburg","coordinates":{"lng":7.94677,"lat":48.476506},"ril100":"RO"},"arrival":{"platform":"3","scheduledTime":"2023-10-18T14:26:00.000Z","time":"2023-10-18T14:26:00.000Z","reihung":false},"auslastung":{"first":1,"second":1}},{"station":{"evaNumber":"8000191","name":"Karlsruhe Hbf","coordinates":{"lng":8.401939,"lat":48.99353},"ril100":"RK"},"arrival":{"platform":"3","scheduledTime":"2023-10-18T14:58:00.000Z","time":"2023-10-18T14:58:00.000Z","reihung":false},"auslastung":{"first":2,"second":1}},{"station":{"evaNumber":"8000244","name":"Mannheim Hbf","coordinates":{"lng":8.469268,"lat":49.479181},"ril100":"RM"},"arrival":{"platform":"3","scheduledTime":"2023-10-18T15:24:00.000Z","time":"2023-10-18T15:24:00.000Z","reihung":false}}],"finalDestination":"Amsterdam Centraal","jid":"1|349066|0|80|18102023","auslastung":{"first":2,"second":1}}],"train":{"name":"ICE 204","line":"43","admin":"80","number":"204","type":"ICE","operator":{"name":"DB Fernverkehr AG","icoX":2}},"changeDuration":14,"segmentStart":{"name":"Freiburg(Breisgau) Hbf","evaNumber":"8000107"},"segmentDestination":{"name":"Mannheim Hbf","evaNumber":"8000244"},"stops":[{"station":{"evaNumber":"8000107","name":"Freiburg(Breisgau) Hbf","coordinates":{"lng":7.841344,"lat":47.997974},"ril100":"RF"},"departure":{"platform":"1","scheduledTime":"2023-10-18T13:55:00.000Z","time":"2023-10-18T13:55:00.000Z","reihung":false},"auslastung":{"first":1,"second":1}},{"station":{"evaNumber":"8000290","name":"Offenburg","coordinates":{"lng":7.94677,"lat":48.476506},"ril100":"RO"},"arrival":{"platform":"3","scheduledTime":"2023-10-18T14:26:00.000Z","time":"2023-10-18T14:26:00.000Z","reihung":false},"departure":{"platform":"3","scheduledTime":"2023-10-18T14:28:00.000Z","time":"2023-10-18T14:28:00.000Z","reihung":false},"auslastung":{"first":1,"second":1}},{"station":{"evaNumber":"8000191","name":"Karlsruhe Hbf","coordinates":{"lng":8.401939,"lat":48.99353},"ril100":"RK"},"arrival":{"platform":"3","scheduledTime":"2023-10-18T14:58:00.000Z","time":"2023-10-18T14:58:00.000Z","reihung":false},"departure":{"platform":"3","scheduledTime":"2023-10-18T15:00:00.000Z","time":"2023-10-18T15:00:00.000Z","reihung":false},"auslastung":{"first":2,"second":1}},{"station":{"evaNumber":"8000244","name":"Mannheim Hbf","coordinates":{"lng":8.469268,"lat":49.479181},"ril100":"RM"},"arrival":{"platform":"3","scheduledTime":"2023-10-18T15:24:00.000Z","time":"2023-10-18T15:24:00.000Z","reihung":false}}],"finalDestination":"Dortmund Hbf","jid":"1|200621|0|80|18102023","auslastung":{"first":2,"second":1},"messages":[{"type":"A","code":"CK","prio":200,"icoX":3,"txtN":"Sicher & kontaktlos ohne Ticketkontrolle reisen mit Komfort Check-in"},{"type":"A","code":"BR","prio":450,"icoX":6,"txtN":"Bordrestaurant"}],"type":"JNY"},{"arrival":{"platform":"2a/b","scheduledTime":"2023-10-18T16:15:00.000Z","time":"2023-10-18T16:15:00.000Z","reihung":false},"departure":{"platform":"1","scheduledTime":"2023-10-18T15:38:00.000Z","time":"2023-10-18T15:38:00.000Z","reihung":false},"duration":2220000,"train":{"name":"ICE 1512","line":"32","admin":"80","number":"1512","type":"ICE","operator":{"name":"DB Fernverkehr AG","icoX":2}},"changeDuration":5,"segmentStart":{"name":"Mannheim Hbf","evaNumber":"8000244"},"segmentDestination":{"name":"Mainz Hbf","evaNumber":"8000240"},"stops":[{"station":{"evaNumber":"8000244","name":"Mannheim Hbf","coordinates":{"lng":8.469268,"lat":49.479181},"ril100":"RM"},"departure":{"platform":"1","scheduledTime":"2023-10-18T15:38:00.000Z","time":"2023-10-18T15:38:00.000Z","reihung":false},"auslastung":{"first":1,"second":1}},{"station":{"evaNumber":"8000240","name":"Mainz Hbf","coordinates":{"lng":8.258453,"lat":50.001239},"ril100":"FMZ"},"arrival":{"platform":"2a/b","scheduledTime":"2023-10-18T16:15:00.000Z","time":"2023-10-18T16:15:00.000Z","reihung":false}}],"finalDestination":"Wiesbaden Hbf","jid":"1|197755|0|80|18102023","auslastung":{"first":1,"second":1},"messages":[{"type":"A","code":"CK","prio":200,"icoX":3,"txtN":"Sicher & kontaktlos ohne Ticketkontrolle reisen mit Komfort Check-in"},{"type":"A","code":"FR","prio":260,"icoX":4,"txtN":"Fahrradmitnahme reservierungspflichtig"},{"type":"A","code":"FB","prio":260,"icoX":5,"txtN":"Fahrradmitnahme begrenzt möglich"},{"type":"A","code":"BR","prio":450,"icoX":6,"txtN":"Bordrestaurant"}],"type":"JNY"},{"arrival":{"platform":"1","scheduledTime":"2023-10-18T17:43:00.000Z","time":"2023-10-18T17:43:00.000Z","reihung":false},"departure":{"platform":"3a/b","scheduledTime":"2023-10-18T16:20:00.000Z","time":"2023-10-18T16:20:00.000Z","reihung":false},"duration":4980000,"train":{"name":"ICE 26","line":"91","admin":"80","number":"26","type":"ICE","operator":{"name":"DB Fernverkehr AG","icoX":2}},"segmentStart":{"name":"Mainz Hbf","evaNumber":"8000240"},"segmentDestination":{"name":"Bonn Hbf","evaNumber":"8000044"},"stops":[{"station":{"evaNumber":"8000240","name":"Mainz Hbf","coordinates":{"lng":8.258453,"lat":50.001239},"ril100":"FMZ"},"departure":{"platform":"3a/b","scheduledTime":"2023-10-18T16:20:00.000Z","time":"2023-10-18T16:20:00.000Z","reihung":false},"auslastung":{"first":2,"second":1}},{"station":{"evaNumber":"8000206","name":"Koblenz Hbf","coordinates":{"lng":7.588343,"lat":50.350775},"ril100":"KKO"},"arrival":{"platform":"3","scheduledTime":"2023-10-18T17:11:00.000Z","time":"2023-10-18T17:11:00.000Z","reihung":false},"departure":{"platform":"3","scheduledTime":"2023-10-18T17:13:00.000Z","time":"2023-10-18T17:13:00.000Z","reihung":false},"auslastung":{"first":1,"second":2}},{"station":{"evaNumber":"8000044","name":"Bonn Hbf","coordinates":{"lng":7.096678,"lat":50.731963},"ril100":"KB"},"arrival":{"platform":"1","scheduledTime":"2023-10-18T17:43:00.000Z","time":"2023-10-18T17:43:00.000Z","reihung":false}}],"finalDestination":"Dortmund Hbf","jid":"1|355693|0|80|18102023","auslastung":{"first":2,"second":2},"messages":[{"type":"A","code":"CK","prio":200,"icoX":3,"txtN":"Sicher & kontaktlos ohne Ticketkontrolle reisen mit Komfort Check-in"},{"type":"A","code":"FR","prio":260,"icoX":4,"txtN":"Fahrradmitnahme reservierungspflichtig"},{"type":"A","code":"FB","prio":260,"icoX":5,"txtN":"Fahrradmitnahme begrenzt möglich"},{"type":"A","code":"BR","prio":450,"icoX":6,"txtN":"Bordrestaurant"}],"type":"JNY"}],"segmentTypes":["ICE","ICE","ICE"]},{"checksum":"9c8299ab_3","cid":"C-5","date":"2023-10-17T22:00:00.000Z","duration":15480000,"changes":2,"isRideable":true,"arrival":{"scheduledTime":"2023-10-18T18:42:00.000Z","time":"2023-10-18T18:42:00.000Z","reihung":false},"departure":{"platform":"1","scheduledTime":"2023-10-18T14:24:00.000Z","time":"2023-10-18T14:24:00.000Z","reihung":false},"segments":[{"arrival":{"platform":"3","scheduledTime":"2023-10-18T16:44:00.000Z","time":"2023-10-18T16:44:00.000Z","reihung":false},"departure":{"platform":"1","scheduledTime":"2023-10-18T14:24:00.000Z","time":"2023-10-18T14:24:00.000Z","reihung":false},"duration":8400000,"train":{"name":"ECE 52","line":"85","admin":"80TRI","number":"52","type":"ECE","operator":{"name":"DB/SBB/TI","icoX":14}},"changeDuration":25,"segmentStart":{"name":"Freiburg(Breisgau) Hbf","evaNumber":"8000107"},"segmentDestination":{"name":"Frankfurt(Main)Hbf","evaNumber":"8000105"},"stops":[{"station":{"evaNumber":"8000107","name":"Freiburg(Breisgau) Hbf","coordinates":{"lng":7.841344,"lat":47.997974},"ril100":"RF"},"departure":{"platform":"1","scheduledTime":"2023-10-18T14:24:00.000Z","time":"2023-10-18T14:24:00.000Z","reihung":false},"auslastung":{"first":2,"second":1}},{"station":{"evaNumber":"8005101","name":"Ringsheim/Europa-Park","coordinates":{"lng":7.773197,"lat":48.248926},"ril100":"RRI"},"arrival":{"platform":"2","scheduledTime":"2023-10-18T14:40:00.000Z","time":"2023-10-18T14:40:00.000Z","reihung":false},"departure":{"platform":"2","scheduledTime":"2023-10-18T14:42:00.000Z","time":"2023-10-18T14:42:00.000Z","reihung":false},"auslastung":{"first":2,"second":1}},{"station":{"evaNumber":"8000191","name":"Karlsruhe Hbf","coordinates":{"lng":8.401939,"lat":48.99353},"ril100":"RK"},"arrival":{"platform":"3","scheduledTime":"2023-10-18T15:27:00.000Z","time":"2023-10-18T15:27:00.000Z","reihung":false},"departure":{"platform":"3","scheduledTime":"2023-10-18T15:29:00.000Z","time":"2023-10-18T15:29:00.000Z","reihung":false},"auslastung":{"first":1,"second":1}},{"station":{"evaNumber":"8000244","name":"Mannheim Hbf","coordinates":{"lng":8.469268,"lat":49.479181},"ril100":"RM"},"arrival":{"platform":"2","scheduledTime":"2023-10-18T15:58:00.000Z","time":"2023-10-18T15:58:00.000Z","reihung":false},"departure":{"platform":"2","scheduledTime":"2023-10-18T16:00:00.000Z","time":"2023-10-18T16:00:00.000Z","reihung":false},"auslastung":{"first":2,"second":1}},{"station":{"evaNumber":"8000105","name":"Frankfurt(Main)Hbf","coordinates":{"lng":8.663003,"lat":50.106817},"ril100":"FF"},"arrival":{"platform":"3","scheduledTime":"2023-10-18T16:44:00.000Z","time":"2023-10-18T16:44:00.000Z","reihung":false}}],"finalDestination":"Frankfurt(Main)Hbf","jid":"1|361429|0|80|18102023","auslastung":{"first":2,"second":1},"messages":[{"type":"A","code":"BR","prio":450,"icoX":6,"txtN":"Bordrestaurant"}],"type":"JNY"},{"arrival":{"platform":"3","scheduledTime":"2023-10-18T18:10:00.000Z","time":"2023-10-18T18:10:00.000Z","reihung":false},"departure":{"platform":"7","scheduledTime":"2023-10-18T17:09:00.000Z","time":"2023-10-18T17:09:00.000Z","reihung":false},"duration":3660000,"train":{"name":"ICE 620","line":"41","admin":"80","number":"620","type":"ICE","operator":{"name":"DB Fernverkehr AG","icoX":2}},"changeDuration":8,"segmentStart":{"name":"Frankfurt(Main)Hbf","evaNumber":"8000105"},"segmentDestination":{"name":"Siegburg/Bonn","evaNumber":"8005556"},"stops":[{"station":{"evaNumber":"8000105","name":"Frankfurt(Main)Hbf","coordinates":{"lng":8.663003,"lat":50.106817},"ril100":"FF"},"departure":{"platform":"7","scheduledTime":"2023-10-18T17:09:00.000Z","time":"2023-10-18T17:09:00.000Z","reihung":false}},{"station":{"evaNumber":"8070003","name":"Frankfurt(M) Flughafen Fernbf","coordinates":{"lng":8.569776,"lat":50.052926},"ril100":"FFLF"},"arrival":{"platform":"Fern 7","scheduledTime":"2023-10-18T17:20:00.000Z","time":"2023-10-18T17:20:00.000Z","reihung":false},"departure":{"platform":"Fern 7","scheduledTime":"2023-10-18T17:21:00.000Z","time":"2023-10-18T17:21:00.000Z","reihung":false},"auslastung":{"first":2,"second":2}},{"station":{"evaNumber":"8003680","name":"Limburg Süd","coordinates":{"lng":8.096135,"lat":50.382462},"ril100":"FLIS"},"arrival":{"platform":"4","scheduledTime":"2023-10-18T17:39:00.000Z","time":"2023-10-18T17:39:00.000Z","reihung":false},"departure":{"platform":"4","scheduledTime":"2023-10-18T17:40:00.000Z","time":"2023-10-18T17:40:00.000Z","reihung":false},"auslastung":{"first":2,"second":2}},{"station":{"evaNumber":"8000667","name":"Montabaur","coordinates":{"lng":7.825254,"lat":50.44473},"ril100":"FMT"},"arrival":{"platform":"4","scheduledTime":"2023-10-18T17:50:00.000Z","time":"2023-10-18T17:50:00.000Z","reihung":false},"departure":{"platform":"4","scheduledTime":"2023-10-18T17:51:00.000Z","time":"2023-10-18T17:51:00.000Z","reihung":false},"auslastung":{"first":2,"second":1}},{"station":{"evaNumber":"8005556","name":"Siegburg/Bonn","coordinates":{"lng":7.202616,"lat":50.794051},"ril100":"KSIB"},"arrival":{"platform":"3","scheduledTime":"2023-10-18T18:10:00.000Z","time":"2023-10-18T18:10:00.000Z","reihung":false}}],"finalDestination":"Dortmund Hbf","jid":"1|207701|0|80|18102023","auslastung":{"first":2,"second":2},"messages":[{"type":"A","code":"CK","prio":200,"icoX":3,"txtN":"Sicher & kontaktlos ohne Ticketkontrolle reisen mit Komfort Check-in"},{"type":"A","code":"BR","prio":450,"icoX":6,"txtN":"Bordrestaurant"}],"type":"JNY"},{"type":"WALK","train":{"name":"Fußweg","type":"Fußweg"},"arrival":{"scheduledTime":"2023-10-18T18:14:00.000Z","time":"2023-10-18T18:14:00.000Z","reihung":false},"departure":{"scheduledTime":"2023-10-18T18:10:00.000Z","time":"2023-10-18T18:10:00.000Z","reihung":false},"duration":240000,"segmentStart":{"evaNumber":"8005556","name":"Siegburg/Bonn","coordinates":{"lng":7.202616,"lat":50.794051},"ril100":"KSIB"},"segmentDestination":{"evaNumber":"8075556","name":"Siegburg Bahnhof","coordinates":{"lng":7.203101,"lat":50.793476},"ril100":"PQSI"}},{"arrival":{"scheduledTime":"2023-10-18T18:42:00.000Z","time":"2023-10-18T18:42:00.000Z","reihung":false},"departure":{"scheduledTime":"2023-10-18T18:18:00.000Z","time":"2023-10-18T18:18:00.000Z","reihung":false},"duration":1440000,"train":{"name":"STR 66","line":"66","admin":"S3","number":"64424","type":"STR","operator":{"name":"Stadtwerke Bonn","icoX":12}},"segmentStart":{"name":"Siegburg Bahnhof","evaNumber":"8075556"},"segmentDestination":{"name":"Bonn Hbf (tief)","evaNumber":"8098044"},"stops":[{"station":{"evaNumber":"8075556","name":"Siegburg Bahnhof","coordinates":{"lng":7.203101,"lat":50.793476},"ril100":"PQSI"},"departure":{"scheduledTime":"2023-10-18T18:18:00.000Z","time":"2023-10-18T18:18:00.000Z","reihung":false}},{"station":{"evaNumber":"8070768","name":"St Augustin-Mülldorf","coordinates":{"lng":7.193456,"lat":50.784738}},"arrival":{"scheduledTime":"2023-10-18T18:20:00.000Z","time":"2023-10-18T18:20:00.000Z","reihung":false},"departure":{"scheduledTime":"2023-10-18T18:20:00.000Z","time":"2023-10-18T18:20:00.000Z","reihung":false}},{"station":{"evaNumber":"8070025","name":"Sankt Augustin Zentrum","coordinates":{"lng":7.187892,"lat":50.776657}},"arrival":{"scheduledTime":"2023-10-18T18:22:00.000Z","time":"2023-10-18T18:22:00.000Z","reihung":false},"departure":{"scheduledTime":"2023-10-18T18:22:00.000Z","time":"2023-10-18T18:22:00.000Z","reihung":false}},{"station":{"evaNumber":"8070767","name":"St Augustin Kloster","coordinates":{"lng":7.184997,"lat":50.773798}},"arrival":{"scheduledTime":"2023-10-18T18:23:00.000Z","time":"2023-10-18T18:23:00.000Z","reihung":false},"departure":{"scheduledTime":"2023-10-18T18:23:00.000Z","time":"2023-10-18T18:23:00.000Z","reihung":false}},{"station":{"evaNumber":"8070766","name":"St Augustin Ort","coordinates":{"lng":7.180421,"lat":50.770266}},"arrival":{"scheduledTime":"2023-10-18T18:24:00.000Z","time":"2023-10-18T18:24:00.000Z","reihung":false},"departure":{"scheduledTime":"2023-10-18T18:24:00.000Z","time":"2023-10-18T18:24:00.000Z","reihung":false}},{"station":{"evaNumber":"8070765","name":"Hangelar Ost","coordinates":{"lng":7.171558,"lat":50.763569}},"arrival":{"scheduledTime":"2023-10-18T18:25:00.000Z","time":"2023-10-18T18:25:00.000Z","reihung":false},"departure":{"scheduledTime":"2023-10-18T18:25:00.000Z","time":"2023-10-18T18:25:00.000Z","reihung":false}},{"station":{"evaNumber":"8070076","name":"Hangelar Mitte","coordinates":{"lng":7.165958,"lat":50.760198},"ril100":"KHIBM"},"arrival":{"scheduledTime":"2023-10-18T18:26:00.000Z","time":"2023-10-18T18:26:00.000Z","reihung":false},"departure":{"scheduledTime":"2023-10-18T18:26:00.000Z","time":"2023-10-18T18:26:00.000Z","reihung":false}},{"station":{"evaNumber":"8070764","name":"Hangelar West","coordinates":{"lng":7.158731,"lat":50.758139}},"arrival":{"scheduledTime":"2023-10-18T18:27:00.000Z","time":"2023-10-18T18:27:00.000Z","reihung":false},"departure":{"scheduledTime":"2023-10-18T18:27:00.000Z","time":"2023-10-18T18:27:00.000Z","reihung":false}},{"station":{"evaNumber":"8070749","name":"Bonn-Vilich-Müldorf","coordinates":{"lng":7.147027,"lat":50.754193}},"arrival":{"scheduledTime":"2023-10-18T18:29:00.000Z","time":"2023-10-18T18:29:00.000Z","reihung":false},"departure":{"scheduledTime":"2023-10-18T18:29:00.000Z","time":"2023-10-18T18:29:00.000Z","reihung":false}},{"station":{"evaNumber":"8070750","name":"Bonn-Vilich","coordinates":{"lng":7.129336,"lat":50.750921}},"arrival":{"scheduledTime":"2023-10-18T18:31:00.000Z","time":"2023-10-18T18:31:00.000Z","reihung":false},"departure":{"scheduledTime":"2023-10-18T18:31:00.000Z","time":"2023-10-18T18:31:00.000Z","reihung":false}},{"station":{"evaNumber":"8070748","name":"Bonn-Vilich-Rheindorf, Adelheidisstr.","coordinates":{"lng":7.125192,"lat":50.747217}},"arrival":{"scheduledTime":"2023-10-18T18:32:00.000Z","time":"2023-10-18T18:32:00.000Z","reihung":false},"departure":{"scheduledTime":"2023-10-18T18:32:00.000Z","time":"2023-10-18T18:32:00.000Z","reihung":false}},{"station":{"evaNumber":"8070075","name":"Bonn Konrad-Adenauer-Platz","coordinates":{"lng":7.117659,"lat":50.739307}},"arrival":{"scheduledTime":"2023-10-18T18:34:00.000Z","time":"2023-10-18T18:34:00.000Z","reihung":false},"departure":{"scheduledTime":"2023-10-18T18:34:00.000Z","time":"2023-10-18T18:34:00.000Z","reihung":false}},{"station":{"evaNumber":"8070195","name":"Bonn Bertha-von-Suttner-Pl./Beethovenhaus","coordinates":{"lng":7.102647,"lat":50.737437}},"arrival":{"scheduledTime":"2023-10-18T18:37:00.000Z","time":"2023-10-18T18:37:00.000Z","reihung":false},"departure":{"scheduledTime":"2023-10-18T18:37:00.000Z","time":"2023-10-18T18:37:00.000Z","reihung":false}},{"station":{"evaNumber":"8070107","name":"Bonn Stadthaus","coordinates":{"lng":7.095267,"lat":50.736592},"ril100":"KB  H"},"arrival":{"scheduledTime":"2023-10-18T18:39:00.000Z","time":"2023-10-18T18:39:00.000Z","reihung":false},"departure":{"scheduledTime":"2023-10-18T18:39:00.000Z","time":"2023-10-18T18:39:00.000Z","reihung":false}},{"station":{"evaNumber":"8098044","name":"Bonn Hbf (tief)","coordinates":{"lng":7.098026,"lat":50.73216},"ril100":"KB  T"},"arrival":{"scheduledTime":"2023-10-18T18:42:00.000Z","time":"2023-10-18T18:42:00.000Z","reihung":false}}],"finalDestination":"Bonn Heussallee/Museumsmeile","jid":"1|1368261|0|80|18102023","type":"JNY"}],"segmentTypes":["ECE","ICE","Fußweg","STR"]},{"checksum":"d5ecc5d1_3","cid":"C-6","date":"2023-10-17T22:00:00.000Z","duration":13620000,"changes":3,"isRideable":true,"arrival":{"scheduledTime":"2023-10-18T18:42:00.000Z","time":"2023-10-18T18:42:00.000Z","reihung":false},"departure":{"platform":"1","scheduledTime":"2023-10-18T14:55:00.000Z","time":"2023-10-18T14:55:00.000Z","reihung":false},"segments":[{"arrival":{"platform":"2","scheduledTime":"2023-10-18T16:24:00.000Z","time":"2023-10-18T16:24:00.000Z","reihung":false},"departure":{"platform":"1","scheduledTime":"2023-10-18T14:55:00.000Z","time":"2023-10-18T14:55:00.000Z","reihung":false},"duration":5340000,"train":{"name":"ICE 274","line":"12","admin":"80","number":"274","type":"ICE","operator":{"name":"DB Fernverkehr AG","icoX":2}},"changeDuration":12,"segmentStart":{"name":"Freiburg(Breisgau) Hbf","evaNumber":"8000107"},"segmentDestination":{"name":"Mannheim Hbf","evaNumber":"8000244"},"stops":[{"station":{"evaNumber":"8000107","name":"Freiburg(Breisgau) Hbf","coordinates":{"lng":7.841344,"lat":47.997974},"ril100":"RF"},"departure":{"platform":"1","scheduledTime":"2023-10-18T14:55:00.000Z","time":"2023-10-18T14:55:00.000Z","reihung":false},"auslastung":{"first":1,"second":1}},{"station":{"evaNumber":"8000290","name":"Offenburg","coordinates":{"lng":7.94677,"lat":48.476506},"ril100":"RO"},"arrival":{"platform":"3","scheduledTime":"2023-10-18T15:26:00.000Z","time":"2023-10-18T15:26:00.000Z","reihung":false},"departure":{"platform":"3","scheduledTime":"2023-10-18T15:27:00.000Z","time":"2023-10-18T15:27:00.000Z","reihung":false},"auslastung":{"first":1,"second":1}},{"station":{"evaNumber":"8000191","name":"Karlsruhe Hbf","coordinates":{"lng":8.401939,"lat":48.99353},"ril100":"RK"},"arrival":{"platform":"3","scheduledTime":"2023-10-18T15:58:00.000Z","time":"2023-10-18T15:58:00.000Z","reihung":false},"departure":{"platform":"3","scheduledTime":"2023-10-18T16:00:00.000Z","time":"2023-10-18T16:00:00.000Z","reihung":false},"auslastung":{"first":1,"second":1}},{"station":{"evaNumber":"8000244","name":"Mannheim Hbf","coordinates":{"lng":8.469268,"lat":49.479181},"ril100":"RM"},"arrival":{"platform":"2","scheduledTime":"2023-10-18T16:24:00.000Z","time":"2023-10-18T16:24:00.000Z","reihung":false}}],"finalDestination":"Hamburg-Altona","jid":"1|204229|0|80|18102023","auslastung":{"first":1,"second":1},"messages":[{"type":"A","code":"CK","prio":200,"icoX":3,"txtN":"Sicher & kontaktlos ohne Ticketkontrolle reisen mit Komfort Check-in"},{"type":"A","code":"FR","prio":260,"icoX":4,"txtN":"Fahrradmitnahme reservierungspflichtig"},{"type":"A","code":"FB","prio":260,"icoX":5,"txtN":"Fahrradmitnahme begrenzt möglich"},{"type":"A","code":"BR","prio":450,"icoX":6,"txtN":"Bordrestaurant"},{"type":"A","code":"EH","prio":560,"icoX":3,"txtN":"Fahrzeuggebundene Einstiegshilfe vorhanden"}],"type":"JNY"},{"arrival":{"platform":"Fern 6","scheduledTime":"2023-10-18T17:06:00.000Z","time":"2023-10-18T17:06:00.000Z","reihung":false},"departure":{"platform":"3","scheduledTime":"2023-10-18T16:36:00.000Z","time":"2023-10-18T16:36:00.000Z","reihung":false},"duration":1800000,"train":{"name":"ICE 514","line":"42","admin":"80","number":"514","type":"ICE","operator":{"name":"DB Fernverkehr AG","icoX":2}},"changeDuration":15,"segmentStart":{"name":"Mannheim Hbf","evaNumber":"8000244"},"segmentDestination":{"name":"Frankfurt(M) Flughafen Fernbf","evaNumber":"8070003"},"stops":[{"station":{"evaNumber":"8000244","name":"Mannheim Hbf","coordinates":{"lng":8.469268,"lat":49.479181},"ril100":"RM"},"departure":{"platform":"3","scheduledTime":"2023-10-18T16:36:00.000Z","time":"2023-10-18T16:36:00.000Z","reihung":false},"auslastung":{"first":3,"second":2}},{"station":{"evaNumber":"8070003","name":"Frankfurt(M) Flughafen Fernbf","coordinates":{"lng":8.569776,"lat":50.052926},"ril100":"FFLF"},"arrival":{"platform":"Fern 6","scheduledTime":"2023-10-18T17:06:00.000Z","time":"2023-10-18T17:06:00.000Z","reihung":false}}],"finalDestination":"Münster(Westf)Hbf","jid":"1|204993|0|80|18102023","auslastung":{"first":3,"second":2},"messages":[{"type":"A","code":"CK","prio":200,"icoX":3,"txtN":"Sicher & kontaktlos ohne Ticketkontrolle reisen mit Komfort Check-in"},{"type":"A","code":"FR","prio":260,"icoX":4,"txtN":"Fahrradmitnahme reservierungspflichtig"},{"type":"A","code":"FB","prio":260,"icoX":5,"txtN":"Fahrradmitnahme begrenzt möglich"},{"type":"A","code":"BR","prio":450,"icoX":6,"txtN":"Bordrestaurant"},{"type":"A","code":"EH","prio":560,"icoX":3,"txtN":"Fahrzeuggebundene Einstiegshilfe vorhanden"}],"type":"JNY"},{"arrival":{"platform":"3","scheduledTime":"2023-10-18T18:10:00.000Z","time":"2023-10-18T18:10:00.000Z","reihung":false},"departure":{"platform":"Fern 7","scheduledTime":"2023-10-18T17:21:00.000Z","time":"2023-10-18T17:21:00.000Z","reihung":false},"duration":2940000,"train":{"name":"ICE 620","line":"41","admin":"80","number":"620","type":"ICE","operator":{"name":"DB Fernverkehr AG","icoX":2}},"changeDuration":8,"segmentStart":{"name":"Frankfurt(M) Flughafen Fernbf","evaNumber":"8070003"},"segmentDestination":{"name":"Siegburg/Bonn","evaNumber":"8005556"},"stops":[{"station":{"evaNumber":"8070003","name":"Frankfurt(M) Flughafen Fernbf","coordinates":{"lng":8.569776,"lat":50.052926},"ril100":"FFLF"},"departure":{"platform":"Fern 7","scheduledTime":"2023-10-18T17:21:00.000Z","time":"2023-10-18T17:21:00.000Z","reihung":false},"auslastung":{"first":2,"second":2}},{"station":{"evaNumber":"8003680","name":"Limburg Süd","coordinates":{"lng":8.096135,"lat":50.382462},"ril100":"FLIS"},"arrival":{"platform":"4","scheduledTime":"2023-10-18T17:39:00.000Z","time":"2023-10-18T17:39:00.000Z","reihung":false},"departure":{"platform":"4","scheduledTime":"2023-10-18T17:40:00.000Z","time":"2023-10-18T17:40:00.000Z","reihung":false},"auslastung":{"first":2,"second":2}},{"station":{"evaNumber":"8000667","name":"Montabaur","coordinates":{"lng":7.825254,"lat":50.44473},"ril100":"FMT"},"arrival":{"platform":"4","scheduledTime":"2023-10-18T17:50:00.000Z","time":"2023-10-18T17:50:00.000Z","reihung":false},"departure":{"platform":"4","scheduledTime":"2023-10-18T17:51:00.000Z","time":"2023-10-18T17:51:00.000Z","reihung":false},"auslastung":{"first":2,"second":1}},{"station":{"evaNumber":"8005556","name":"Siegburg/Bonn","coordinates":{"lng":7.202616,"lat":50.794051},"ril100":"KSIB"},"arrival":{"platform":"3","scheduledTime":"2023-10-18T18:10:00.000Z","time":"2023-10-18T18:10:00.000Z","reihung":false}}],"finalDestination":"Dortmund Hbf","jid":"1|207701|0|80|18102023","auslastung":{"first":2,"second":2},"messages":[{"type":"A","code":"CK","prio":200,"icoX":3,"txtN":"Sicher & kontaktlos ohne Ticketkontrolle reisen mit Komfort Check-in"},{"type":"A","code":"BR","prio":450,"icoX":6,"txtN":"Bordrestaurant"}],"type":"JNY"},{"type":"WALK","train":{"name":"Fußweg","type":"Fußweg"},"arrival":{"scheduledTime":"2023-10-18T18:14:00.000Z","time":"2023-10-18T18:14:00.000Z","reihung":false},"departure":{"scheduledTime":"2023-10-18T18:10:00.000Z","time":"2023-10-18T18:10:00.000Z","reihung":false},"duration":240000,"segmentStart":{"evaNumber":"8005556","name":"Siegburg/Bonn","coordinates":{"lng":7.202616,"lat":50.794051},"ril100":"KSIB"},"segmentDestination":{"evaNumber":"8075556","name":"Siegburg Bahnhof","coordinates":{"lng":7.203101,"lat":50.793476},"ril100":"PQSI"}},{"arrival":{"scheduledTime":"2023-10-18T18:42:00.000Z","time":"2023-10-18T18:42:00.000Z","reihung":false},"departure":{"scheduledTime":"2023-10-18T18:18:00.000Z","time":"2023-10-18T18:18:00.000Z","reihung":false},"duration":1440000,"train":{"name":"STR 66","line":"66","admin":"S3","number":"64424","type":"STR","operator":{"name":"Stadtwerke Bonn","icoX":12}},"segmentStart":{"name":"Siegburg Bahnhof","evaNumber":"8075556"},"segmentDestination":{"name":"Bonn Hbf (tief)","evaNumber":"8098044"},"stops":[{"station":{"evaNumber":"8075556","name":"Siegburg Bahnhof","coordinates":{"lng":7.203101,"lat":50.793476},"ril100":"PQSI"},"departure":{"scheduledTime":"2023-10-18T18:18:00.000Z","time":"2023-10-18T18:18:00.000Z","reihung":false}},{"station":{"evaNumber":"8070768","name":"St Augustin-Mülldorf","coordinates":{"lng":7.193456,"lat":50.784738}},"arrival":{"scheduledTime":"2023-10-18T18:20:00.000Z","time":"2023-10-18T18:20:00.000Z","reihung":false},"departure":{"scheduledTime":"2023-10-18T18:20:00.000Z","time":"2023-10-18T18:20:00.000Z","reihung":false}},{"station":{"evaNumber":"8070025","name":"Sankt Augustin Zentrum","coordinates":{"lng":7.187892,"lat":50.776657}},"arrival":{"scheduledTime":"2023-10-18T18:22:00.000Z","time":"2023-10-18T18:22:00.000Z","reihung":false},"departure":{"scheduledTime":"2023-10-18T18:22:00.000Z","time":"2023-10-18T18:22:00.000Z","reihung":false}},{"station":{"evaNumber":"8070767","name":"St Augustin Kloster","coordinates":{"lng":7.184997,"lat":50.773798}},"arrival":{"scheduledTime":"2023-10-18T18:23:00.000Z","time":"2023-10-18T18:23:00.000Z","reihung":false},"departure":{"scheduledTime":"2023-10-18T18:23:00.000Z","time":"2023-10-18T18:23:00.000Z","reihung":false}},{"station":{"evaNumber":"8070766","name":"St Augustin Ort","coordinates":{"lng":7.180421,"lat":50.770266}},"arrival":{"scheduledTime":"2023-10-18T18:24:00.000Z","time":"2023-10-18T18:24:00.000Z","reihung":false},"departure":{"scheduledTime":"2023-10-18T18:24:00.000Z","time":"2023-10-18T18:24:00.000Z","reihung":false}},{"station":{"evaNumber":"8070765","name":"Hangelar Ost","coordinates":{"lng":7.171558,"lat":50.763569}},"arrival":{"scheduledTime":"2023-10-18T18:25:00.000Z","time":"2023-10-18T18:25:00.000Z","reihung":false},"departure":{"scheduledTime":"2023-10-18T18:25:00.000Z","time":"2023-10-18T18:25:00.000Z","reihung":false}},{"station":{"evaNumber":"8070076","name":"Hangelar Mitte","coordinates":{"lng":7.165958,"lat":50.760198},"ril100":"KHIBM"},"arrival":{"scheduledTime":"2023-10-18T18:26:00.000Z","time":"2023-10-18T18:26:00.000Z","reihung":false},"departure":{"scheduledTime":"2023-10-18T18:26:00.000Z","time":"2023-10-18T18:26:00.000Z","reihung":false}},{"station":{"evaNumber":"8070764","name":"Hangelar West","coordinates":{"lng":7.158731,"lat":50.758139}},"arrival":{"scheduledTime":"2023-10-18T18:27:00.000Z","time":"2023-10-18T18:27:00.000Z","reihung":false},"departure":{"scheduledTime":"2023-10-18T18:27:00.000Z","time":"2023-10-18T18:27:00.000Z","reihung":false}},{"station":{"evaNumber":"8070749","name":"Bonn-Vilich-Müldorf","coordinates":{"lng":7.147027,"lat":50.754193}},"arrival":{"scheduledTime":"2023-10-18T18:29:00.000Z","time":"2023-10-18T18:29:00.000Z","reihung":false},"departure":{"scheduledTime":"2023-10-18T18:29:00.000Z","time":"2023-10-18T18:29:00.000Z","reihung":false}},{"station":{"evaNumber":"8070750","name":"Bonn-Vilich","coordinates":{"lng":7.129336,"lat":50.750921}},"arrival":{"scheduledTime":"2023-10-18T18:31:00.000Z","time":"2023-10-18T18:31:00.000Z","reihung":false},"departure":{"scheduledTime":"2023-10-18T18:31:00.000Z","time":"2023-10-18T18:31:00.000Z","reihung":false}},{"station":{"evaNumber":"8070748","name":"Bonn-Vilich-Rheindorf, Adelheidisstr.","coordinates":{"lng":7.125192,"lat":50.747217}},"arrival":{"scheduledTime":"2023-10-18T18:32:00.000Z","time":"2023-10-18T18:32:00.000Z","reihung":false},"departure":{"scheduledTime":"2023-10-18T18:32:00.000Z","time":"2023-10-18T18:32:00.000Z","reihung":false}},{"station":{"evaNumber":"8070075","name":"Bonn Konrad-Adenauer-Platz","coordinates":{"lng":7.117659,"lat":50.739307}},"arrival":{"scheduledTime":"2023-10-18T18:34:00.000Z","time":"2023-10-18T18:34:00.000Z","reihung":false},"departure":{"scheduledTime":"2023-10-18T18:34:00.000Z","time":"2023-10-18T18:34:00.000Z","reihung":false}},{"station":{"evaNumber":"8070195","name":"Bonn Bertha-von-Suttner-Pl./Beethovenhaus","coordinates":{"lng":7.102647,"lat":50.737437}},"arrival":{"scheduledTime":"2023-10-18T18:37:00.000Z","time":"2023-10-18T18:37:00.000Z","reihung":false},"departure":{"scheduledTime":"2023-10-18T18:37:00.000Z","time":"2023-10-18T18:37:00.000Z","reihung":false}},{"station":{"evaNumber":"8070107","name":"Bonn Stadthaus","coordinates":{"lng":7.095267,"lat":50.736592},"ril100":"KB  H"},"arrival":{"scheduledTime":"2023-10-18T18:39:00.000Z","time":"2023-10-18T18:39:00.000Z","reihung":false},"departure":{"scheduledTime":"2023-10-18T18:39:00.000Z","time":"2023-10-18T18:39:00.000Z","reihung":false}},{"station":{"evaNumber":"8098044","name":"Bonn Hbf (tief)","coordinates":{"lng":7.098026,"lat":50.73216},"ril100":"KB  T"},"arrival":{"scheduledTime":"2023-10-18T18:42:00.000Z","time":"2023-10-18T18:42:00.000Z","reihung":false}}],"finalDestination":"Bonn Heussallee/Museumsmeile","jid":"1|1368261|0|80|18102023","type":"JNY"}],"segmentTypes":["ICE","ICE","ICE","Fußweg","STR"]},{"checksum":"76222621_3","cid":"C-7","date":"2023-10-17T22:00:00.000Z","duration":14400000,"changes":2,"isRideable":true,"arrival":{"platform":"3","scheduledTime":"2023-10-18T18:55:00.000Z","time":"2023-10-18T18:55:00.000Z","reihung":false},"departure":{"platform":"1","scheduledTime":"2023-10-18T14:55:00.000Z","time":"2023-10-18T14:55:00.000Z","reihung":false},"segments":[{"arrival":{"platform":"2","scheduledTime":"2023-10-18T16:24:00.000Z","time":"2023-10-18T16:24:00.000Z","reihung":false},"departure":{"platform":"1","scheduledTime":"2023-10-18T14:55:00.000Z","time":"2023-10-18T14:55:00.000Z","reihung":false},"duration":5340000,"train":{"name":"ICE 274","line":"12","admin":"80","number":"274","type":"ICE","operator":{"name":"DB Fernverkehr AG","icoX":2}},"changeDuration":12,"segmentStart":{"name":"Freiburg(Breisgau) Hbf","evaNumber":"8000107"},"segmentDestination":{"name":"Mannheim Hbf","evaNumber":"8000244"},"stops":[{"station":{"evaNumber":"8000107","name":"Freiburg(Breisgau) Hbf","coordinates":{"lng":7.841344,"lat":47.997974},"ril100":"RF"},"departure":{"platform":"1","scheduledTime":"2023-10-18T14:55:00.000Z","time":"2023-10-18T14:55:00.000Z","reihung":false},"auslastung":{"first":1,"second":1}},{"station":{"evaNumber":"8000290","name":"Offenburg","coordinates":{"lng":7.94677,"lat":48.476506},"ril100":"RO"},"arrival":{"platform":"3","scheduledTime":"2023-10-18T15:26:00.000Z","time":"2023-10-18T15:26:00.000Z","reihung":false},"departure":{"platform":"3","scheduledTime":"2023-10-18T15:27:00.000Z","time":"2023-10-18T15:27:00.000Z","reihung":false},"auslastung":{"first":1,"second":1}},{"station":{"evaNumber":"8000191","name":"Karlsruhe Hbf","coordinates":{"lng":8.401939,"lat":48.99353},"ril100":"RK"},"arrival":{"platform":"3","scheduledTime":"2023-10-18T15:58:00.000Z","time":"2023-10-18T15:58:00.000Z","reihung":false},"departure":{"platform":"3","scheduledTime":"2023-10-18T16:00:00.000Z","time":"2023-10-18T16:00:00.000Z","reihung":false},"auslastung":{"first":1,"second":1}},{"station":{"evaNumber":"8000244","name":"Mannheim Hbf","coordinates":{"lng":8.469268,"lat":49.479181},"ril100":"RM"},"arrival":{"platform":"2","scheduledTime":"2023-10-18T16:24:00.000Z","time":"2023-10-18T16:24:00.000Z","reihung":false}}],"finalDestination":"Hamburg-Altona","jid":"1|204229|0|80|18102023","auslastung":{"first":1,"second":1},"messages":[{"type":"A","code":"CK","prio":200,"icoX":3,"txtN":"Sicher & kontaktlos ohne Ticketkontrolle reisen mit Komfort Check-in"},{"type":"A","code":"FR","prio":260,"icoX":4,"txtN":"Fahrradmitnahme reservierungspflichtig"},{"type":"A","code":"FB","prio":260,"icoX":5,"txtN":"Fahrradmitnahme begrenzt möglich"},{"type":"A","code":"BR","prio":450,"icoX":6,"txtN":"Bordrestaurant"},{"type":"A","code":"EH","prio":560,"icoX":3,"txtN":"Fahrzeuggebundene Einstiegshilfe vorhanden"}],"type":"JNY"},{"arrival":{"platform":"4","scheduledTime":"2023-10-18T18:04:00.000Z","time":"2023-10-18T18:04:00.000Z","reihung":false},"departure":{"platform":"3","scheduledTime":"2023-10-18T16:36:00.000Z","time":"2023-10-18T16:36:00.000Z","reihung":false},"duration":5280000,"train":{"name":"ICE 514","line":"42","admin":"80","number":"514","type":"ICE","operator":{"name":"DB Fernverkehr AG","icoX":2}},"changeDuration":28,"segmentStart":{"name":"Mannheim Hbf","evaNumber":"8000244"},"segmentDestination":{"name":"Köln Hbf","evaNumber":"8000207"},"stops":[{"station":{"evaNumber":"8000244","name":"Mannheim Hbf","coordinates":{"lng":8.469268,"lat":49.479181},"ril100":"RM"},"departure":{"platform":"3","scheduledTime":"2023-10-18T16:36:00.000Z","time":"2023-10-18T16:36:00.000Z","reihung":false},"auslastung":{"first":3,"second":2}},{"station":{"evaNumber":"8070003","name":"Frankfurt(M) Flughafen Fernbf","coordinates":{"lng":8.569776,"lat":50.052926},"ril100":"FFLF"},"arrival":{"platform":"Fern 6","scheduledTime":"2023-10-18T17:06:00.000Z","time":"2023-10-18T17:06:00.000Z","reihung":false},"departure":{"platform":"Fern 6","scheduledTime":"2023-10-18T17:07:00.000Z","time":"2023-10-18T17:07:00.000Z","reihung":false},"auslastung":{"first":2,"second":2}},{"station":{"evaNumber":"8000207","name":"Köln Hbf","coordinates":{"lng":6.959197,"lat":50.942823},"ril100":"KK"},"arrival":{"platform":"4","scheduledTime":"2023-10-18T18:04:00.000Z","time":"2023-10-18T18:04:00.000Z","reihung":false}}],"finalDestination":"Münster(Westf)Hbf","jid":"1|204993|0|80|18102023","auslastung":{"first":3,"second":2},"messages":[{"type":"A","code":"CK","prio":200,"icoX":3,"txtN":"Sicher & kontaktlos ohne Ticketkontrolle reisen mit Komfort Check-in"},{"type":"A","code":"FR","prio":260,"icoX":4,"txtN":"Fahrradmitnahme reservierungspflichtig"},{"type":"A","code":"FB","prio":260,"icoX":5,"txtN":"Fahrradmitnahme begrenzt möglich"},{"type":"A","code":"BR","prio":450,"icoX":6,"txtN":"Bordrestaurant"},{"type":"A","code":"EH","prio":560,"icoX":3,"txtN":"Fahrzeuggebundene Einstiegshilfe vorhanden"}],"type":"JNY"},{"arrival":{"platform":"3","scheduledTime":"2023-10-18T18:55:00.000Z","time":"2023-10-18T18:55:00.000Z","reihung":false},"departure":{"platform":"9 D-G","scheduledTime":"2023-10-18T18:32:00.000Z","time":"2023-10-18T18:32:00.000Z","reihung":false},"duration":1380000,"train":{"name":"RE 5","line":"5","admin":"NXRE","number":"28531","type":"RE","operator":{"name":"National Express","icoX":16}},"segmentStart":{"name":"Köln Hbf","evaNumber":"8000207"},"segmentDestination":{"name":"Bonn Hbf","evaNumber":"8000044"},"stops":[{"station":{"evaNumber":"8000207","name":"Köln Hbf","coordinates":{"lng":6.959197,"lat":50.942823},"ril100":"KK"},"departure":{"platform":"9 D-G","scheduledTime":"2023-10-18T18:32:00.000Z","time":"2023-10-18T18:32:00.000Z","reihung":false}},{"station":{"evaNumber":"8003361","name":"Köln Süd","coordinates":{"lng":6.938486,"lat":50.927002},"ril100":"KKS"},"arrival":{"platform":"1","scheduledTime":"2023-10-18T18:38:00.000Z","time":"2023-10-18T18:38:00.000Z","reihung":false},"departure":{"platform":"1","scheduledTime":"2023-10-18T18:39:00.000Z","time":"2023-10-18T18:39:00.000Z","reihung":false}},{"station":{"evaNumber":"8001215","name":"Brühl","coordinates":{"lng":6.91266,"lat":50.829262},"ril100":"KBR"},"arrival":{"platform":"1","scheduledTime":"2023-10-18T18:45:00.000Z","time":"2023-10-18T18:45:00.000Z","reihung":false},"departure":{"platform":"1","scheduledTime":"2023-10-18T18:46:00.000Z","time":"2023-10-18T18:46:00.000Z","reihung":false}},{"station":{"evaNumber":"8000044","name":"Bonn Hbf","coordinates":{"lng":7.096678,"lat":50.731963},"ril100":"KB"},"arrival":{"platform":"3","scheduledTime":"2023-10-18T18:55:00.000Z","time":"2023-10-18T18:55:00.000Z","reihung":false}}],"finalDestination":"Koblenz Hbf","jid":"1|292895|0|80|18102023","messages":[{"type":"A","code":"N ","prio":5,"icoX":3,"txtN":"\"RRX Rhein-Ruhr-Express\""},{"type":"A","code":"FB","prio":260,"icoX":5,"txtN":"Fahrradmitnahme begrenzt möglich"},{"type":"A","code":"RG","prio":560,"icoX":3,"txtN":"Behindertengerechtes Fahrzeug"},{"type":"A","code":"RO","prio":560,"icoX":17,"txtN":"Rollstuhlstellplatz"},{"type":"A","code":"LS","prio":605,"icoX":3,"txtN":"Laptop-Steckdosen"},{"type":"A","code":"KL","prio":610,"icoX":3,"txtN":"Klimaanlage"},{"type":"A","code":"WV","prio":710,"icoX":3,"txtN":"WLAN verfügbar"}],"type":"JNY"}],"segmentTypes":["ICE","ICE","RE"]},{"checksum":"4ab7375a_3","cid":"C-8","date":"2023-10-17T22:00:00.000Z","duration":16560000,"changes":2,"isRideable":true,"arrival":{"platform":"1","scheduledTime":"2023-10-18T19:31:00.000Z","time":"2023-10-18T19:31:00.000Z","reihung":false},"departure":{"platform":"1","scheduledTime":"2023-10-18T14:55:00.000Z","time":"2023-10-18T14:55:00.000Z","reihung":false},"segments":[{"arrival":{"platform":"2","scheduledTime":"2023-10-18T16:24:00.000Z","time":"2023-10-18T16:24:00.000Z","reihung":false},"departure":{"platform":"1","scheduledTime":"2023-10-18T14:55:00.000Z","time":"2023-10-18T14:55:00.000Z","reihung":false},"duration":5340000,"train":{"name":"ICE 274","line":"12","admin":"80","number":"274","type":"ICE","operator":{"name":"DB Fernverkehr AG","icoX":2}},"changeDuration":15,"segmentStart":{"name":"Freiburg(Breisgau) Hbf","evaNumber":"8000107"},"segmentDestination":{"name":"Mannheim Hbf","evaNumber":"8000244"},"stops":[{"station":{"evaNumber":"8000107","name":"Freiburg(Breisgau) Hbf","coordinates":{"lng":7.841344,"lat":47.997974},"ril100":"RF"},"departure":{"platform":"1","scheduledTime":"2023-10-18T14:55:00.000Z","time":"2023-10-18T14:55:00.000Z","reihung":false},"auslastung":{"first":1,"second":1}},{"station":{"evaNumber":"8000290","name":"Offenburg","coordinates":{"lng":7.94677,"lat":48.476506},"ril100":"RO"},"arrival":{"platform":"3","scheduledTime":"2023-10-18T15:26:00.000Z","time":"2023-10-18T15:26:00.000Z","reihung":false},"departure":{"platform":"3","scheduledTime":"2023-10-18T15:27:00.000Z","time":"2023-10-18T15:27:00.000Z","reihung":false},"auslastung":{"first":1,"second":1}},{"station":{"evaNumber":"8000191","name":"Karlsruhe Hbf","coordinates":{"lng":8.401939,"lat":48.99353},"ril100":"RK"},"arrival":{"platform":"3","scheduledTime":"2023-10-18T15:58:00.000Z","time":"2023-10-18T15:58:00.000Z","reihung":false},"departure":{"platform":"3","scheduledTime":"2023-10-18T16:00:00.000Z","time":"2023-10-18T16:00:00.000Z","reihung":false},"auslastung":{"first":1,"second":1}},{"station":{"evaNumber":"8000244","name":"Mannheim Hbf","coordinates":{"lng":8.469268,"lat":49.479181},"ril100":"RM"},"arrival":{"platform":"2","scheduledTime":"2023-10-18T16:24:00.000Z","time":"2023-10-18T16:24:00.000Z","reihung":false}}],"finalDestination":"Hamburg-Altona","jid":"1|204229|0|80|18102023","auslastung":{"first":1,"second":1},"messages":[{"type":"A","code":"CK","prio":200,"icoX":3,"txtN":"Sicher & kontaktlos ohne Ticketkontrolle reisen mit Komfort Check-in"},{"type":"A","code":"FR","prio":260,"icoX":4,"txtN":"Fahrradmitnahme reservierungspflichtig"},{"type":"A","code":"FB","prio":260,"icoX":5,"txtN":"Fahrradmitnahme begrenzt möglich"},{"type":"A","code":"BR","prio":450,"icoX":6,"txtN":"Bordrestaurant"},{"type":"A","code":"EH","prio":560,"icoX":3,"txtN":"Fahrzeuggebundene Einstiegshilfe vorhanden"}],"type":"JNY"},{"arrival":{"platform":"3","scheduledTime":"2023-10-18T18:11:00.000Z","time":"2023-10-18T18:11:00.000Z","reihung":false},"departure":{"platform":"2","scheduledTime":"2023-10-18T16:39:00.000Z","time":"2023-10-18T16:39:00.000Z","reihung":false},"duration":5520000,"train":{"name":"ICE 1549","line":"55","admin":"80","number":"1549","type":"ICE","operator":{"name":"DB Fernverkehr AG","icoX":2}},"changeDuration":19,"segmentStart":{"name":"Mannheim Hbf","evaNumber":"8000244"},"segmentDestination":{"name":"Koblenz Hbf","evaNumber":"8000206"},"stops":[{"station":{"evaNumber":"8000244","name":"Mannheim Hbf","coordinates":{"lng":8.469268,"lat":49.479181},"ril100":"RM"},"departure":{"platform":"2","scheduledTime":"2023-10-18T16:39:00.000Z","time":"2023-10-18T16:39:00.000Z","reihung":false},"auslastung":{"first":1,"second":1}},{"station":{"evaNumber":"8000240","name":"Mainz Hbf","coordinates":{"lng":8.258453,"lat":50.001239},"ril100":"FMZ"},"arrival":{"platform":"3a/b","scheduledTime":"2023-10-18T17:18:00.000Z","time":"2023-10-18T17:18:00.000Z","reihung":false},"departure":{"platform":"3a/b","scheduledTime":"2023-10-18T17:20:00.000Z","time":"2023-10-18T17:20:00.000Z","reihung":false},"auslastung":{"first":1,"second":1}},{"station":{"evaNumber":"8000206","name":"Koblenz Hbf","coordinates":{"lng":7.588343,"lat":50.350775},"ril100":"KKO"},"arrival":{"platform":"3","scheduledTime":"2023-10-18T18:11:00.000Z","time":"2023-10-18T18:11:00.000Z","reihung":false}}],"finalDestination":"Dortmund Hbf","jid":"1|197935|0|80|18102023","auslastung":{"first":1,"second":1},"messages":[{"type":"A","code":"CK","prio":200,"icoX":3,"txtN":"Sicher & kontaktlos ohne Ticketkontrolle reisen mit Komfort Check-in"},{"type":"A","code":"FR","prio":260,"icoX":4,"txtN":"Fahrradmitnahme reservierungspflichtig"},{"type":"A","code":"FB","prio":260,"icoX":5,"txtN":"Fahrradmitnahme begrenzt möglich"},{"type":"A","code":"BR","prio":450,"icoX":6,"txtN":"Bordrestaurant"}],"type":"JNY"},{"arrival":{"platform":"1","scheduledTime":"2023-10-18T19:31:00.000Z","time":"2023-10-18T19:31:00.000Z","reihung":false},"departure":{"platform":"3","scheduledTime":"2023-10-18T18:30:00.000Z","time":"2023-10-18T18:30:00.000Z","reihung":false},"duration":3660000,"train":{"name":"RB 26","line":"26","admin":"TR","number":"25438","type":"RB","operator":{"name":"MittelrheinBahn (Trans Regio)","icoX":19}},"segmentStart":{"name":"Koblenz Hbf","evaNumber":"8000206"},"segmentDestination":{"name":"Bonn Hbf","evaNumber":"8000044"},"stops":[{"station":{"evaNumber":"8000206","name":"Koblenz Hbf","coordinates":{"lng":7.588343,"lat":50.350775},"ril100":"KKO"},"departure":{"platform":"3","scheduledTime":"2023-10-18T18:30:00.000Z","time":"2023-10-18T18:30:00.000Z","reihung":false}},{"station":{"evaNumber":"8003341","name":"Koblenz Stadtmitte","coordinates":{"lng":7.590051,"lat":50.358137},"ril100":"KKSM"},"arrival":{"platform":"1","scheduledTime":"2023-10-18T18:31:00.000Z","time":"2023-10-18T18:31:00.000Z","reihung":false},"departure":{"platform":"1","scheduledTime":"2023-10-18T18:31:00.000Z","time":"2023-10-18T18:31:00.000Z","reihung":false}},{"station":{"evaNumber":"8003352","name":"Koblenz-Lützel","coordinates":{"lng":7.591399,"lat":50.367162},"ril100":"KKOL"},"arrival":{"platform":"1","scheduledTime":"2023-10-18T18:32:00.000Z","time":"2023-10-18T18:32:00.000Z","reihung":false},"departure":{"platform":"1","scheduledTime":"2023-10-18T18:33:00.000Z","time":"2023-10-18T18:33:00.000Z","reihung":false}},{"station":{"evaNumber":"8006035","name":"Mülheim-Kärlich","coordinates":{"lng":7.50851,"lat":50.402661},"ril100":"KUR"},"arrival":{"platform":"3","scheduledTime":"2023-10-18T18:38:00.000Z","time":"2023-10-18T18:38:00.000Z","reihung":false},"departure":{"platform":"3","scheduledTime":"2023-10-18T18:38:00.000Z","time":"2023-10-18T18:38:00.000Z","reihung":false}},{"station":{"evaNumber":"8006303","name":"Weißenthurm","coordinates":{"lng":7.450799,"lat":50.421367},"ril100":"KWEH"},"arrival":{"platform":"1","scheduledTime":"2023-10-18T18:42:00.000Z","time":"2023-10-18T18:42:00.000Z","reihung":false},"departure":{"platform":"1","scheduledTime":"2023-10-18T18:42:00.000Z","time":"2023-10-18T18:42:00.000Z","reihung":false}},{"station":{"evaNumber":"8000331","name":"Andernach","coordinates":{"lng":7.404442,"lat":50.434743},"ril100":"KAND"},"arrival":{"platform":"2","scheduledTime":"2023-10-18T18:45:00.000Z","time":"2023-10-18T18:45:00.000Z","reihung":false},"departure":{"platform":"2","scheduledTime":"2023-10-18T18:45:00.000Z","time":"2023-10-18T18:45:00.000Z","reihung":false}},{"station":{"evaNumber":"8004200","name":"Namedy","coordinates":{"lng":7.361833,"lat":50.457082},"ril100":"KNAM"},"arrival":{"platform":"2","scheduledTime":"2023-10-18T18:49:00.000Z","time":"2023-10-18T18:49:00.000Z","reihung":false},"departure":{"platform":"2","scheduledTime":"2023-10-18T18:49:00.000Z","time":"2023-10-18T18:49:00.000Z","reihung":false}},{"station":{"evaNumber":"8001186","name":"Brohl","coordinates":{"lng":7.332672,"lat":50.481442},"ril100":"KBRO"},"arrival":{"platform":"2","scheduledTime":"2023-10-18T18:52:00.000Z","time":"2023-10-18T18:52:00.000Z","reihung":false},"departure":{"platform":"2","scheduledTime":"2023-10-18T18:52:00.000Z","time":"2023-10-18T18:52:00.000Z","reihung":false}},{"station":{"evaNumber":"8000694","name":"Bad Breisig","coordinates":{"lng":7.304832,"lat":50.504059},"ril100":"KBRE"},"arrival":{"platform":"1","scheduledTime":"2023-10-18T18:55:00.000Z","time":"2023-10-18T18:55:00.000Z","reihung":false},"departure":{"platform":"1","scheduledTime":"2023-10-18T18:55:00.000Z","time":"2023-10-18T18:55:00.000Z","reihung":false}},{"station":{"evaNumber":"8005580","name":"Sinzig(Rhein)","coordinates":{"lng":7.258124,"lat":50.546893},"ril100":"KSIZ"},"arrival":{"platform":"2","scheduledTime":"2023-10-18T18:59:00.000Z","time":"2023-10-18T18:59:00.000Z","reihung":false},"departure":{"platform":"2","scheduledTime":"2023-10-18T18:59:00.000Z","time":"2023-10-18T18:59:00.000Z","reihung":false}},{"station":{"evaNumber":"8000310","name":"Remagen","coordinates":{"lng":7.2297,"lat":50.577222},"ril100":"KRE"},"arrival":{"platform":"2","scheduledTime":"2023-10-18T19:04:00.000Z","time":"2023-10-18T19:04:00.000Z","reihung":false},"departure":{"platform":"2","scheduledTime":"2023-10-18T19:11:00.000Z","time":"2023-10-18T19:11:00.000Z","reihung":false}},{"station":{"evaNumber":"8004604","name":"Oberwinter","coordinates":{"lng":7.207785,"lat":50.611363},"ril100":"KOWI"},"arrival":{"platform":"2","scheduledTime":"2023-10-18T19:14:00.000Z","time":"2023-10-18T19:14:00.000Z","reihung":false},"departure":{"platform":"2","scheduledTime":"2023-10-18T19:15:00.000Z","time":"2023-10-18T19:15:00.000Z","reihung":false}},{"station":{"evaNumber":"8005153","name":"Rolandseck","coordinates":{"lng":7.206904,"lat":50.631463},"ril100":"KROL"},"arrival":{"platform":"1","scheduledTime":"2023-10-18T19:17:00.000Z","time":"2023-10-18T19:17:00.000Z","reihung":false},"departure":{"platform":"1","scheduledTime":"2023-10-18T19:18:00.000Z","time":"2023-10-18T19:18:00.000Z","reihung":false}},{"station":{"evaNumber":"8001085","name":"Bonn-Mehlem","coordinates":{"lng":7.181491,"lat":50.669038},"ril100":"KBM"},"arrival":{"platform":"2","scheduledTime":"2023-10-18T19:21:00.000Z","time":"2023-10-18T19:21:00.000Z","reihung":false},"departure":{"platform":"2","scheduledTime":"2023-10-18T19:22:00.000Z","time":"2023-10-18T19:22:00.000Z","reihung":false}},{"station":{"evaNumber":"8001082","name":"Bonn-Bad Godesberg","coordinates":{"lng":7.159692,"lat":50.683816},"ril100":"KBBG"},"arrival":{"platform":"2","scheduledTime":"2023-10-18T19:24:00.000Z","time":"2023-10-18T19:24:00.000Z","reihung":false},"departure":{"platform":"2","scheduledTime":"2023-10-18T19:25:00.000Z","time":"2023-10-18T19:25:00.000Z","reihung":false}},{"station":{"evaNumber":"8001091","name":"Bonn UN Campus","coordinates":{"lng":7.118009,"lat":50.714542},"ril100":"KBUN"},"arrival":{"platform":"1","scheduledTime":"2023-10-18T19:27:00.000Z","time":"2023-10-18T19:27:00.000Z","reihung":false},"departure":{"platform":"1","scheduledTime":"2023-10-18T19:28:00.000Z","time":"2023-10-18T19:28:00.000Z","reihung":false}},{"station":{"evaNumber":"8000044","name":"Bonn Hbf","coordinates":{"lng":7.096678,"lat":50.731963},"ril100":"KB"},"arrival":{"platform":"1","scheduledTime":"2023-10-18T19:31:00.000Z","time":"2023-10-18T19:31:00.000Z","reihung":false}}],"finalDestination":"Köln Messe/Deutz","jid":"1|290848|0|80|18102023","messages":[{"type":"A","code":"FB","prio":260,"icoX":5,"txtN":"Fahrradmitnahme begrenzt möglich"}],"type":"JNY"}],"segmentTypes":["ICE","ICE","RB"]}]}