{"context":{"earlier":"3|OB|MT#14#451606#451602#452043#452043#0#0#565#451576#1#0#3#0#0#-2147483648#1#2|PDH#bbe10b32f5270e429a5a473728022d1b|RD#18102023|RT#141653|US#0|RS#INIT","later":"3|OF|MT#14#451786#451786#452172#452232#0#0#565#451667#6#0#3#0#0#-2147483648#1#2|PDH#bbe10b32f5270e429a5a473728022d1b|RD#18102023|RT#141653|US#0|RS#INIT"},"routes":[{"checksum":"5f93bc5e_3","cid":"C-0","date":"2023-10-17T22:00:00.000Z","duration":26460000,"changes":2,"isRideable":true,"arrival":{"platform":"11","scheduledTime":"2023-10-18T20:03:00.000Z","time":"2023-10-18T20:03:00.000Z","reihung":false},"departure":{"platform":"5","scheduledTime":"2023-10-18T12:42:00.000Z","time":"2023-10-18T12:42:00.000Z","reihung":false},"segments":[{"arrival":{"platform":"1","scheduledTime":"2023-10-18T13:01:00.000Z","time":"2023-10-18T13:01:00.000Z","reihung":false},"departure":{"platform":"5","scheduledTime":"2023-10-18T12:42:00.000Z","time":"2023-10-18T12:42:00.000Z","reihung":false},"duration":1140000,"train":{"name":"S 3","line":"3","admin":"801539","number":"38336","type":"S","operator":{"name":"DB Regio AG Mitte","icoX":2}},"changeDuration":15,"segmentStart":{"name":"Heidelberg Hbf","evaNumber":"8000156"},"segmentDestination":{"name":"Mannheim Hbf","evaNumber":"8000244"},"stops":[{"station":{"evaNumber":"8000156","name":"Heidelberg Hbf","coordinates":{"lng":8.67548,"lat":49.403582},"ril100":"RH"},"departure":{"platform":"5","scheduledTime":"2023-10-18T12:42:00.000Z","time":"2023-10-18T12:42:00.000Z","reihung":false}},{"station":{"evaNumber":"8002687","name":"Heidelberg-Pfaffengrund/Wieblingen","coordinates":{"lng":8.641474,"lat":49.411969},"ril100":"RHBP"},"arrival":{"platform":"1","scheduledTime":"2023-10-18T12:45:00.000Z","time":"2023-10-18T12:45:00.000Z","reihung":false},"departure":{"platform":"1","scheduledTime":"2023-10-18T12:45:00.000Z","time":"2023-10-18T12:45:00.000Z","reihung":false}},{"station":{"evaNumber":"8003842","name":"Mannheim-Friedrichsfeld Süd","coordinates":{"lng":8.572239,"lat":49.438217},"ril100":"RMFS"},"arrival":{"platform":"1","scheduledTime":"2023-10-18T12:49:00.000Z","time":"2023-10-18T12:49:00.000Z","reihung":false},"departure":{"platform":"1","scheduledTime":"2023-10-18T12:49:00.000Z","time":"2023-10-18T12:49:00.000Z","reihung":false}},{"station":{"evaNumber":"8003847","name":"Mannheim-Seckenheim","coordinates":{"lng":8.538098,"lat":49.451413},"ril100":"RMSE"},"arrival":{"platform":"1","scheduledTime":"2023-10-18T12:52:00.000Z","time":"2023-10-18T12:52:00.000Z","reihung":false},"departure":{"platform":"1","scheduledTime":"2023-10-18T12:53:00.000Z","time":"2023-10-18T12:53:00.000Z","reihung":false}},{"station":{"evaNumber":"8003841","name":"Mannheim ARENA/Maimarkt","coordinates":{"lng":8.515922,"lat":49.45998},"ril100":"RMSM"},"arrival":{"platform":"1","scheduledTime":"2023-10-18T12:55:00.000Z","time":"2023-10-18T12:55:00.000Z","reihung":false},"departure":{"platform":"1","scheduledTime":"2023-10-18T12:55:00.000Z","time":"2023-10-18T12:55:00.000Z","reihung":false}},{"station":{"evaNumber":"8000244","name":"Mannheim Hbf","coordinates":{"lng":8.469268,"lat":49.479181},"ril100":"RM"},"arrival":{"platform":"1","scheduledTime":"2023-10-18T13:01:00.000Z","time":"2023-10-18T13:01:00.000Z","reihung":false}}],"finalDestination":"Schifferstadt","jid":"1|254211|0|80|18102023","messages":[{"type":"A","code":"FB","prio":260,"icoX":5,"txtN":"Fahrradmitnahme begrenzt möglich"},{"type":"A","code":"EH","prio":560,"icoX":6,"txtN":"Fahrzeuggebundene Einstiegshilfe vorhanden"}],"type":"JNY"},{"arrival":{"platform":"7","scheduledTime":"2023-10-18T18:32:00.000Z","time":"2023-10-18T18:32:00.000Z","reihung":false},"departure":{"platform":"3","scheduledTime":"2023-10-18T13:16:00.000Z","time":"2023-10-18T13:16:00.000Z","reihung":false},"duration":18960000,"train":{"name":"ICE 72","line":"20","admin":"80","number":"72","type":"ICE","operator":{"name":"DB Fernverkehr AG","icoX":7}},"changeDuration":24,"segmentStart":{"name":"Mannheim Hbf","evaNumber":"8000244"},"segmentDestination":{"name":"Berlin Hbf (tief)","evaNumber":"8098160"},"stops":[{"station":{"evaNumber":"8000244","name":"Mannheim Hbf","coordinates":{"lng":8.469268,"lat":49.479181},"ril100":"RM"},"departure":{"platform":"3","scheduledTime":"2023-10-18T13:16:00.000Z","time":"2023-10-18T13:16:00.000Z","reihung":false},"auslastung":{"first":2,"second":1}},{"station":{"evaNumber":"8000105","name":"Frankfurt(Main)Hbf","coordinates":{"lng":8.663003,"lat":50.106817},"ril100":"FF"},"arrival":{"platform":"8","scheduledTime":"2023-10-18T13:52:00.000Z","time":"2023-10-18T13:52:00.000Z","reihung":false},"departure":{"platform":"8","scheduledTime":"2023-10-18T13:58:00.000Z","time":"2023-10-18T13:58:00.000Z","reihung":false},"auslastung":{"first":2,"second":2}},{"station":{"evaNumber":"8000150","name":"Hanau Hbf","coordinates":{"lng":8.92921,"lat":50.120903},"ril100":"FH"},"arrival":{"platform":"7","scheduledTime":"2023-10-18T14:12:00.000Z","time":"2023-10-18T14:12:00.000Z","reihung":false},"departure":{"platform":"7","scheduledTime":"2023-10-18T14:14:00.000Z","time":"2023-10-18T14:14:00.000Z","reihung":false},"auslastung":{"first":2,"second":2}},{"station":{"evaNumber":"8000115","name":"Fulda","coordinates":{"lng":9.684178,"lat":50.554794},"ril100":"FFU"},"arrival":{"platform":"6","scheduledTime":"2023-10-18T14:58:00.000Z","time":"2023-10-18T14:58:00.000Z","reihung":false},"departure":{"platform":"6","scheduledTime":"2023-10-18T15:08:00.000Z","time":"2023-10-18T15:08:00.000Z","reihung":false},"auslastung":{"first":2,"second":2}},{"station":{"evaNumber":"8010097","name":"Eisenach","coordinates":{"lng":10.33212,"lat":50.976928},"ril100":"UEI"},"arrival":{"platform":"4","scheduledTime":"2023-10-18T16:00:00.000Z","time":"2023-10-18T16:00:00.000Z","reihung":false},"departure":{"platform":"4","scheduledTime":"2023-10-18T16:01:00.000Z","time":"2023-10-18T16:01:00.000Z","reihung":false},"auslastung":{"first":2,"second":2}},{"station":{"evaNumber":"8010101","name":"Erfurt Hbf","coordinates":{"lng":11.038502,"lat":50.97255},"ril100":"UE  P"},"arrival":{"platform":"10","scheduledTime":"2023-10-18T16:26:00.000Z","time":"2023-10-18T16:26:00.000Z","reihung":false},"departure":{"platform":"10","scheduledTime":"2023-10-18T16:28:00.000Z","time":"2023-10-18T16:28:00.000Z","reihung":false},"auslastung":{"first":2,"second":2}},{"station":{"evaNumber":"8010205","name":"Leipzig Hbf","coordinates":{"lng":12.381167,"lat":51.345081},"ril100":"LL"},"arrival":{"platform":"13","scheduledTime":"2023-10-18T17:10:00.000Z","time":"2023-10-18T17:10:00.000Z","reihung":false},"departure":{"platform":"13","scheduledTime":"2023-10-18T17:16:00.000Z","time":"2023-10-18T17:16:00.000Z","reihung":false},"auslastung":{"first":1,"second":1}},{"station":{"evaNumber":"8010222","name":"Lutherstadt Wittenberg Hbf","coordinates":{"lng":12.661999,"lat":51.867579},"ril100":"LW"},"arrival":{"platform":"3","scheduledTime":"2023-10-18T17:46:00.000Z","time":"2023-10-18T17:46:00.000Z","reihung":false},"departure":{"platform":"3","scheduledTime":"2023-10-18T17:48:00.000Z","time":"2023-10-18T17:48:00.000Z","reihung":false},"auslastung":{"first":1,"second":1}},{"station":{"evaNumber":"8011113","name":"Berlin Südkreuz","coordinates":{"lng":13.365863,"lat":52.47623},"ril100":"BPAF"},"arrival":{"platform":"8","scheduledTime":"2023-10-18T18:25:00.000Z","time":"2023-10-18T18:25:00.000Z","reihung":false}},{"station":{"evaNumber":"8098160","name":"Berlin Hbf (tief)","coordinates":{"lng":13.368892,"lat":52.52585},"ril100":"BL"},"arrival":{"platform":"7","scheduledTime":"2023-10-18T18:32:00.000Z","time":"2023-10-18T18:32:00.000Z","reihung":false}}],"finalDestination":"Berlin Hbf (tief)","jid":"1|209311|0|80|18102023","auslastung":{"first":2,"second":2},"messages":[{"type":"A","code":"CK","prio":200,"icoX":6,"txtN":"Sicher & kontaktlos ohne Ticketkontrolle reisen mit Komfort Check-in"},{"type":"A","code":"FR","prio":260,"icoX":8,"txtN":"Fahrradmitnahme reservierungspflichtig"},{"type":"A","code":"FB","prio":260,"icoX":5,"txtN":"Fahrradmitnahme begrenzt möglich"},{"type":"A","code":"BR","prio":450,"icoX":9,"txtN":"Bordrestaurant"},{"type":"A","code":"EH","prio":560,"icoX":6,"txtN":"Fahrzeuggebundene Einstiegshilfe vorhanden"}],"type":"JNY"},{"type":"WALK","train":{"name":"Fußweg","type":"Fußweg"},"arrival":{"scheduledTime":"2023-10-18T18:41:00.000Z","time":"2023-10-18T18:41:00.000Z","reihung":false},"departure":{"scheduledTime":"2023-10-18T18:32:00.000Z","time":"2023-10-18T18:32:00.000Z","reihung":false},"duration":540000,"segmentStart":{"evaNumber":"8098160","name":"Berlin Hbf (tief)","coordinates":{"lng":13.368892,"lat":52.52585},"ril100":"BL"},"segmentDestination":{"evaNumber":"8011160","name":"Berlin Hbf","coordinates":{"lng":13.369629,"lat":52.524924},"ril100":"BLS"}},{"arrival":{"platform":"11","scheduledTime":"2023-10-18T20:03:00.000Z","time":"2023-10-18T20:03:00.000Z","reihung":false},"departure":{"platform":"11","scheduledTime":"2023-10-18T18:56:00.000Z","time":"2023-10-18T18:56:00.000Z","reihung":false},"duration":4020000,"train":{"name":"RE 1","line":"1","admin":"OWRE","number":"73744","type":"RE","operator":{"name":"Ostdeutsche Eisenbahn GmbH","icoX":12}},"segmentStart":{"name":"Berlin Hbf","evaNumber":"8011160"},"segmentDestination":{"name":"Frankfurt(Oder)","evaNumber":"8010113"},"stops":[{"station":{"evaNumber":"8011160","name":"Berlin Hbf","coordinates":{"lng":13.369629,"lat":52.524924},"ril100":"BLS"},"departure":{"platform":"11","scheduledTime":"2023-10-18T18:56:00.000Z","time":"2023-10-18T18:56:00.000Z","reihung":false}},{"station":{"evaNumber":"8011306","name":"Berlin Friedrichstraße","coordinates":{"lng":13.386925,"lat":52.520331},"ril100":"BFRI"},"arrival":{"platform":"1","scheduledTime":"2023-10-18T18:58:00.000Z","time":"2023-10-18T18:58:00.000Z","reihung":false},"departure":{"platform":"1","scheduledTime":"2023-10-18T18:59:00.000Z","time":"2023-10-18T18:59:00.000Z","reihung":false}},{"station":{"evaNumber":"8011155","name":"Berlin Alexanderplatz","coordinates":{"lng":13.411088,"lat":52.521526},"ril100":"BALE"},"arrival":{"platform":"1","scheduledTime":"2023-10-18T19:02:00.000Z","time":"2023-10-18T19:02:00.000Z","reihung":false},"departure":{"platform":"1","scheduledTime":"2023-10-18T19:03:00.000Z","time":"2023-10-18T19:03:00.000Z","reihung":false}},{"station":{"evaNumber":"8010255","name":"Berlin Ostbahnhof","coordinates":{"lng":13.4349,"lat":52.510424},"ril100":"BHF"},"arrival":{"platform":"1","scheduledTime":"2023-10-18T19:06:00.000Z","time":"2023-10-18T19:06:00.000Z","reihung":false},"departure":{"platform":"1","scheduledTime":"2023-10-18T19:07:00.000Z","time":"2023-10-18T19:07:00.000Z","reihung":false}},{"station":{"evaNumber":"8011162","name":"Berlin Ostkreuz","coordinates":{"lng":13.470497,"lat":52.504689},"ril100":"BOKN"},"arrival":{"platform":"1","scheduledTime":"2023-10-18T19:10:00.000Z","time":"2023-10-18T19:10:00.000Z","reihung":false},"departure":{"platform":"1","scheduledTime":"2023-10-18T19:12:00.000Z","time":"2023-10-18T19:12:00.000Z","reihung":false}},{"station":{"evaNumber":"8013477","name":"Erkner","coordinates":{"lng":13.751518,"lat":52.428236},"ril100":"BERK"},"arrival":{"platform":"1","scheduledTime":"2023-10-18T19:26:00.000Z","time":"2023-10-18T19:26:00.000Z","reihung":false},"departure":{"platform":"1","scheduledTime":"2023-10-18T19:27:00.000Z","time":"2023-10-18T19:27:00.000Z","reihung":false}},{"station":{"evaNumber":"8011533","name":"Fangschleuse","coordinates":{"lng":13.82487,"lat":52.406725},"ril100":"BFS"},"arrival":{"platform":"1","scheduledTime":"2023-10-18T19:31:00.000Z","time":"2023-10-18T19:31:00.000Z","reihung":false},"departure":{"platform":"1","scheduledTime":"2023-10-18T19:31:00.000Z","time":"2023-10-18T19:31:00.000Z","reihung":false}},{"station":{"evaNumber":"8011818","name":"Hangelsberg","coordinates":{"lng":13.921342,"lat":52.400181},"ril100":"BHGB"},"arrival":{"platform":"1","scheduledTime":"2023-10-18T19:37:00.000Z","time":"2023-10-18T19:37:00.000Z","reihung":false},"departure":{"platform":"1","scheduledTime":"2023-10-18T19:37:00.000Z","time":"2023-10-18T19:37:00.000Z","reihung":false}},{"station":{"evaNumber":"8010120","name":"Fürstenwalde(Spree)","coordinates":{"lng":14.059974,"lat":52.366741},"ril100":"BFUW"},"arrival":{"platform":"1","scheduledTime":"2023-10-18T19:44:00.000Z","time":"2023-10-18T19:44:00.000Z","reihung":false},"departure":{"platform":"1","scheduledTime":"2023-10-18T19:45:00.000Z","time":"2023-10-18T19:45:00.000Z","reihung":false}},{"station":{"evaNumber":"8010113","name":"Frankfurt(Oder)","coordinates":{"lng":14.547073,"lat":52.335863},"ril100":"BFP"},"arrival":{"platform":"11","scheduledTime":"2023-10-18T20:03:00.000Z","time":"2023-10-18T20:03:00.000Z","reihung":false}}],"finalDestination":"Frankfurt(Oder)","jid":"1|516209|0|80|18102023","messages":[{"type":"A","code":"FB","prio":260,"icoX":5,"txtN":"Fahrradmitnahme begrenzt möglich"},{"type":"A","code":"GL","prio":330,"icoX":6,"txtN":"Beförderung von Gruppen eingeschränkt"},{"type":"A","code":"RO","prio":560,"icoX":14,"txtN":"Rollstuhlstellplatz"},{"type":"A","code":"EH","prio":560,"icoX":6,"txtN":"Fahrzeuggebundene Einstiegshilfe vorhanden"},{"type":"A","code":"EA","prio":560,"icoX":6,"txtN":"Behindertengerechte Ausstattung"},{"type":"A","code":"LS","prio":605,"icoX":6,"txtN":"Laptop-Steckdosen"},{"type":"A","code":"KL","prio":610,"icoX":6,"txtN":"Klimaanlage"},{"type":"A","code":"WV","prio":710,"icoX":6,"txtN":"WLAN verfügbar"}],"type":"JNY"}],"segmentTypes":["S","ICE","Fußweg","RE"]},{"checksum":"a1aca5db_3","cid":"C-1","date":"2023-10-17T22:00:00.000Z","duration":26220000,"changes":3,"isRideable":true,"arrival":{"platform":"11","scheduledTime":"2023-10-18T20:03:00.000Z","time":"2023-10-18T20:03:00.000Z","reihung":false},"departure":{"platform":"3","scheduledTime":"2023-10-18T12:46:00.000Z","time":"2023-10-18T12:46:00.000Z","reihung":false},"segments":[{"arrival":{"platform":"5","scheduledTime":"2023-10-18T13:22:00.000Z","time":"2023-10-18T13:22:00.000Z","reihung":false},"departure":{"platform":"3","scheduledTime":"2023-10-18T12:46:00.000Z","time":"2023-10-18T12:46:00.000Z","reihung":false},"duration":2160000,"train":{"name":"EC 2518","line":"62","admin":"80","number":"2518","type":"EC","operator":{"name":"DB Fernverkehr AG","icoX":7}},"changeDuration":8,"segmentStart":{"name":"Heidelberg Hbf","evaNumber":"8000156"},"segmentDestination":{"name":"Darmstadt Hbf","evaNumber":"8000068"},"stops":[{"station":{"evaNumber":"8000156","name":"Heidelberg Hbf","coordinates":{"lng":8.67548,"lat":49.403582},"ril100":"RH"},"departure":{"platform":"3","scheduledTime":"2023-10-18T12:46:00.000Z","time":"2023-10-18T12:46:00.000Z","reihung":false},"auslastung":{"first":1,"second":1}},{"station":{"evaNumber":"8000377","name":"Weinheim(Bergstr)Hbf","coordinates":{"lng":8.66561,"lat":49.553738},"ril100":"RWE"},"arrival":{"platform":"2","scheduledTime":"2023-10-18T12:58:00.000Z","time":"2023-10-18T12:58:00.000Z","reihung":false},"departure":{"platform":"2","scheduledTime":"2023-10-18T13:00:00.000Z","time":"2023-10-18T13:00:00.000Z","reihung":false},"auslastung":{"first":1,"second":1}},{"station":{"evaNumber":"8000031","name":"Bensheim","coordinates":{"lng":8.616646,"lat":49.68142},"ril100":"FBH"},"arrival":{"platform":"1","scheduledTime":"2023-10-18T13:08:00.000Z","time":"2023-10-18T13:08:00.000Z","reihung":false},"departure":{"platform":"1","scheduledTime":"2023-10-18T13:09:00.000Z","time":"2023-10-18T13:09:00.000Z","reihung":false},"auslastung":{"first":1,"second":1}},{"station":{"evaNumber":"8000068","name":"Darmstadt Hbf","coordinates":{"lng":8.629707,"lat":49.872549},"ril100":"FD"},"arrival":{"platform":"5","scheduledTime":"2023-10-18T13:22:00.000Z","time":"2023-10-18T13:22:00.000Z","reihung":false}}],"finalDestination":"Frankfurt(Main)Hbf","jid":"1|203745|0|80|18102023","auslastung":{"first":1,"second":1},"messages":[{"type":"A","code":"EZ","prio":400,"icoX":6,"txtN":"Ersatzzug"}],"type":"JNY"},{"arrival":{"platform":"10","scheduledTime":"2023-10-18T13:48:00.000Z","time":"2023-10-18T13:48:00.000Z","reihung":false},"departure":{"platform":"7","scheduledTime":"2023-10-18T13:30:00.000Z","time":"2023-10-18T13:30:00.000Z","reihung":false},"duration":1080000,"wings":[{"train":{"name":"RB 68","line":"68","admin":"800574","number":"15320","type":"RB","operator":{"name":"DB Regio AG Mitte","icoX":2}},"segmentStart":{"name":"Darmstadt Hbf","evaNumber":"8000068"},"segmentDestination":{"name":"Frankfurt(Main)Hbf","evaNumber":"8000105"},"stops":[{"station":{"evaNumber":"8000068","name":"Darmstadt Hbf","coordinates":{"lng":8.629707,"lat":49.872549},"ril100":"FD"},"departure":{"platform":"7","scheduledTime":"2023-10-18T13:30:00.000Z","time":"2023-10-18T13:30:00.000Z","reihung":false}},{"station":{"evaNumber":"8003523","name":"Langen(Hess)","coordinates":{"lng":8.656828,"lat":49.993535},"ril100":"FLG"},"arrival":{"platform":"1","scheduledTime":"2023-10-18T13:38:00.000Z","time":"2023-10-18T13:38:00.000Z","reihung":false}},{"station":{"evaNumber":"8000105","name":"Frankfurt(Main)Hbf","coordinates":{"lng":8.663003,"lat":50.106817},"ril100":"FF"},"arrival":{"platform":"10","scheduledTime":"2023-10-18T13:48:00.000Z","time":"2023-10-18T13:48:00.000Z","reihung":false}}],"finalDestination":"Frankfurt(Main)Hbf","jid":"1|351686|0|80|18102023"}],"train":{"name":"RB 67","line":"67","admin":"800574","number":"15420","type":"RB","operator":{"name":"DB Regio AG Mitte","icoX":2}},"changeDuration":10,"segmentStart":{"name":"Darmstadt Hbf","evaNumber":"8000068"},"segmentDestination":{"name":"Frankfurt(Main)Hbf","evaNumber":"8000105"},"stops":[{"station":{"evaNumber":"8000068","name":"Darmstadt Hbf","coordinates":{"lng":8.629707,"lat":49.872549},"ril100":"FD"},"departure":{"platform":"7","scheduledTime":"2023-10-18T13:30:00.000Z","time":"2023-10-18T13:30:00.000Z","reihung":false}},{"station":{"evaNumber":"8003523","name":"Langen(Hess)","coordinates":{"lng":8.656828,"lat":49.993535},"ril100":"FLG"},"arrival":{"platform":"1","scheduledTime":"2023-10-18T13:38:00.000Z","time":"2023-10-18T13:38:00.000Z","reihung":false},"departure":{"platform":"1","scheduledTime":"2023-10-18T13:39:00.000Z","time":"2023-10-18T13:39:00.000Z","reihung":false}},{"station":{"evaNumber":"8000105","name":"Frankfurt(Main)Hbf","coordinates":{"lng":8.663003,"lat":50.106817},"ril100":"FF"},"arrival":{"platform":"10","scheduledTime":"2023-10-18T13:48:00.000Z","time":"2023-10-18T13:48:00.000Z","reihung":false}}],"finalDestination":"Frankfurt(Main)Hbf","jid":"1|251830|0|80|18102023","messages":[{"type":"A","code":"FB","prio":260,"icoX":5,"txtN":"Fahrradmitnahme begrenzt möglich"},{"type":"A","code":"EH","prio":560,"icoX":6,"txtN":"Fahrzeuggebundene Einstiegshilfe vorhanden"},{"type":"A","code":"KL","prio":610,"icoX":6,"txtN":"Klimaanlage"},{"type":"M","code":"","icoX":17,"txtS":"RB 15420, RB 15320: Darmstadt Hbf->Frankfurt(Main)Hbf: Bauarbeiten.","txtN":"Aufgrund von Bauarbeiten kommt es vom 10. bis 27. Oktober 2023 auf den Linien RE60 und RB67/68 zu geänderten Fahrtzeiten sowie zu Zug- und Teilausfällen. Es wird ein Ersatzverkehr (EV) mit Bussen für Sie eingerichtet Die Mitnahme von Fahrrädern im Bus ist ausgeschlossen. Bitte informieren Sie sich frühzeitig über Ihre geplanten Verbindungen und wählen Sie gegebenenfalls eine frühere Zugverbindung, um Ihre Anschlüsse an Ihren Umsteigebahnhöfen erreichen zu können. Die Fahrplanänderungen zu dieser Baumaßnahme sind in die Online - Fahrplanauskünfte eingearbeitet.","url":"https://him.static-bahn.de/1696265834247_10_23_V01_ZvF_53273_22_10_2023.pdf","sIdx":1}],"type":"JNY"},{"arrival":{"platform":"7","scheduledTime":"2023-10-18T18:32:00.000Z","time":"2023-10-18T18:32:00.000Z","reihung":false},"departure":{"platform":"8","scheduledTime":"2023-10-18T13:58:00.000Z","time":"2023-10-18T13:58:00.000Z","reihung":false},"duration":16440000,"train":{"name":"ICE 72","line":"20","admin":"80","number":"72","type":"ICE","operator":{"name":"DB Fernverkehr AG","icoX":7}},"changeDuration":24,"segmentStart":{"name":"Frankfurt(Main)Hbf","evaNumber":"8000105"},"segmentDestination":{"name":"Berlin Hbf (tief)","evaNumber":"8098160"},"stops":[{"station":{"evaNumber":"8000105","name":"Frankfurt(Main)Hbf","coordinates":{"lng":8.663003,"lat":50.106817},"ril100":"FF"},"departure":{"platform":"8","scheduledTime":"2023-10-18T13:58:00.000Z","time":"2023-10-18T13:58:00.000Z","reihung":false},"auslastung":{"first":2,"second":2}},{"station":{"evaNumber":"8000150","name":"Hanau Hbf","coordinates":{"lng":8.92921,"lat":50.120903},"ril100":"FH"},"arrival":{"platform":"7","scheduledTime":"2023-10-18T14:12:00.000Z","time":"2023-10-18T14:12:00.000Z","reihung":false},"departure":{"platform":"7","scheduledTime":"2023-10-18T14:14:00.000Z","time":"2023-10-18T14:14:00.000Z","reihung":false},"auslastung":{"first":2,"second":2}},{"station":{"evaNumber":"8000115","name":"Fulda","coordinates":{"lng":9.684178,"lat":50.554794},"ril100":"FFU"},"arrival":{"platform":"6","scheduledTime":"2023-10-18T14:58:00.000Z","time":"2023-10-18T14:58:00.000Z","reihung":false},"departure":{"platform":"6","scheduledTime":"2023-10-18T15:08:00.000Z","time":"2023-10-18T15:08:00.000Z","reihung":false},"auslastung":{"first":2,"second":2}},{"station":{"evaNumber":"8010097","name":"Eisenach","coordinates":{"lng":10.33212,"lat":50.976928},"ril100":"UEI"},"arrival":{"platform":"4","scheduledTime":"2023-10-18T16:00:00.000Z","time":"2023-10-18T16:00:00.000Z","reihung":false},"departure":{"platform":"4","scheduledTime":"2023-10-18T16:01:00.000Z","time":"2023-10-18T16:01:00.000Z","reihung":false},"auslastung":{"first":2,"second":2}},{"station":{"evaNumber":"8010101","name":"Erfurt Hbf","coordinates":{"lng":11.038502,"lat":50.97255},"ril100":"UE  P"},"arrival":{"platform":"10","scheduledTime":"2023-10-18T16:26:00.000Z","time":"2023-10-18T16:26:00.000Z","reihung":false},"departure":{"platform":"10","scheduledTime":"2023-10-18T16:28:00.000Z","time":"2023-10-18T16:28:00.000Z","reihung":false},"auslastung":{"first":2,"second":2}},{"station":{"evaNumber":"8010205","name":"Leipzig Hbf","coordinates":{"lng":12.381167,"lat":51.345081},"ril100":"LL"},"arrival":{"platform":"13","scheduledTime":"2023-10-18T17:10:00.000Z","time":"2023-10-18T17:10:00.000Z","reihung":false},"departure":{"platform":"13","scheduledTime":"2023-10-18T17:16:00.000Z","time":"2023-10-18T17:16:00.000Z","reihung":false},"auslastung":{"first":1,"second":1}},{"station":{"evaNumber":"8010222","name":"Lutherstadt Wittenberg Hbf","coordinates":{"lng":12.661999,"lat":51.867579},"ril100":"LW"},"arrival":{"platform":"3","scheduledTime":"2023-10-18T17:46:00.000Z","time":"2023-10-18T17:46:00.000Z","reihung":false},"departure":{"platform":"3","scheduledTime":"2023-10-18T17:48:00.000Z","time":"2023-10-18T17:48:00.000Z","reihung":false},"auslastung":{"first":1,"second":1}},{"station":{"evaNumber":"8011113","name":"Berlin Südkreuz","coordinates":{"lng":13.365863,"lat":52.47623},"ril100":"BPAF"},"arrival":{"platform":"8","scheduledTime":"2023-10-18T18:25:00.000Z","time":"2023-10-18T18:25:00.000Z","reihung":false}},{"station":{"evaNumber":"8098160","name":"Berlin Hbf (tief)","coordinates":{"lng":13.368892,"lat":52.52585},"ril100":"BL"},"arrival":{"platform":"7","scheduledTime":"2023-10-18T18:32:00.000Z","time":"2023-10-18T18:32:00.000Z","reihung":false}}],"finalDestination":"Berlin Hbf (tief)","jid":"1|209311|0|80|18102023","auslastung":{"first":2,"second":2},"messages":[{"type":"A","code":"CK","prio":200,"icoX":6,"txtN":"Sicher & kontaktlos ohne Ticketkontrolle reisen mit Komfort Check-in"},{"type":"A","code":"FR","prio":260,"icoX":8,"txtN":"Fahrradmitnahme reservierungspflichtig"},{"type":"A","code":"FB","prio":260,"icoX":5,"txtN":"Fahrradmitnahme begrenzt möglich"},{"type":"A","code":"BR","prio":450,"icoX":9,"txtN":"Bordrestaurant"},{"type":"A","code":"EH","prio":560,"icoX":6,"txtN":"Fahrzeuggebundene Einstiegshilfe vorhanden"}],"type":"JNY"},{"type":"WALK","train":{"name":"Fußweg","type":"Fußweg"},"arrival":{"scheduledTime":"2023-10-18T18:41:00.000Z","time":"2023-10-18T18:41:00.000Z","reihung":false},"departure":{"scheduledTime":"2023-10-18T18:32:00.000Z","time":"2023-10-18T18:32:00.000Z","reihung":false},"duration":540000,"segmentStart":{"evaNumber":"8098160","name":"Berlin Hbf (tief)","coordinates":{"lng":13.368892,"lat":52.52585},"ril100":"BL"},"segmentDestination":{"evaNumber":"8011160","name":"Berlin Hbf","coordinates":{"lng":13.369629,"lat":52.524924},"ril100":"BLS"}},{"arrival":{"platform":"11","scheduledTime":"2023-10-18T20:03:00.000Z","time":"2023-10-18T20:03:00.000Z","reihung":false},"departure":{"platform":"11","scheduledTime":"2023-10-18T18:56:00.000Z","time":"2023-10-18T18:56:00.000Z","reihung":false},"duration":4020000,"train":{"name":"RE 1","line":"1","admin":"OWRE","number":"73744","type":"RE","operator":{"name":"Ostdeutsche Eisenbahn GmbH","icoX":12}},"segmentStart":{"name":"Berlin Hbf","evaNumber":"8011160"},"segmentDestination":{"name":"Frankfurt(Oder)","evaNumber":"8010113"},"stops":[{"station":{"evaNumber":"8011160","name":"Berlin Hbf","coordinates":{"lng":13.369629,"lat":52.524924},"ril100":"BLS"},"departure":{"platform":"11","scheduledTime":"2023-10-18T18:56:00.000Z","time":"2023-10-18T18:56:00.000Z","reihung":false}},{"station":{"evaNumber":"8011306","name":"Berlin Friedrichstraße","coordinates":{"lng":13.386925,"lat":52.520331},"ril100":"BFRI"},"arrival":{"platform":"1","scheduledTime":"2023-10-18T18:58:00.000Z","time":"2023-10-18T18:58:00.000Z","reihung":false},"departure":{"platform":"1","scheduledTime":"2023-10-18T18:59:00.000Z","time":"2023-10-18T18:59:00.000Z","reihung":false}},{"station":{"evaNumber":"8011155","name":"Berlin Alexanderplatz","coordinates":{"lng":13.411088,"lat":52.521526},"ril100":"BALE"},"arrival":{"platform":"1","scheduledTime":"2023-10-18T19:02:00.000Z","time":"2023-10-18T19:02:00.000Z","reihung":false},"departure":{"platform":"1","scheduledTime":"2023-10-18T19:03:00.000Z","time":"2023-10-18T19:03:00.000Z","reihung":false}},{"station":{"evaNumber":"8010255","name":"Berlin Ostbahnhof","coordinates":{"lng":13.4349,"lat":52.510424},"ril100":"BHF"},"arrival":{"platform":"1","scheduledTime":"2023-10-18T19:06:00.000Z","time":"2023-10-18T19:06:00.000Z","reihung":false},"departure":{"platform":"1","scheduledTime":"2023-10-18T19:07:00.000Z","time":"2023-10-18T19:07:00.000Z","reihung":false}},{"station":{"evaNumber":"8011162","name":"Berlin Ostkreuz","coordinates":{"lng":13.470497,"lat":52.504689},"ril100":"BOKN"},"arrival":{"platform":"1","scheduledTime":"2023-10-18T19:10:00.000Z","time":"2023-10-18T19:10:00.000Z","reihung":false},"departure":{"platform":"1","scheduledTime":"2023-10-18T19:12:00.000Z","time":"2023-10-18T19:12:00.000Z","reihung":false}},{"station":{"evaNumber":"8013477","name":"Erkner","coordinates":{"lng":13.751518,"lat":52.428236},"ril100":"BERK"},"arrival":{"platform":"1","scheduledTime":"2023-10-18T19:26:00.000Z","time":"2023-10-18T19:26:00.000Z","reihung":false},"departure":{"platform":"1","scheduledTime":"2023-10-18T19:27:00.000Z","time":"2023-10-18T19:27:00.000Z","reihung":false}},{"station":{"evaNumber":"8011533","name":"Fangschleuse","coordinates":{"lng":13.82487,"lat":52.406725},"ril100":"BFS"},"arrival":{"platform":"1","scheduledTime":"2023-10-18T19:31:00.000Z","time":"2023-10-18T19:31:00.000Z","reihung":false},"departure":{"platform":"1","scheduledTime":"2023-10-18T19:31:00.000Z","time":"2023-10-18T19:31:00.000Z","reihung":false}},{"station":{"evaNumber":"8011818","name":"Hangelsberg","coordinates":{"lng":13.921342,"lat":52.400181},"ril100":"BHGB"},"arrival":{"platform":"1","scheduledTime":"2023-10-18T19:37:00.000Z","time":"2023-10-18T19:37:00.000Z","reihung":false},"departure":{"platform":"1","scheduledTime":"2023-10-18T19:37:00.000Z","time":"2023-10-18T19:37:00.000Z","reihung":false}},{"station":{"evaNumber":"8010120","name":"Fürstenwalde(Spree)","coordinates":{"lng":14.059974,"lat":52.366741},"ril100":"BFUW"},"arrival":{"platform":"1","scheduledTime":"2023-10-18T19:44:00.000Z","time":"2023-10-18T19:44:00.000Z","reihung":false},"departure":{"platform":"1","scheduledTime":"2023-10-18T19:45:00.000Z","time":"2023-10-18T19:45:00.000Z","reihung":false}},{"station":{"evaNumber":"8010113","name":"Frankfurt(Oder)","coordinates":{"lng":14.547073,"lat":52.335863},"ril100":"BFP"},"arrival":{"platform":"11","scheduledTime":"2023-10-18T20:03:00.000Z","time":"2023-10-18T20:03:00.000Z","reihung":false}}],"finalDestination":"Frankfurt(Oder)","jid":"1|516209|0|80|18102023","messages":[{"type":"A","code":"FB","prio":260,"icoX":5,"txtN":"Fahrradmitnahme begrenzt möglich"},{"type":"A","code":"GL","prio":330,"icoX":6,"txtN":"Beförderung von Gruppen eingeschränkt"},{"type":"A","code":"RO","prio":560,"icoX":14,"txtN":"Rollstuhlstellplatz"},{"type":"A","code":"EH","prio":560,"icoX":6,"txtN":"Fahrzeuggebundene Einstiegshilfe vorhanden"},{"type":"A","code":"EA","prio":560,"icoX":6,"txtN":"Behindertengerechte Ausstattung"},{"type":"A","code":"LS","prio":605,"icoX":6,"txtN":"Laptop-Steckdosen"},{"type":"A","code":"KL","prio":610,"icoX":6,"txtN":"Klimaanlage"},{"type":"A","code":"WV","prio":710,"icoX":6,"txtN":"WLAN verfügbar"}],"type":"JNY"}],"segmentTypes":["EC","RB","ICE","Fußweg","RE"]},{"checksum":"073cbbad_3","cid":"C-2","date":"2023-10-17T22:00:00.000Z","duration":25380000,"changes":2,"isRideable":true,"arrival":{"platform":"12","scheduledTime":"2023-10-18T20:49:00.000Z","time":"2023-10-18T20:49:00.000Z","reihung":false},"departure":{"platform":"3","scheduledTime":"2023-10-18T13:46:00.000Z","time":"2023-10-18T13:46:00.000Z","reihung":false},"segments":[{"arrival":{"platform":"12","scheduledTime":"2023-10-18T14:40:00.000Z","time":"2023-10-18T14:40:00.000Z","reihung":false},"departure":{"platform":"3","scheduledTime":"2023-10-18T13:46:00.000Z","time":"2023-10-18T13:46:00.000Z","reihung":false},"duration":3240000,"train":{"name":"ICE 1574","line":"26","admin":"80","number":"1574","type":"ICE","operator":{"name":"DB Fernverkehr AG","icoX":7}},"changeDuration":22,"segmentStart":{"name":"Heidelberg Hbf","evaNumber":"8000156"},"segmentDestination":{"name":"Frankfurt(Main)Hbf","evaNumber":"8000105"},"stops":[{"station":{"evaNumber":"8000156","name":"Heidelberg Hbf","coordinates":{"lng":8.67548,"lat":49.403582},"ril100":"RH"},"departure":{"platform":"3","scheduledTime":"2023-10-18T13:46:00.000Z","time":"2023-10-18T13:46:00.000Z","reihung":false},"auslastung":{"first":1,"second":1}},{"station":{"evaNumber":"8000377","name":"Weinheim(Bergstr)Hbf","coordinates":{"lng":8.66561,"lat":49.553738},"ril100":"RWE"},"arrival":{"platform":"2","scheduledTime":"2023-10-18T13:58:00.000Z","time":"2023-10-18T13:58:00.000Z","reihung":false},"departure":{"platform":"2","scheduledTime":"2023-10-18T14:00:00.000Z","time":"2023-10-18T14:00:00.000Z","reihung":false},"auslastung":{"first":1,"second":1}},{"station":{"evaNumber":"8000031","name":"Bensheim","coordinates":{"lng":8.616646,"lat":49.68142},"ril100":"FBH"},"arrival":{"platform":"1","scheduledTime":"2023-10-18T14:08:00.000Z","time":"2023-10-18T14:08:00.000Z","reihung":false},"departure":{"platform":"1","scheduledTime":"2023-10-18T14:09:00.000Z","time":"2023-10-18T14:09:00.000Z","reihung":false},"auslastung":{"first":1,"second":1}},{"station":{"evaNumber":"8000068","name":"Darmstadt Hbf","coordinates":{"lng":8.629707,"lat":49.872549},"ril100":"FD"},"arrival":{"platform":"5","scheduledTime":"2023-10-18T14:22:00.000Z","time":"2023-10-18T14:22:00.000Z","reihung":false},"departure":{"platform":"5","scheduledTime":"2023-10-18T14:24:00.000Z","time":"2023-10-18T14:24:00.000Z","reihung":false},"auslastung":{"first":1,"second":1}},{"station":{"evaNumber":"8000105","name":"Frankfurt(Main)Hbf","coordinates":{"lng":8.663003,"lat":50.106817},"ril100":"FF"},"arrival":{"platform":"12","scheduledTime":"2023-10-18T14:40:00.000Z","time":"2023-10-18T14:40:00.000Z","reihung":false}}],"finalDestination":"Hamburg-Altona","jid":"1|198181|0|80|18102023","auslastung":{"first":1,"second":1},"messages":[{"type":"A","code":"CK","prio":200,"icoX":6,"txtN":"Sicher & kontaktlos ohne Ticketkontrolle reisen mit Komfort Check-in"},{"type":"A","code":"FR","prio":260,"icoX":8,"txtN":"Fahrradmitnahme reservierungspflichtig"},{"type":"A","code":"FB","prio":260,"icoX":5,"txtN":"Fahrradmitnahme begrenzt möglich"},{"type":"A","code":"BR","prio":450,"icoX":9,"txtN":"Bordrestaurant"}],"type":"JNY"},{"arrival":{"platform":"7","scheduledTime":"2023-10-18T18:58:00.000Z","time":"2023-10-18T18:58:00.000Z","reihung":false},"departure":{"platform":"8","scheduledTime":"2023-10-18T15:02:00.000Z","time":"2023-10-18T15:02:00.000Z","reihung":false},"duration":14160000,"train":{"name":"ICE 574","line":"22","admin":"80","number":"574","type":"ICE","operator":{"name":"DB Fernverkehr AG","icoX":7}},"changeDuration":38,"segmentStart":{"name":"Frankfurt(Main)Hbf","evaNumber":"8000105"},"segmentDestination":{"name":"Berlin Hbf (tief)","evaNumber":"8098160"},"stops":[{"station":{"evaNumber":"8000105","name":"Frankfurt(Main)Hbf","coordinates":{"lng":8.663003,"lat":50.106817},"ril100":"FF"},"departure":{"platform":"8","scheduledTime":"2023-10-18T15:02:00.000Z","time":"2023-10-18T15:02:00.000Z","reihung":false},"auslastung":{"first":3,"second":2},"messages":[{"type":"A","code":"text.journeystop.product.or.direction.changes.stop.message","icoX":6,"txtN":"Verkehrt ab hier als ICE 574 in Richtung Berlin Hbf (tief)"}]},{"station":{"evaNumber":"8010101","name":"Erfurt Hbf","coordinates":{"lng":11.038502,"lat":50.97255},"ril100":"UE  P"},"arrival":{"platform":"9","scheduledTime":"2023-10-18T17:07:00.000Z","time":"2023-10-18T17:07:00.000Z","reihung":false},"departure":{"platform":"9","scheduledTime":"2023-10-18T17:09:00.000Z","time":"2023-10-18T17:09:00.000Z","reihung":false},"auslastung":{"first":2,"second":2},"messages":[{"type":"A","code":"text.journeystop.product.or.direction.changes.stop.message","icoX":6,"txtN":"Verkehrt ab hier als ICE 574 in Richtung Berlin Gesundbrunnen"}]},{"station":{"evaNumber":"8010159","name":"Halle(Saale)Hbf","coordinates":{"lng":11.98699,"lat":51.477079},"ril100":"LH"},"arrival":{"platform":"7","scheduledTime":"2023-10-18T17:39:00.000Z","time":"2023-10-18T17:39:00.000Z","reihung":false},"departure":{"platform":"7","scheduledTime":"2023-10-18T17:42:00.000Z","time":"2023-10-18T17:42:00.000Z","reihung":false},"auslastung":{"first":2,"second":2}},{"station":{"evaNumber":"8011113","name":"Berlin Südkreuz","coordinates":{"lng":13.365863,"lat":52.47623},"ril100":"BPAF"},"arrival":{"platform":"8","scheduledTime":"2023-10-18T18:50:00.000Z","time":"2023-10-18T18:50:00.000Z","reihung":false}},{"station":{"evaNumber":"8098160","name":"Berlin Hbf (tief)","coordinates":{"lng":13.368892,"lat":52.52585},"ril100":"BL"},"arrival":{"platform":"7","scheduledTime":"2023-10-18T18:58:00.000Z","time":"2023-10-18T18:58:00.000Z","reihung":false}}],"finalDestination":"Berlin Hbf (tief)","jid":"1|206555|0|80|18102023","auslastung":{"first":3,"second":2},"messages":[{"type":"A","code":"CK","prio":200,"icoX":6,"txtN":"Sicher & kontaktlos ohne Ticketkontrolle reisen mit Komfort Check-in"},{"type":"A","code":"FR","prio":260,"icoX":8,"txtN":"Fahrradmitnahme reservierungspflichtig"},{"type":"A","code":"FB","prio":260,"icoX":5,"txtN":"Fahrradmitnahme begrenzt möglich"},{"type":"A","code":"BR","prio":450,"icoX":9,"txtN":"Bordrestaurant"},{"type":"A","code":"EH","prio":560,"icoX":6,"txtN":"Fahrzeuggebundene Einstiegshilfe vorhanden"},{"type":"A","code":"IT","prio":100,"icoX":18,"txtN":"ICE Sprinter"},{"type":"A","code":"text.journeystop.product.or.direction.changes.journey.message","icoX":6,"txtN":"Verkehrt ab Erfurt Hbf als ICE 574 in Richtung Berlin Gesundbrunnen"}],"type":"JNY"},{"type":"WALK","train":{"name":"Fußweg","type":"Fußweg"},"arrival":{"scheduledTime":"2023-10-18T19:07:00.000Z","time":"2023-10-18T19:07:00.000Z","reihung":false},"departure":{"scheduledTime":"2023-10-18T18:58:00.000Z","time":"2023-10-18T18:58:00.000Z","reihung":false},"duration":540000,"segmentStart":{"evaNumber":"8098160","name":"Berlin Hbf (tief)","coordinates":{"lng":13.368892,"lat":52.52585},"ril100":"BL"},"segmentDestination":{"evaNumber":"8011160","name":"Berlin Hbf","coordinates":{"lng":13.369629,"lat":52.524924},"ril100":"BLS"}},{"arrival":{"platform":"12","scheduledTime":"2023-10-18T20:49:00.000Z","time":"2023-10-18T20:49:00.000Z","reihung":false},"departure":{"platform":"12","scheduledTime":"2023-10-18T19:36:00.000Z","time":"2023-10-18T19:36:00.000Z","reihung":false},"duration":4380000,"train":{"name":"RE 1","line":"1","admin":"OWRE","number":"73828","type":"RE","operator":{"name":"Ostdeutsche Eisenbahn GmbH","icoX":12}},"segmentStart":{"name":"Berlin Hbf","evaNumber":"8011160"},"segmentDestination":{"name":"Frankfurt(Oder)","evaNumber":"8010113"},"stops":[{"station":{"evaNumber":"8011160","name":"Berlin Hbf","coordinates":{"lng":13.369629,"lat":52.524924},"ril100":"BLS"},"departure":{"platform":"12","scheduledTime":"2023-10-18T19:36:00.000Z","time":"2023-10-18T19:36:00.000Z","reihung":false}},{"station":{"evaNumber":"8011306","name":"Berlin Friedrichstraße","coordinates":{"lng":13.386925,"lat":52.520331},"ril100":"BFRI"},"arrival":{"platform":"1","scheduledTime":"2023-10-18T19:38:00.000Z","time":"2023-10-18T19:38:00.000Z","reihung":false},"departure":{"platform":"1","scheduledTime":"2023-10-18T19:39:00.000Z","time":"2023-10-18T19:39:00.000Z","reihung":false}},{"station":{"evaNumber":"8011155","name":"Berlin Alexanderplatz","coordinates":{"lng":13.411088,"lat":52.521526},"ril100":"BALE"},"arrival":{"platform":"1","scheduledTime":"2023-10-18T19:42:00.000Z","time":"2023-10-18T19:42:00.000Z","reihung":false},"departure":{"platform":"1","scheduledTime":"2023-10-18T19:43:00.000Z","time":"2023-10-18T19:43:00.000Z","reihung":false}},{"station":{"evaNumber":"8010255","name":"Berlin Ostbahnhof","coordinates":{"lng":13.4349,"lat":52.510424},"ril100":"BHF"},"arrival":{"platform":"1","scheduledTime":"2023-10-18T19:46:00.000Z","time":"2023-10-18T19:46:00.000Z","reihung":false},"departure":{"platform":"1","scheduledTime":"2023-10-18T19:47:00.000Z","time":"2023-10-18T19:47:00.000Z","reihung":false}},{"station":{"evaNumber":"8011162","name":"Berlin Ostkreuz","coordinates":{"lng":13.470497,"lat":52.504689},"ril100":"BOKN"},"arrival":{"platform":"1","scheduledTime":"2023-10-18T19:50:00.000Z","time":"2023-10-18T19:50:00.000Z","reihung":false},"departure":{"platform":"1","scheduledTime":"2023-10-18T19:52:00.000Z","time":"2023-10-18T19:52:00.000Z","reihung":false}},{"station":{"evaNumber":"8013477","name":"Erkner","coordinates":{"lng":13.751518,"lat":52.428236},"ril100":"BERK"},"arrival":{"platform":"1","scheduledTime":"2023-10-18T20:08:00.000Z","time":"2023-10-18T20:08:00.000Z","reihung":false},"departure":{"platform":"1","scheduledTime":"2023-10-18T20:09:00.000Z","time":"2023-10-18T20:09:00.000Z","reihung":false}},{"station":{"evaNumber":"8011533","name":"Fangschleuse","coordinates":{"lng":13.82487,"lat":52.406725},"ril100":"BFS"},"arrival":{"platform":"1","scheduledTime":"2023-10-18T20:13:00.000Z","time":"2023-10-18T20:13:00.000Z","reihung":false},"departure":{"platform":"1","scheduledTime":"2023-10-18T20:14:00.000Z","time":"2023-10-18T20:14:00.000Z","reihung":false}},{"station":{"evaNumber":"8010120","name":"Fürstenwalde(Spree)","coordinates":{"lng":14.059974,"lat":52.366741},"ril100":"BFUW"},"arrival":{"platform":"1","scheduledTime":"2023-10-18T20:23:00.000Z","time":"2023-10-18T20:23:00.000Z","reihung":false},"departure":{"platform":"1","scheduledTime":"2023-10-18T20:24:00.000Z","time":"2023-10-18T20:24:00.000Z","reihung":false}},{"station":{"evaNumber":"8011154","name":"Berkenbrück","coordinates":{"lng":14.165103,"lat":52.357212},"ril100":"BBKR"},"arrival":{"platform":"1","scheduledTime":"2023-10-18T20:28:00.000Z","time":"2023-10-18T20:28:00.000Z","reihung":false},"departure":{"platform":"1","scheduledTime":"2023-10-18T20:29:00.000Z","time":"2023-10-18T20:29:00.000Z","reihung":false}},{"station":{"evaNumber":"8011269","name":"Briesen(Mark)","coordinates":{"lng":14.28074,"lat":52.346596},"ril100":"BBSN"},"arrival":{"platform":"1","scheduledTime":"2023-10-18T20:33:00.000Z","time":"2023-10-18T20:33:00.000Z","reihung":false},"departure":{"platform":"1","scheduledTime":"2023-10-18T20:34:00.000Z","time":"2023-10-18T20:34:00.000Z","reihung":false}},{"station":{"evaNumber":"8011940","name":"Jacobsdorf(Mark)","coordinates":{"lng":14.355431,"lat":52.33269},"ril100":"BJF"},"arrival":{"platform":"1","scheduledTime":"2023-10-18T20:38:00.000Z","time":"2023-10-18T20:38:00.000Z","reihung":false},"departure":{"platform":"1","scheduledTime":"2023-10-18T20:39:00.000Z","time":"2023-10-18T20:39:00.000Z","reihung":false}},{"station":{"evaNumber":"8012636","name":"Pillgram","coordinates":{"lng":14.398607,"lat":52.33696},"ril100":"BPIL"},"arrival":{"platform":"1","scheduledTime":"2023-10-18T20:42:00.000Z","time":"2023-10-18T20:42:00.000Z","reihung":false},"departure":{"platform":"1","scheduledTime":"2023-10-18T20:42:00.000Z","time":"2023-10-18T20:42:00.000Z","reihung":false}},{"station":{"evaNumber":"8010113","name":"Frankfurt(Oder)","coordinates":{"lng":14.547073,"lat":52.335863},"ril100":"BFP"},"arrival":{"platform":"12","scheduledTime":"2023-10-18T20:49:00.000Z","time":"2023-10-18T20:49:00.000Z","reihung":false}}],"finalDestination":"Eisenhüttenstadt","jid":"1|516693|0|80|18102023","messages":[{"type":"A","code":"FB","prio":260,"icoX":5,"txtN":"Fahrradmitnahme begrenzt möglich"},{"type":"A","code":"GL","prio":330,"icoX":6,"txtN":"Beförderung von Gruppen eingeschränkt"},{"type":"A","code":"RO","prio":560,"icoX":14,"txtN":"Rollstuhlstellplatz"},{"type":"A","code":"EH","prio":560,"icoX":6,"txtN":"Fahrzeuggebundene Einstiegshilfe vorhanden"},{"type":"A","code":"EA","prio":560,"icoX":6,"txtN":"Behindertengerechte Ausstattung"},{"type":"A","code":"LS","prio":605,"icoX":6,"txtN":"Laptop-Steckdosen"},{"type":"A","code":"KL","prio":610,"icoX":6,"txtN":"Klimaanlage"},{"type":"A","code":"WV","prio":710,"icoX":6,"txtN":"WLAN verfügbar"}],"type":"JNY"}],"segmentTypes":["ICE","ICE","Fußweg","RE"]},{"checksum":"ebd1621d_3","cid":"C-3","date":"2023-10-17T22:00:00.000Z","duration":26220000,"changes":2,"isRideable":true,"arrival":{"platform":"9","scheduledTime":"2023-10-18T22:12:00.000Z","time":"2023-10-18T22:12:00.000Z","reihung":false},"departure":{"platform":"2","scheduledTime":"2023-10-18T14:55:00.000Z","time":"2023-10-18T14:55:00.000Z","reihung":false},"segments":[{"arrival":{"platform":"2","scheduledTime":"2023-10-18T15:08:00.000Z","time":"2023-10-18T15:08:00.000Z","reihung":false},"departure":{"platform":"2","scheduledTime":"2023-10-18T14:55:00.000Z","time":"2023-10-18T14:55:00.000Z","reihung":false},"duration":780000,"wings":[{"train":{"name":"S 5","line":"5","admin":"801518","number":"38548","type":"S","operator":{"name":"DB Regio AG Mitte","icoX":2}},"segmentStart":{"name":"Heidelberg Hbf","evaNumber":"8000156"},"segmentDestination":{"name":"Mannheim Hbf","evaNumber":"8000244"},"stops":[{"station":{"evaNumber":"8000156","name":"Heidelberg Hbf","coordinates":{"lng":8.67548,"lat":49.403582},"ril100":"RH"},"departure":{"platform":"2","scheduledTime":"2023-10-18T14:55:00.000Z","time":"2023-10-18T14:55:00.000Z","reihung":false}},{"station":{"evaNumber":"8000244","name":"Mannheim Hbf","coordinates":{"lng":8.469268,"lat":49.479181},"ril100":"RM"},"arrival":{"platform":"2","scheduledTime":"2023-10-18T15:08:00.000Z","time":"2023-10-18T15:08:00.000Z","reihung":false}}],"finalDestination":"Mainz Hbf","jid":"1|1631445|0|80|18102023"}],"train":{"name":"S 51","line":"51","admin":"801518","number":"38048","type":"S","operator":{"name":"DB Regio AG Mitte","icoX":2}},"changeDuration":8,"segmentStart":{"name":"Heidelberg Hbf","evaNumber":"8000156"},"segmentDestination":{"name":"Mannheim Hbf","evaNumber":"8000244"},"stops":[{"station":{"evaNumber":"8000156","name":"Heidelberg Hbf","coordinates":{"lng":8.67548,"lat":49.403582},"ril100":"RH"},"departure":{"platform":"2","scheduledTime":"2023-10-18T14:55:00.000Z","time":"2023-10-18T14:55:00.000Z","reihung":false}},{"station":{"evaNumber":"8000244","name":"Mannheim Hbf","coordinates":{"lng":8.469268,"lat":49.479181},"ril100":"RM"},"arrival":{"platform":"2","scheduledTime":"2023-10-18T15:08:00.000Z","time":"2023-10-18T15:08:00.000Z","reihung":false}}],"finalDestination":"Mannheim Hbf","jid":"1|253599|0|80|18102023","messages":[{"type":"A","code":"FB","prio":260,"icoX":5,"txtN":"Fahrradmitnahme begrenzt möglich"},{"type":"A","code":"EH","prio":560,"icoX":6,"txtN":"Fahrzeuggebundene Einstiegshilfe vorhanden"},{"type":"A","code":"LS","prio":605,"icoX":6,"txtN":"Laptop-Steckdosen"},{"type":"A","code":"KL","prio":610,"icoX":6,"txtN":"Klimaanlage"}],"type":"JNY"},{"arrival":{"platform":"7","scheduledTime":"2023-10-18T20:31:00.000Z","time":"2023-10-18T20:31:00.000Z","reihung":false},"departure":{"platform":"3","scheduledTime":"2023-10-18T15:16:00.000Z","time":"2023-10-18T15:16:00.000Z","reihung":false},"duration":18900000,"train":{"name":"ICE 70","line":"20","admin":"80","number":"70","type":"ICE","operator":{"name":"DB Fernverkehr AG","icoX":7}},"changeDuration":25,"segmentStart":{"name":"Mannheim Hbf","evaNumber":"8000244"},"segmentDestination":{"name":"Berlin Hbf (tief)","evaNumber":"8098160"},"stops":[{"station":{"evaNumber":"8000244","name":"Mannheim Hbf","coordinates":{"lng":8.469268,"lat":49.479181},"ril100":"RM"},"departure":{"platform":"3","scheduledTime":"2023-10-18T15:16:00.000Z","time":"2023-10-18T15:16:00.000Z","reihung":false},"auslastung":{"first":2,"second":2}},{"station":{"evaNumber":"8000105","name":"Frankfurt(Main)Hbf","coordinates":{"lng":8.663003,"lat":50.106817},"ril100":"FF"},"arrival":{"platform":"8","scheduledTime":"2023-10-18T15:52:00.000Z","time":"2023-10-18T15:52:00.000Z","reihung":false},"departure":{"platform":"8","scheduledTime":"2023-10-18T15:58:00.000Z","time":"2023-10-18T15:58:00.000Z","reihung":false},"auslastung":{"first":2,"second":2}},{"station":{"evaNumber":"8000150","name":"Hanau Hbf","coordinates":{"lng":8.92921,"lat":50.120903},"ril100":"FH"},"arrival":{"platform":"7","scheduledTime":"2023-10-18T16:12:00.000Z","time":"2023-10-18T16:12:00.000Z","reihung":false},"departure":{"platform":"7","scheduledTime":"2023-10-18T16:14:00.000Z","time":"2023-10-18T16:14:00.000Z","reihung":false},"auslastung":{"first":2,"second":2}},{"station":{"evaNumber":"8000115","name":"Fulda","coordinates":{"lng":9.684178,"lat":50.554794},"ril100":"FFU"},"arrival":{"platform":"6","scheduledTime":"2023-10-18T16:58:00.000Z","time":"2023-10-18T16:58:00.000Z","reihung":false},"departure":{"platform":"6","scheduledTime":"2023-10-18T17:09:00.000Z","time":"2023-10-18T17:09:00.000Z","reihung":false},"auslastung":{"first":2,"second":1}},{"station":{"evaNumber":"8010097","name":"Eisenach","coordinates":{"lng":10.33212,"lat":50.976928},"ril100":"UEI"},"arrival":{"platform":"4","scheduledTime":"2023-10-18T18:00:00.000Z","time":"2023-10-18T18:00:00.000Z","reihung":false},"departure":{"platform":"4","scheduledTime":"2023-10-18T18:01:00.000Z","time":"2023-10-18T18:01:00.000Z","reihung":false},"auslastung":{"first":2,"second":1}},{"station":{"evaNumber":"8010101","name":"Erfurt Hbf","coordinates":{"lng":11.038502,"lat":50.97255},"ril100":"UE  P"},"arrival":{"platform":"10","scheduledTime":"2023-10-18T18:26:00.000Z","time":"2023-10-18T18:26:00.000Z","reihung":false},"departure":{"platform":"10","scheduledTime":"2023-10-18T18:28:00.000Z","time":"2023-10-18T18:28:00.000Z","reihung":false},"auslastung":{"first":2,"second":1}},{"station":{"evaNumber":"8010205","name":"Leipzig Hbf","coordinates":{"lng":12.381167,"lat":51.345081},"ril100":"LL"},"arrival":{"platform":"13","scheduledTime":"2023-10-18T19:10:00.000Z","time":"2023-10-18T19:10:00.000Z","reihung":false},"departure":{"platform":"13","scheduledTime":"2023-10-18T19:16:00.000Z","time":"2023-10-18T19:16:00.000Z","reihung":false},"auslastung":{"first":1,"second":1}},{"station":{"evaNumber":"8010222","name":"Lutherstadt Wittenberg Hbf","coordinates":{"lng":12.661999,"lat":51.867579},"ril100":"LW"},"arrival":{"platform":"3","scheduledTime":"2023-10-18T19:46:00.000Z","time":"2023-10-18T19:46:00.000Z","reihung":false},"departure":{"platform":"3","scheduledTime":"2023-10-18T19:48:00.000Z","time":"2023-10-18T19:48:00.000Z","reihung":false},"auslastung":{"first":1,"second":1}},{"station":{"evaNumber":"8011113","name":"Berlin Südkreuz","coordinates":{"lng":13.365863,"lat":52.47623},"ril100":"BPAF"},"arrival":{"platform":"8","scheduledTime":"2023-10-18T20:24:00.000Z","time":"2023-10-18T20:24:00.000Z","reihung":false}},{"station":{"evaNumber":"8098160","name":"Berlin Hbf (tief)","coordinates":{"lng":13.368892,"lat":52.52585},"ril100":"BL"},"arrival":{"platform":"7","scheduledTime":"2023-10-18T20:31:00.000Z","time":"2023-10-18T20:31:00.000Z","reihung":false}}],"finalDestination":"Berlin Hbf (tief)","jid":"1|363133|0|80|18102023","auslastung":{"first":2,"second":2},"messages":[{"type":"A","code":"CK","prio":200,"icoX":6,"txtN":"Sicher & kontaktlos ohne Ticketkontrolle reisen mit Komfort Check-in"},{"type":"A","code":"FR","prio":260,"icoX":8,"txtN":"Fahrradmitnahme reservierungspflichtig"},{"type":"A","code":"FB","prio":260,"icoX":5,"txtN":"Fahrradmitnahme begrenzt möglich"},{"type":"A","code":"BR","prio":450,"icoX":9,"txtN":"Bordrestaurant"},{"type":"A","code":"EH","prio":560,"icoX":6,"txtN":"Fahrzeuggebundene Einstiegshilfe vorhanden"}],"type":"JNY"},{"type":"WALK","train":{"name":"Fußweg","type":"Fußweg"},"arrival":{"scheduledTime":"2023-10-18T20:40:00.000Z","time":"2023-10-18T20:40:00.000Z","reihung":false},"departure":{"scheduledTime":"2023-10-18T20:31:00.000Z","time":"2023-10-18T20:31:00.000Z","reihung":false},"duration":540000,"segmentStart":{"evaNumber":"8098160","name":"Berlin Hbf (tief)","coordinates":{"lng":13.368892,"lat":52.52585},"ril100":"BL"},"segmentDestination":{"evaNumber":"8011160","name":"Berlin Hbf","coordinates":{"lng":13.369629,"lat":52.524924},"ril100":"BLS"}},{"arrival":{"platform":"9","scheduledTime":"2023-10-18T22:12:00.000Z","time":"2023-10-18T22:12:00.000Z","reihung":false},"departure":{"platform":"12","scheduledTime":"2023-10-18T20:56:00.000Z","time":"2023-10-18T20:56:00.000Z","reihung":false},"duration":4560000,"train":{"name":"RE 1","line":"1","admin":"OWRE","number":"73748","type":"RE","operator":{"name":"Ostdeutsche Eisenbahn GmbH","icoX":12}},"segmentStart":{"name":"Berlin Hbf","evaNumber":"8011160"},"segmentDestination":{"name":"Frankfurt(Oder)","evaNumber":"8010113"},"stops":[{"station":{"evaNumber":"8011160","name":"Berlin Hbf","coordinates":{"lng":13.369629,"lat":52.524924},"ril100":"BLS"},"departure":{"platform":"12","scheduledTime":"2023-10-18T20:56:00.000Z","time":"2023-10-18T20:56:00.000Z","reihung":false}},{"station":{"evaNumber":"8011306","name":"Berlin Friedrichstraße","coordinates":{"lng":13.386925,"lat":52.520331},"ril100":"BFRI"},"arrival":{"platform":"1","scheduledTime":"2023-10-18T20:58:00.000Z","time":"2023-10-18T20:58:00.000Z","reihung":false},"departure":{"platform":"1","scheduledTime":"2023-10-18T20:59:00.000Z","time":"2023-10-18T20:59:00.000Z","reihung":false}},{"station":{"evaNumber":"8011155","name":"Berlin Alexanderplatz","coordinates":{"lng":13.411088,"lat":52.521526},"ril100":"BALE"},"arrival":{"platform":"1","scheduledTime":"2023-10-18T21:02:00.000Z","time":"2023-10-18T21:02:00.000Z","reihung":false},"departure":{"platform":"1","scheduledTime":"2023-10-18T21:03:00.000Z","time":"2023-10-18T21:03:00.000Z","reihung":false}},{"station":{"evaNumber":"8010255","name":"Berlin Ostbahnhof","coordinates":{"lng":13.4349,"lat":52.510424},"ril100":"BHF"},"arrival":{"platform":"1","scheduledTime":"2023-10-18T21:06:00.000Z","time":"2023-10-18T21:06:00.000Z","reihung":false},"departure":{"platform":"1","scheduledTime":"2023-10-18T21:07:00.000Z","time":"2023-10-18T21:07:00.000Z","reihung":false}},{"station":{"evaNumber":"8011162","name":"Berlin Ostkreuz","coordinates":{"lng":13.470497,"lat":52.504689},"ril100":"BOKN"},"arrival":{"platform":"1","scheduledTime":"2023-10-18T21:10:00.000Z","time":"2023-10-18T21:10:00.000Z","reihung":false},"departure":{"platform":"1","scheduledTime":"2023-10-18T21:12:00.000Z","time":"2023-10-18T21:12:00.000Z","reihung":false}},{"station":{"evaNumber":"8013477","name":"Erkner","coordinates":{"lng":13.751518,"lat":52.428236},"ril100":"BERK"},"arrival":{"platform":"1","scheduledTime":"2023-10-18T21:26:00.000Z","time":"2023-10-18T21:26:00.000Z","reihung":false},"departure":{"platform":"1","scheduledTime":"2023-10-18T21:27:00.000Z","time":"2023-10-18T21:27:00.000Z","reihung":false}},{"station":{"evaNumber":"8011533","name":"Fangschleuse","coordinates":{"lng":13.82487,"lat":52.406725},"ril100":"BFS"},"arrival":{"platform":"1","scheduledTime":"2023-10-18T21:31:00.000Z","time":"2023-10-18T21:31:00.000Z","reihung":false},"departure":{"platform":"1","scheduledTime":"2023-10-18T21:31:00.000Z","time":"2023-10-18T21:31:00.000Z","reihung":false}},{"station":{"evaNumber":"8011818","name":"Hangelsberg","coordinates":{"lng":13.921342,"lat":52.400181},"ril100":"BHGB"},"arrival":{"platform":"1","scheduledTime":"2023-10-18T21:37:00.000Z","time":"2023-10-18T21:37:00.000Z","reihung":false},"departure":{"platform":"1","scheduledTime":"2023-10-18T21:37:00.000Z","time":"2023-10-18T21:37:00.000Z","reihung":false}},{"station":{"evaNumber":"8010120","name":"Fürstenwalde(Spree)","coordinates":{"lng":14.059974,"lat":52.366741},"ril100":"BFUW"},"arrival":{"platform":"1","scheduledTime":"2023-10-18T21:44:00.000Z","time":"2023-10-18T21:44:00.000Z","reihung":false},"departure":{"platform":"1","scheduledTime":"2023-10-18T21:45:00.000Z","time":"2023-10-18T21:45:00.000Z","reihung":false}},{"station":{"evaNumber":"8011154","name":"Berkenbrück","coordinates":{"lng":14.165103,"lat":52.357212},"ril100":"BBKR"},"arrival":{"platform":"1","scheduledTime":"2023-10-18T21:50:00.000Z","time":"2023-10-18T21:50:00.000Z","reihung":false},"departure":{"platform":"1","scheduledTime":"2023-10-18T21:50:00.000Z","time":"2023-10-18T21:50:00.000Z","reihung":false}},{"station":{"evaNumber":"8011269","name":"Briesen(Mark)","coordinates":{"lng":14.28074,"lat":52.346596},"ril100":"BBSN"},"arrival":{"platform":"1","scheduledTime":"2023-10-18T21:56:00.000Z","time":"2023-10-18T21:56:00.000Z","reihung":false},"departure":{"platform":"1","scheduledTime":"2023-10-18T21:56:00.000Z","time":"2023-10-18T21:56:00.000Z","reihung":false}},{"station":{"evaNumber":"8011940","name":"Jacobsdorf(Mark)","coordinates":{"lng":14.355431,"lat":52.33269},"ril100":"BJF"},"arrival":{"platform":"1","scheduledTime":"2023-10-18T22:00:00.000Z","time":"2023-10-18T22:00:00.000Z","reihung":false},"departure":{"platform":"1","scheduledTime":"2023-10-18T22:00:00.000Z","time":"2023-10-18T22:00:00.000Z","reihung":false}},{"station":{"evaNumber":"8012636","name":"Pillgram","coordinates":{"lng":14.398607,"lat":52.33696},"ril100":"BPIL"},"arrival":{"platform":"1","scheduledTime":"2023-10-18T22:03:00.000Z","time":"2023-10-18T22:03:00.000Z","reihung":false},"departure":{"platform":"1","scheduledTime":"2023-10-18T22:03:00.000Z","time":"2023-10-18T22:03:00.000Z","reihung":false}},{"station":{"evaNumber":"8011559","name":"Frankfurt(Oder)-Rosengarten","coordinates":{"lng":14.473145,"lat":52.337957},"ril100":"BFRS"},"arrival":{"platform":"1","scheduledTime":"2023-10-18T22:07:00.000Z","time":"2023-10-18T22:07:00.000Z","reihung":false},"departure":{"platform":"1","scheduledTime":"2023-10-18T22:07:00.000Z","time":"2023-10-18T22:07:00.000Z","reihung":false}},{"station":{"evaNumber":"8010113","name":"Frankfurt(Oder)","coordinates":{"lng":14.547073,"lat":52.335863},"ril100":"BFP"},"arrival":{"platform":"9","scheduledTime":"2023-10-18T22:12:00.000Z","time":"2023-10-18T22:12:00.000Z","reihung":false}}],"finalDestination":"Frankfurt(Oder)","jid":"1|516254|0|80|18102023","messages":[{"type":"A","code":"FB","prio":260,"icoX":5,"txtN":"Fahrradmitnahme begrenzt möglich"},{"type":"A","code":"GL","prio":330,"icoX":6,"txtN":"Beförderung von Gruppen eingeschränkt"},{"type":"A","code":"RO","prio":560,"icoX":14,"txtN":"Rollstuhlstellplatz"},{"type":"A","code":"EH","prio":560,"icoX":6,"txtN":"Fahrzeuggebundene Einstiegshilfe vorhanden"},{"type":"A","code":"EA","prio":560,"icoX":6,"txtN":"Behindertengerechte Ausstattung"},{"type":"A","code":"LS","prio":605,"icoX":6,"txtN":"Laptop-Steckdosen"},{"type":"A","code":"KL","prio":610,"icoX":6,"txtN":"Klimaanlage"},{"type":"A","code":"WV","prio":710,"icoX":6,"txtN":"WLAN verfügbar"}],"type":"JNY"}],"segmentTypes":["S","ICE","Fußweg","RE"]},{"checksum":"13ef085a_3","cid":"C-4","date":"2023-10-17T22:00:00.000Z","duration":23160000,"changes":3,"isRideable":true,"arrival":{"platform":"9","scheduledTime":"2023-10-18T22:12:00.000Z","time":"2023-10-18T22:12:00.000Z","reihung":false},"departure":{"platform":"3","scheduledTime":"2023-10-18T15:46:00.000Z","time":"2023-10-18T15:46:00.000Z","reihung":false},"segments":[{"arrival":{"platform":"12","scheduledTime":"2023-10-18T16:40:00.000Z","time":"2023-10-18T16:40:00.000Z","reihung":false},"departure":{"platform":"3","scheduledTime":"2023-10-18T15:46:00.000Z","time":"2023-10-18T15:46:00.000Z","reihung":false},"duration":3240000,"train":{"name":"ICE 1572","line":"26","admin":"80","number":"1572","type":"ICE","operator":{"name":"DB Fernverkehr AG","icoX":7}},"changeDuration":22,"segmentStart":{"name":"Heidelberg Hbf","evaNumber":"8000156"},"segmentDestination":{"name":"Frankfurt(Main)Hbf","evaNumber":"8000105"},"stops":[{"station":{"evaNumber":"8000156","name":"Heidelberg Hbf","coordinates":{"lng":8.67548,"lat":49.403582},"ril100":"RH"},"departure":{"platform":"3","scheduledTime":"2023-10-18T15:46:00.000Z","time":"2023-10-18T15:46:00.000Z","reihung":false},"auslastung":{"first":1,"second":1}},{"station":{"evaNumber":"8000377","name":"Weinheim(Bergstr)Hbf","coordinates":{"lng":8.66561,"lat":49.553738},"ril100":"RWE"},"arrival":{"platform":"2","scheduledTime":"2023-10-18T15:58:00.000Z","time":"2023-10-18T15:58:00.000Z","reihung":false},"departure":{"platform":"2","scheduledTime":"2023-10-18T16:00:00.000Z","time":"2023-10-18T16:00:00.000Z","reihung":false},"auslastung":{"first":1,"second":1}},{"station":{"evaNumber":"8000031","name":"Bensheim","coordinates":{"lng":8.616646,"lat":49.68142},"ril100":"FBH"},"arrival":{"platform":"1","scheduledTime":"2023-10-18T16:08:00.000Z","time":"2023-10-18T16:08:00.000Z","reihung":false},"departure":{"platform":"1","scheduledTime":"2023-10-18T16:09:00.000Z","time":"2023-10-18T16:09:00.000Z","reihung":false},"auslastung":{"first":1,"second":1}},{"station":{"evaNumber":"8000068","name":"Darmstadt Hbf","coordinates":{"lng":8.629707,"lat":49.872549},"ril100":"FD"},"arrival":{"platform":"5","scheduledTime":"2023-10-18T16:22:00.000Z","time":"2023-10-18T16:22:00.000Z","reihung":false},"departure":{"platform":"5","scheduledTime":"2023-10-18T16:24:00.000Z","time":"2023-10-18T16:24:00.000Z","reihung":false},"auslastung":{"first":1,"second":1}},{"station":{"evaNumber":"8000105","name":"Frankfurt(Main)Hbf","coordinates":{"lng":8.663003,"lat":50.106817},"ril100":"FF"},"arrival":{"platform":"12","scheduledTime":"2023-10-18T16:40:00.000Z","time":"2023-10-18T16:40:00.000Z","reihung":false}}],"finalDestination":"Hannover Hbf","jid":"1|198135|0|80|18102023","auslastung":{"first":1,"second":1},"messages":[{"type":"A","code":"CK","prio":200,"icoX":6,"txtN":"Sicher & kontaktlos ohne Ticketkontrolle reisen mit Komfort Check-in"},{"type":"A","code":"FR","prio":260,"icoX":8,"txtN":"Fahrradmitnahme reservierungspflichtig"},{"type":"A","code":"FB","prio":260,"icoX":5,"txtN":"Fahrradmitnahme begrenzt möglich"},{"type":"A","code":"BR","prio":450,"icoX":9,"txtN":"Bordrestaurant"}],"type":"JNY"},{"arrival":{"platform":"7","scheduledTime":"2023-10-18T20:43:00.000Z","time":"2023-10-18T20:43:00.000Z","reihung":false},"departure":{"platform":"8","scheduledTime":"2023-10-18T17:02:00.000Z","time":"2023-10-18T17:02:00.000Z","reihung":false},"duration":13260000,"train":{"name":"ICE 572","line":"22","admin":"80","number":"572","type":"ICE","operator":{"name":"DB Fernverkehr AG","icoX":7}},"changeDuration":7,"segmentStart":{"name":"Frankfurt(Main)Hbf","evaNumber":"8000105"},"segmentDestination":{"name":"Berlin Südkreuz","evaNumber":"8011113"},"stops":[{"station":{"evaNumber":"8000105","name":"Frankfurt(Main)Hbf","coordinates":{"lng":8.663003,"lat":50.106817},"ril100":"FF"},"departure":{"platform":"8","scheduledTime":"2023-10-18T17:02:00.000Z","time":"2023-10-18T17:02:00.000Z","reihung":false},"auslastung":{"first":2,"second":2}},{"station":{"evaNumber":"8010101","name":"Erfurt Hbf","coordinates":{"lng":11.038502,"lat":50.97255},"ril100":"UE  P"},"arrival":{"platform":"10","scheduledTime":"2023-10-18T19:07:00.000Z","time":"2023-10-18T19:07:00.000Z","reihung":false},"departure":{"platform":"10","scheduledTime":"2023-10-18T19:09:00.000Z","time":"2023-10-18T19:09:00.000Z","reihung":false},"auslastung":{"first":2,"second":1}},{"station":{"evaNumber":"8010159","name":"Halle(Saale)Hbf","coordinates":{"lng":11.98699,"lat":51.477079},"ril100":"LH"},"arrival":{"platform":"7","scheduledTime":"2023-10-18T19:39:00.000Z","time":"2023-10-18T19:39:00.000Z","reihung":false},"departure":{"platform":"7","scheduledTime":"2023-10-18T19:42:00.000Z","time":"2023-10-18T19:42:00.000Z","reihung":false},"auslastung":{"first":2,"second":1}},{"station":{"evaNumber":"8011113","name":"Berlin Südkreuz","coordinates":{"lng":13.365863,"lat":52.47623},"ril100":"BPAF"},"arrival":{"platform":"7","scheduledTime":"2023-10-18T20:43:00.000Z","time":"2023-10-18T20:43:00.000Z","reihung":false}}],"finalDestination":"Berlin Hbf (tief)","jid":"1|206498|0|80|18102023","auslastung":{"first":2,"second":2},"messages":[{"type":"A","code":"CK","prio":200,"icoX":6,"txtN":"Sicher & kontaktlos ohne Ticketkontrolle reisen mit Komfort Check-in"},{"type":"A","code":"FR","prio":260,"icoX":8,"txtN":"Fahrradmitnahme reservierungspflichtig"},{"type":"A","code":"FB","prio":260,"icoX":5,"txtN":"Fahrradmitnahme begrenzt möglich"},{"type":"A","code":"BR","prio":450,"icoX":9,"txtN":"Bordrestaurant"},{"type":"A","code":"EH","prio":560,"icoX":6,"txtN":"Fahrzeuggebundene Einstiegshilfe vorhanden"},{"type":"A","code":"IT","prio":100,"icoX":18,"txtN":"ICE Sprinter"}],"type":"JNY"},{"type":"WALK","train":{"name":"Fußweg","type":"Fußweg"},"arrival":{"scheduledTime":"2023-10-18T20:50:00.000Z","time":"2023-10-18T20:50:00.000Z","reihung":false},"departure":{"scheduledTime":"2023-10-18T20:43:00.000Z","time":"2023-10-18T20:43:00.000Z","reihung":false},"duration":420000,"segmentStart":{"evaNumber":"8011113","name":"Berlin Südkreuz","coordinates":{"lng":13.365863,"lat":52.47623},"ril100":"BPAF"},"segmentDestination":{"evaNumber":"8089073","name":"Berlin Südkreuz (S)","coordinates":{"lng":13.365881,"lat":52.474962},"ril100":"BSKR"}},{"arrival":{"platform":"12","scheduledTime":"2023-10-18T21:05:00.000Z","time":"2023-10-18T21:05:00.000Z","reihung":false},"departure":{"platform":"12","scheduledTime":"2023-10-18T20:50:00.000Z","time":"2023-10-18T20:50:00.000Z","reihung":false},"duration":900000,"train":{"name":"S 42","line":"42","admin":"08","number":"42239","type":"S","operator":{"name":"S-Bahn Berlin","icoX":22}},"changeDuration":7,"segmentStart":{"name":"Berlin Südkreuz (S)","evaNumber":"8089073"},"segmentDestination":{"name":"Berlin Ostkreuz (S)","evaNumber":"8089028"},"stops":[{"station":{"evaNumber":"8089073","name":"Berlin Südkreuz (S)","coordinates":{"lng":13.365881,"lat":52.474962},"ril100":"BSKR"},"departure":{"platform":"12","scheduledTime":"2023-10-18T20:50:00.000Z","time":"2023-10-18T20:50:00.000Z","reihung":false}},{"station":{"evaNumber":"8089090","name":"Berlin-Tempelhof","coordinates":{"lng":13.384264,"lat":52.471025},"ril100":"BTHF"},"arrival":{"platform":"2","scheduledTime":"2023-10-18T20:52:00.000Z","time":"2023-10-18T20:52:00.000Z","reihung":false},"departure":{"platform":"2","scheduledTime":"2023-10-18T20:53:00.000Z","time":"2023-10-18T20:53:00.000Z","reihung":false}},{"station":{"evaNumber":"8089105","name":"Berlin Hermannstraße","coordinates":{"lng":13.430945,"lat":52.467645},"ril100":"BHER"},"arrival":{"platform":"2","scheduledTime":"2023-10-18T20:56:00.000Z","time":"2023-10-18T20:56:00.000Z","reihung":false},"departure":{"platform":"2","scheduledTime":"2023-10-18T20:56:00.000Z","time":"2023-10-18T20:56:00.000Z","reihung":false}},{"station":{"evaNumber":"8089077","name":"Berlin-Neukölln","coordinates":{"lng":13.443071,"lat":52.469434},"ril100":"BNK"},"arrival":{"platform":"2","scheduledTime":"2023-10-18T20:58:00.000Z","time":"2023-10-18T20:58:00.000Z","reihung":false},"departure":{"platform":"2","scheduledTime":"2023-10-18T20:58:00.000Z","time":"2023-10-18T20:58:00.000Z","reihung":false}},{"station":{"evaNumber":"8089327","name":"Berlin Sonnenallee","coordinates":{"lng":13.455521,"lat":52.472778},"ril100":"BSO"},"arrival":{"platform":"2","scheduledTime":"2023-10-18T21:00:00.000Z","time":"2023-10-18T21:00:00.000Z","reihung":false},"departure":{"platform":"2","scheduledTime":"2023-10-18T21:00:00.000Z","time":"2023-10-18T21:00:00.000Z","reihung":false}},{"station":{"evaNumber":"8089043","name":"Berlin Treptower Park","coordinates":{"lng":13.461364,"lat":52.493345},"ril100":"BTP"},"arrival":{"platform":"2","scheduledTime":"2023-10-18T21:03:00.000Z","time":"2023-10-18T21:03:00.000Z","reihung":false},"departure":{"platform":"2","scheduledTime":"2023-10-18T21:03:00.000Z","time":"2023-10-18T21:03:00.000Z","reihung":false}},{"station":{"evaNumber":"8089028","name":"Berlin Ostkreuz (S)","coordinates":{"lng":13.468861,"lat":52.503305},"ril100":"BOK"},"arrival":{"platform":"12","scheduledTime":"2023-10-18T21:05:00.000Z","time":"2023-10-18T21:05:00.000Z","reihung":false}}],"finalDestination":"Berlin Gesundbrunnen(S)","jid":"1|312862|1|80|18102023","messages":[{"type":"A","code":"FB","prio":260,"icoX":5,"txtN":"Fahrradmitnahme begrenzt möglich"},{"type":"A","code":"K2","prio":300,"icoX":23,"txtN":"nur 2. Klasse"}],"type":"JNY"},{"type":"WALK","train":{"name":"Fußweg","type":"Fußweg"},"arrival":{"scheduledTime":"2023-10-18T21:10:00.000Z","time":"2023-10-18T21:10:00.000Z","reihung":false},"departure":{"scheduledTime":"2023-10-18T21:05:00.000Z","time":"2023-10-18T21:05:00.000Z","reihung":false},"duration":300000,"segmentStart":{"evaNumber":"8089028","name":"Berlin Ostkreuz (S)","coordinates":{"lng":13.468861,"lat":52.503305},"ril100":"BOK"},"segmentDestination":{"evaNumber":"8011162","name":"Berlin Ostkreuz","coordinates":{"lng":13.470497,"lat":52.504689},"ril100":"BOKN"}},{"arrival":{"platform":"9","scheduledTime":"2023-10-18T22:12:00.000Z","time":"2023-10-18T22:12:00.000Z","reihung":false},"departure":{"platform":"1","scheduledTime":"2023-10-18T21:12:00.000Z","time":"2023-10-18T21:12:00.000Z","reihung":false},"duration":3600000,"train":{"name":"RE 1","line":"1","admin":"OWRE","number":"73748","type":"RE","operator":{"name":"Ostdeutsche Eisenbahn GmbH","icoX":12}},"segmentStart":{"name":"Berlin Ostkreuz","evaNumber":"8011162"},"segmentDestination":{"name":"Frankfurt(Oder)","evaNumber":"8010113"},"stops":[{"station":{"evaNumber":"8011162","name":"Berlin Ostkreuz","coordinates":{"lng":13.470497,"lat":52.504689},"ril100":"BOKN"},"departure":{"platform":"1","scheduledTime":"2023-10-18T21:12:00.000Z","time":"2023-10-18T21:12:00.000Z","reihung":false}},{"station":{"evaNumber":"8013477","name":"Erkner","coordinates":{"lng":13.751518,"lat":52.428236},"ril100":"BERK"},"arrival":{"platform":"1","scheduledTime":"2023-10-18T21:26:00.000Z","time":"2023-10-18T21:26:00.000Z","reihung":false},"departure":{"platform":"1","scheduledTime":"2023-10-18T21:27:00.000Z","time":"2023-10-18T21:27:00.000Z","reihung":false}},{"station":{"evaNumber":"8011533","name":"Fangschleuse","coordinates":{"lng":13.82487,"lat":52.406725},"ril100":"BFS"},"arrival":{"platform":"1","scheduledTime":"2023-10-18T21:31:00.000Z","time":"2023-10-18T21:31:00.000Z","reihung":false},"departure":{"platform":"1","scheduledTime":"2023-10-18T21:31:00.000Z","time":"2023-10-18T21:31:00.000Z","reihung":false}},{"station":{"evaNumber":"8011818","name":"Hangelsberg","coordinates":{"lng":13.921342,"lat":52.400181},"ril100":"BHGB"},"arrival":{"platform":"1","scheduledTime":"2023-10-18T21:37:00.000Z","time":"2023-10-18T21:37:00.000Z","reihung":false},"departure":{"platform":"1","scheduledTime":"2023-10-18T21:37:00.000Z","time":"2023-10-18T21:37:00.000Z","reihung":false}},{"station":{"evaNumber":"8010120","name":"Fürstenwalde(Spree)","coordinates":{"lng":14.059974,"lat":52.366741},"ril100":"BFUW"},"arrival":{"platform":"1","scheduledTime":"2023-10-18T21:44:00.000Z","time":"2023-10-18T21:44:00.000Z","reihung":false},"departure":{"platform":"1","scheduledTime":"2023-10-18T21:45:00.000Z","time":"2023-10-18T21:45:00.000Z","reihung":false}},{"station":{"evaNumber":"8011154","name":"Berkenbrück","coordinates":{"lng":14.165103,"lat":52.357212},"ril100":"BBKR"},"arrival":{"platform":"1","scheduledTime":"2023-10-18T21:50:00.000Z","time":"2023-10-18T21:50:00.000Z","reihung":false},"departure":{"platform":"1","scheduledTime":"2023-10-18T21:50:00.000Z","time":"2023-10-18T21:50:00.000Z","reihung":false}},{"station":{"evaNumber":"8011269","name":"Briesen(Mark)","coordinates":{"lng":14.28074,"lat":52.346596},"ril100":"BBSN"},"arrival":{"platform":"1","scheduledTime":"2023-10-18T21:56:00.000Z","time":"2023-10-18T21:56:00.000Z","reihung":false},"departure":{"platform":"1","scheduledTime":"2023-10-18T21:56:00.000Z","time":"2023-10-18T21:56:00.000Z","reihung":false}},{"station":{"evaNumber":"8011940","name":"Jacobsdorf(Mark)","coordinates":{"lng":14.355431,"lat":52.33269},"ril100":"BJF"},"arrival":{"platform":"1","scheduledTime":"2023-10-18T22:00:00.000Z","time":"2023-10-18T22:00:00.000Z","reihung":false},"departure":{"platform":"1","scheduledTime":"2023-10-18T22:00:00.000Z","time":"2023-10-18T22:00:00.000Z","reihung":false}},{"station":{"evaNumber":"8012636","name":"Pillgram","coordinates":{"lng":14.398607,"lat":52.33696},"ril100":"BPIL"},"arrival":{"platform":"1","scheduledTime":"2023-10-18T22:03:00.000Z","time":"2023-10-18T22:03:00.000Z","reihung":false},"departure":{"platform":"1","scheduledTime":"2023-10-18T22:03:00.000Z","time":"2023-10-18T22:03:00.000Z","reihung":false}},{"station":{"evaNumber":"8011559","name":"Frankfurt(Oder)-Rosengarten","coordinates":{"lng":14.473145,"lat":52.337957},"ril100":"BFRS"},"arrival":{"platform":"1","scheduledTime":"2023-10-18T22:07:00.000Z","time":"2023-10-18T22:07:00.000Z","reihung":false},"departure":{"platform":"1","scheduledTime":"2023-10-18T22:07:00.000Z","time":"2023-10-18T22:07:00.000Z","reihung":false}},{"station":{"evaNumber":"8010113","name":"Frankfurt(Oder)","coordinates":{"lng":14.547073,"lat":52.335863},"ril100":"BFP"},"arrival":{"platform":"9","scheduledTime":"2023-10-18T22:12:00.000Z","time":"2023-10-18T22:12:00.000Z","reihung":false}}],"finalDestination":"Frankfurt(Oder)","jid":"1|516254|0|80|18102023","messages":[{"type":"A","code":"FB","prio":260,"icoX":5,"txtN":"Fahrradmitnahme begrenzt möglich"},{"type":"A","code":"GL","prio":330,"icoX":6,"txtN":"Beförderung von Gruppen eingeschränkt"},{"type":"A","code":"RO","prio":560,"icoX":14,"txtN":"Rollstuhlstellplatz"},{"type":"A","code":"EH","prio":560,"icoX":6,"txtN":"Fahrzeuggebundene Einstiegshilfe vorhanden"},{"type":"A","code":"EA","prio":560,"icoX":6,"txtN":"Behindertengerechte Ausstattung"},{"type":"A","code":"LS","prio":605,"icoX":6,"txtN":"Laptop-Steckdosen"},{"type":"A","code":"KL","prio":610,"icoX":6,"txtN":"Klimaanlage"},{"type":"A","code":"WV","prio":710,"icoX":6,"txtN":"WLAN verfügbar"}],"type":"JNY"}],"segmentTypes":["ICE","ICE","Fußweg","S","Fußweg","RE"]},{"checksum":"436acb3d_3","cid":"C-5","date":"2023-10-17T22:00:00.000Z","duration":26760000,"changes":2,"isRideable":true,"arrival":{"platform":"11","scheduledTime":"2023-10-18T23:12:00.000Z","time":"2023-10-18T23:12:00.000Z","reihung":false},"departure":{"platform":"3","scheduledTime":"2023-10-18T15:46:00.000Z","time":"2023-10-18T15:46:00.000Z","reihung":false},"segments":[{"arrival":{"platform":"12","scheduledTime":"2023-10-18T16:40:00.000Z","time":"2023-10-18T16:40:00.000Z","reihung":false},"departure":{"platform":"3","scheduledTime":"2023-10-18T15:46:00.000Z","time":"2023-10-18T15:46:00.000Z","reihung":false},"duration":3240000,"train":{"name":"ICE 1572","line":"26","admin":"80","number":"1572","type":"ICE","operator":{"name":"DB Fernverkehr AG","icoX":7}},"changeDuration":22,"segmentStart":{"name":"Heidelberg Hbf","evaNumber":"8000156"},"segmentDestination":{"name":"Frankfurt(Main)Hbf","evaNumber":"8000105"},"stops":[{"station":{"evaNumber":"8000156","name":"Heidelberg Hbf","coordinates":{"lng":8.67548,"lat":49.403582},"ril100":"RH"},"departure":{"platform":"3","scheduledTime":"2023-10-18T15:46:00.000Z","time":"2023-10-18T15:46:00.000Z","reihung":false},"auslastung":{"first":1,"second":1}},{"station":{"evaNumber":"8000377","name":"Weinheim(Bergstr)Hbf","coordinates":{"lng":8.66561,"lat":49.553738},"ril100":"RWE"},"arrival":{"platform":"2","scheduledTime":"2023-10-18T15:58:00.000Z","time":"2023-10-18T15:58:00.000Z","reihung":false},"departure":{"platform":"2","scheduledTime":"2023-10-18T16:00:00.000Z","time":"2023-10-18T16:00:00.000Z","reihung":false},"auslastung":{"first":1,"second":1}},{"station":{"evaNumber":"8000031","name":"Bensheim","coordinates":{"lng":8.616646,"lat":49.68142},"ril100":"FBH"},"arrival":{"platform":"1","scheduledTime":"2023-10-18T16:08:00.000Z","time":"2023-10-18T16:08:00.000Z","reihung":false},"departure":{"platform":"1","scheduledTime":"2023-10-18T16:09:00.000Z","time":"2023-10-18T16:09:00.000Z","reihung":false},"auslastung":{"first":1,"second":1}},{"station":{"evaNumber":"8000068","name":"Darmstadt Hbf","coordinates":{"lng":8.629707,"lat":49.872549},"ril100":"FD"},"arrival":{"platform":"5","scheduledTime":"2023-10-18T16:22:00.000Z","time":"2023-10-18T16:22:00.000Z","reihung":false},"departure":{"platform":"5","scheduledTime":"2023-10-18T16:24:00.000Z","time":"2023-10-18T16:24:00.000Z","reihung":false},"auslastung":{"first":1,"second":1}},{"station":{"evaNumber":"8000105","name":"Frankfurt(Main)Hbf","coordinates":{"lng":8.663003,"lat":50.106817},"ril100":"FF"},"arrival":{"platform":"12","scheduledTime":"2023-10-18T16:40:00.000Z","time":"2023-10-18T16:40:00.000Z","reihung":false}}],"finalDestination":"Hannover Hbf","jid":"1|198135|0|80|18102023","auslastung":{"first":1,"second":1},"messages":[{"type":"A","code":"CK","prio":200,"icoX":6,"txtN":"Sicher & kontaktlos ohne Ticketkontrolle reisen mit Komfort Check-in"},{"type":"A","code":"FR","prio":260,"icoX":8,"txtN":"Fahrradmitnahme reservierungspflichtig"},{"type":"A","code":"FB","prio":260,"icoX":5,"txtN":"Fahrradmitnahme begrenzt möglich"},{"type":"A","code":"BR","prio":450,"icoX":9,"txtN":"Bordrestaurant"}],"type":"JNY"},{"arrival":{"platform":"7","scheduledTime":"2023-10-18T20:50:00.000Z","time":"2023-10-18T20:50:00.000Z","reihung":false},"departure":{"platform":"8","scheduledTime":"2023-10-18T17:02:00.000Z","time":"2023-10-18T17:02:00.000Z","reihung":false},"duration":13680000,"train":{"name":"ICE 572","line":"22","admin":"80","number":"572","type":"ICE","operator":{"name":"DB Fernverkehr AG","icoX":7}},"changeDuration":66,"segmentStart":{"name":"Frankfurt(Main)Hbf","evaNumber":"8000105"},"segmentDestination":{"name":"Berlin Hbf (tief)","evaNumber":"8098160"},"stops":[{"station":{"evaNumber":"8000105","name":"Frankfurt(Main)Hbf","coordinates":{"lng":8.663003,"lat":50.106817},"ril100":"FF"},"departure":{"platform":"8","scheduledTime":"2023-10-18T17:02:00.000Z","time":"2023-10-18T17:02:00.000Z","reihung":false},"auslastung":{"first":2,"second":2}},{"station":{"evaNumber":"8010101","name":"Erfurt Hbf","coordinates":{"lng":11.038502,"lat":50.97255},"ril100":"UE  P"},"arrival":{"platform":"10","scheduledTime":"2023-10-18T19:07:00.000Z","time":"2023-10-18T19:07:00.000Z","reihung":false},"departure":{"platform":"10","scheduledTime":"2023-10-18T19:09:00.000Z","time":"2023-10-18T19:09:00.000Z","reihung":false},"auslastung":{"first":2,"second":1}},{"station":{"evaNumber":"8010159","name":"Halle(Saale)Hbf","coordinates":{"lng":11.98699,"lat":51.477079},"ril100":"LH"},"arrival":{"platform":"7","scheduledTime":"2023-10-18T19:39:00.000Z","time":"2023-10-18T19:39:00.000Z","reihung":false},"departure":{"platform":"7","scheduledTime":"2023-10-18T19:42:00.000Z","time":"2023-10-18T19:42:00.000Z","reihung":false},"auslastung":{"first":2,"second":1}},{"station":{"evaNumber":"8011113","name":"Berlin Südkreuz","coordinates":{"lng":13.365863,"lat":52.47623},"ril100":"BPAF"},"arrival":{"platform":"7","scheduledTime":"2023-10-18T20:43:00.000Z","time":"2023-10-18T20:43:00.000Z","reihung":false}},{"station":{"evaNumber":"8098160","name":"Berlin Hbf (tief)","coordinates":{"lng":13.368892,"lat":52.52585},"ril100":"BL"},"arrival":{"platform":"7","scheduledTime":"2023-10-18T20:50:00.000Z","time":"2023-10-18T20:50:00.000Z","reihung":false}}],"finalDestination":"Berlin Hbf (tief)","jid":"1|206498|0|80|18102023","auslastung":{"first":2,"second":2},"messages":[{"type":"A","code":"CK","prio":200,"icoX":6,"txtN":"Sicher & kontaktlos ohne Ticketkontrolle reisen mit Komfort Check-in"},{"type":"A","code":"FR","prio":260,"icoX":8,"txtN":"Fahrradmitnahme reservierungspflichtig"},{"type":"A","code":"FB","prio":260,"icoX":5,"txtN":"Fahrradmitnahme begrenzt möglich"},{"type":"A","code":"BR","prio":450,"icoX":9,"txtN":"Bordrestaurant"},{"type":"A","code":"EH","prio":560,"icoX":6,"txtN":"Fahrzeuggebundene Einstiegshilfe vorhanden"},{"type":"A","code":"IT","prio":100,"icoX":18,"txtN":"ICE Sprinter"}],"type":"JNY"},{"type":"WALK","train":{"name":"Fußweg","type":"Fußweg"},"arrival":{"scheduledTime":"2023-10-18T20:59:00.000Z","time":"2023-10-18T20:59:00.000Z","reihung":false},"departure":{"scheduledTime":"2023-10-18T20:50:00.000Z","time":"2023-10-18T20:50:00.000Z","reihung":false},"duration":540000,"segmentStart":{"evaNumber":"8098160","name":"Berlin Hbf (tief)","coordinates":{"lng":13.368892,"lat":52.52585},"ril100":"BL"},"segmentDestination":{"evaNumber":"8011160","name":"Berlin Hbf","coordinates":{"lng":13.369629,"lat":52.524924},"ril100":"BLS"}},{"arrival":{"platform":"11","scheduledTime":"2023-10-18T23:12:00.000Z","time":"2023-10-18T23:12:00.000Z","reihung":false},"departure":{"platform":"12","scheduledTime":"2023-10-18T21:56:00.000Z","time":"2023-10-18T21:56:00.000Z","reihung":false},"duration":4560000,"train":{"name":"RE 1","line":"1","admin":"OWRE","number":"73750","type":"RE","operator":{"name":"Ostdeutsche Eisenbahn GmbH","icoX":12}},"segmentStart":{"name":"Berlin Hbf","evaNumber":"8011160"},"segmentDestination":{"name":"Frankfurt(Oder)","evaNumber":"8010113"},"stops":[{"station":{"evaNumber":"8011160","name":"Berlin Hbf","coordinates":{"lng":13.369629,"lat":52.524924},"ril100":"BLS"},"departure":{"platform":"12","scheduledTime":"2023-10-18T21:56:00.000Z","time":"2023-10-18T21:56:00.000Z","reihung":false}},{"station":{"evaNumber":"8011306","name":"Berlin Friedrichstraße","coordinates":{"lng":13.386925,"lat":52.520331},"ril100":"BFRI"},"arrival":{"platform":"1","scheduledTime":"2023-10-18T21:58:00.000Z","time":"2023-10-18T21:58:00.000Z","reihung":false},"departure":{"platform":"1","scheduledTime":"2023-10-18T21:59:00.000Z","time":"2023-10-18T21:59:00.000Z","reihung":false}},{"station":{"evaNumber":"8011155","name":"Berlin Alexanderplatz","coordinates":{"lng":13.411088,"lat":52.521526},"ril100":"BALE"},"arrival":{"platform":"1","scheduledTime":"2023-10-18T22:02:00.000Z","time":"2023-10-18T22:02:00.000Z","reihung":false},"departure":{"platform":"1","scheduledTime":"2023-10-18T22:03:00.000Z","time":"2023-10-18T22:03:00.000Z","reihung":false}},{"station":{"evaNumber":"8010255","name":"Berlin Ostbahnhof","coordinates":{"lng":13.4349,"lat":52.510424},"ril100":"BHF"},"arrival":{"platform":"1","scheduledTime":"2023-10-18T22:06:00.000Z","time":"2023-10-18T22:06:00.000Z","reihung":false},"departure":{"platform":"1","scheduledTime":"2023-10-18T22:07:00.000Z","time":"2023-10-18T22:07:00.000Z","reihung":false}},{"station":{"evaNumber":"8011162","name":"Berlin Ostkreuz","coordinates":{"lng":13.470497,"lat":52.504689},"ril100":"BOKN"},"arrival":{"platform":"1","scheduledTime":"2023-10-18T22:10:00.000Z","time":"2023-10-18T22:10:00.000Z","reihung":false},"departure":{"platform":"1","scheduledTime":"2023-10-18T22:12:00.000Z","time":"2023-10-18T22:12:00.000Z","reihung":false}},{"station":{"evaNumber":"8013477","name":"Erkner","coordinates":{"lng":13.751518,"lat":52.428236},"ril100":"BERK"},"arrival":{"platform":"1","scheduledTime":"2023-10-18T22:26:00.000Z","time":"2023-10-18T22:26:00.000Z","reihung":false},"departure":{"platform":"1","scheduledTime":"2023-10-18T22:27:00.000Z","time":"2023-10-18T22:27:00.000Z","reihung":false}},{"station":{"evaNumber":"8011533","name":"Fangschleuse","coordinates":{"lng":13.82487,"lat":52.406725},"ril100":"BFS"},"arrival":{"platform":"1","scheduledTime":"2023-10-18T22:31:00.000Z","time":"2023-10-18T22:31:00.000Z","reihung":false},"departure":{"platform":"1","scheduledTime":"2023-10-18T22:31:00.000Z","time":"2023-10-18T22:31:00.000Z","reihung":false}},{"station":{"evaNumber":"8011818","name":"Hangelsberg","coordinates":{"lng":13.921342,"lat":52.400181},"ril100":"BHGB"},"arrival":{"platform":"1","scheduledTime":"2023-10-18T22:37:00.000Z","time":"2023-10-18T22:37:00.000Z","reihung":false},"departure":{"platform":"1","scheduledTime":"2023-10-18T22:37:00.000Z","time":"2023-10-18T22:37:00.000Z","reihung":false}},{"station":{"evaNumber":"8010120","name":"Fürstenwalde(Spree)","coordinates":{"lng":14.059974,"lat":52.366741},"ril100":"BFUW"},"arrival":{"platform":"1","scheduledTime":"2023-10-18T22:44:00.000Z","time":"2023-10-18T22:44:00.000Z","reihung":false},"departure":{"platform":"1","scheduledTime":"2023-10-18T22:45:00.000Z","time":"2023-10-18T22:45:00.000Z","reihung":false}},{"station":{"evaNumber":"8011154","name":"Berkenbrück","coordinates":{"lng":14.165103,"lat":52.357212},"ril100":"BBKR"},"arrival":{"platform":"1","scheduledTime":"2023-10-18T22:50:00.000Z","time":"2023-10-18T22:50:00.000Z","reihung":false},"departure":{"platform":"1","scheduledTime":"2023-10-18T22:50:00.000Z","time":"2023-10-18T22:50:00.000Z","reihung":false}},{"station":{"evaNumber":"8011269","name":"Briesen(Mark)","coordinates":{"lng":14.28074,"lat":52.346596},"ril100":"BBSN"},"arrival":{"platform":"1","scheduledTime":"2023-10-18T22:56:00.000Z","time":"2023-10-18T22:56:00.000Z","reihung":false},"departure":{"platform":"1","scheduledTime":"2023-10-18T22:56:00.000Z","time":"2023-10-18T22:56:00.000Z","reihung":false}},{"station":{"evaNumber":"8011940","name":"Jacobsdorf(Mark)","coordinates":{"lng":14.355431,"lat":52.33269},"ril100":"BJF"},"arrival":{"platform":"1","scheduledTime":"2023-10-18T23:00:00.000Z","time":"2023-10-18T23:00:00.000Z","reihung":false},"departure":{"platform":"1","scheduledTime":"2023-10-18T23:00:00.000Z","time":"2023-10-18T23:00:00.000Z","reihung":false}},{"station":{"evaNumber":"8012636","name":"Pillgram","coordinates":{"lng":14.398607,"lat":52.33696},"ril100":"BPIL"},"arrival":{"platform":"1","scheduledTime":"2023-10-18T23:03:00.000Z","time":"2023-10-18T23:03:00.000Z","reihung":false},"departure":{"platform":"1","scheduledTime":"2023-10-18T23:03:00.000Z","time":"2023-10-18T23:03:00.000Z","reihung":false}},{"station":{"evaNumber":"8011559","name":"Frankfurt(Oder)-Rosengarten","coordinates":{"lng":14.473145,"lat":52.337957},"ril100":"BFRS"},"arrival":{"platform":"1","scheduledTime":"2023-10-18T23:07:00.000Z","time":"2023-10-18T23:07:00.000Z","reihung":false},"departure":{"platform":"1","scheduledTime":"2023-10-18T23:07:00.000Z","time":"2023-10-18T23:07:00.000Z","reihung":false}},{"station":{"evaNumber":"8010113","name":"Frankfurt(Oder)","coordinates":{"lng":14.547073,"lat":52.335863},"ril100":"BFP"},"arrival":{"platform":"11","scheduledTime":"2023-10-18T23:12:00.000Z","time":"2023-10-18T23:12:00.000Z","reihung":false}}],"finalDestination":"Frankfurt(Oder)","jid":"1|516284|0|80|18102023","messages":[{"type":"A","code":"FB","prio":260,"icoX":5,"txtN":"Fahrradmitnahme begrenzt möglich"},{"type":"A","code":"GL","prio":330,"icoX":6,"txtN":"Beförderung von Gruppen eingeschränkt"},{"type":"A","code":"RO","prio":560,"icoX":14,"txtN":"Rollstuhlstellplatz"},{"type":"A","code":"EH","prio":560,"icoX":6,"txtN":"Fahrzeuggebundene Einstiegshilfe vorhanden"},{"type":"A","code":"EA","prio":560,"icoX":6,"txtN":"Behindertengerechte Ausstattung"},{"type":"A","code":"LS","prio":605,"icoX":6,"txtN":"Laptop-Steckdosen"},{"type":"A","code":"KL","prio":610,"icoX":6,"txtN":"Klimaanlage"},{"type":"A","code":"WV","prio":710,"icoX":6,"txtN":"WLAN verfügbar"}],"type":"JNY"}],"segmentTypes":["ICE","ICE","Fußweg","RE"]}]}