{"context":{"earlier":"3|OB|MT#14#451704#451668#452172#452172#0#0#565#451576#1#0#3#0#0#-2147483648#1#2|PDH#bbe10b32f5270e429a5a473728022d1b|RD#18102023|RT#141653|US#0|RS#INIT","later":"3|OF|MT#14#451914#451914#452566#452566#0#0#565#451789#7#0#18#0#0#-2147483648#1#2|PDH#bbe10b32f5270e429a5a473728022d1b|RD#18102023|RT#141653|US#0|RS#INIT"},"routes":[{"checksum":"6038bd30_3","cid":"C-0","date":"2023-10-17T22:00:00.000Z","duration":30240000,"changes":1,"isRideable":true,"arrival":{"platform":"9","scheduledTime":"2023-10-18T22:12:00.000Z","time":"2023-10-18T22:12:00.000Z","reihung":false},"departure":{"platform":"1","scheduledTime":"2023-10-18T13:48:00.000Z","time":"2023-10-18T13:48:00.000Z","reihung":false},"segments":[{"arrival":{"platform":"7","scheduledTime":"2023-10-18T20:31:00.000Z","time":"2023-10-18T20:31:00.000Z","reihung":false},"departure":{"platform":"1","scheduledTime":"2023-10-18T13:48:00.000Z","time":"2023-10-18T13:48:00.000Z","reihung":false},"duration":24180000,"train":{"name":"ICE 70","line":"20","admin":"80","number":"70","type":"ICE","operator":{"name":"DB Fernverkehr AG","icoX":2}},"changeDuration":25,"segmentStart":{"name":"Freiburg(Breisgau) Hbf","evaNumber":"8000107"},"segmentDestination":{"name":"Berlin Hbf (tief)","evaNumber":"8098160"},"stops":[{"station":{"evaNumber":"8000107","name":"Freiburg(Breisgau) Hbf","coordinates":{"lng":7.841344,"lat":47.997974},"ril100":"RF"},"departure":{"platform":"1","scheduledTime":"2023-10-18T13:48:00.000Z","time":"2023-10-18T13:48:00.000Z","reihung":false},"auslastung":{"first":2,"second":1}},{"station":{"evaNumber":"8000774","name":"Baden-Baden","coordinates":{"lng":8.190773,"lat":48.790392},"ril100":"RBB"},"arrival":{"platform":"4","scheduledTime":"2023-10-18T14:31:00.000Z","time":"2023-10-18T14:31:00.000Z","reihung":false},"departure":{"platform":"4","scheduledTime":"2023-10-18T14:32:00.000Z","time":"2023-10-18T14:32:00.000Z","reihung":false},"auslastung":{"first":2,"second":1}},{"station":{"evaNumber":"8000191","name":"Karlsruhe Hbf","coordinates":{"lng":8.401939,"lat":48.99353},"ril100":"RK"},"arrival":{"platform":"3","scheduledTime":"2023-10-18T14:49:00.000Z","time":"2023-10-18T14:49:00.000Z","reihung":false},"departure":{"platform":"3","scheduledTime":"2023-10-18T14:51:00.000Z","time":"2023-10-18T14:51:00.000Z","reihung":false},"auslastung":{"first":2,"second":2}},{"station":{"evaNumber":"8000244","name":"Mannheim Hbf","coordinates":{"lng":8.469268,"lat":49.479181},"ril100":"RM"},"arrival":{"platform":"3","scheduledTime":"2023-10-18T15:14:00.000Z","time":"2023-10-18T15:14:00.000Z","reihung":false},"departure":{"platform":"3","scheduledTime":"2023-10-18T15:16:00.000Z","time":"2023-10-18T15:16:00.000Z","reihung":false},"auslastung":{"first":2,"second":2}},{"station":{"evaNumber":"8000105","name":"Frankfurt(Main)Hbf","coordinates":{"lng":8.663003,"lat":50.106817},"ril100":"FF"},"arrival":{"platform":"8","scheduledTime":"2023-10-18T15:52:00.000Z","time":"2023-10-18T15:52:00.000Z","reihung":false},"departure":{"platform":"8","scheduledTime":"2023-10-18T15:58:00.000Z","time":"2023-10-18T15:58:00.000Z","reihung":false},"auslastung":{"first":2,"second":2}},{"station":{"evaNumber":"8000150","name":"Hanau Hbf","coordinates":{"lng":8.92921,"lat":50.120903},"ril100":"FH"},"arrival":{"platform":"7","scheduledTime":"2023-10-18T16:12:00.000Z","time":"2023-10-18T16:12:00.000Z","reihung":false},"departure":{"platform":"7","scheduledTime":"2023-10-18T16:14:00.000Z","time":"2023-10-18T16:14:00.000Z","reihung":false},"auslastung":{"first":2,"second":2}},{"station":{"evaNumber":"8000115","name":"Fulda","coordinates":{"lng":9.684178,"lat":50.554794},"ril100":"FFU"},"arrival":{"platform":"6","scheduledTime":"2023-10-18T16:58:00.000Z","time":"2023-10-18T16:58:00.000Z","reihung":false},"departure":{"platform":"6","scheduledTime":"2023-10-18T17:09:00.000Z","time":"2023-10-18T17:09:00.000Z","reihung":false},"auslastung":{"first":2,"second":1}},{"station":{"evaNumber":"8010097","name":"Eisenach","coordinates":{"lng":10.33212,"lat":50.976928},"ril100":"UEI"},"arrival":{"platform":"4","scheduledTime":"2023-10-18T18:00:00.000Z","time":"2023-10-18T18:00:00.000Z","reihung":false},"departure":{"platform":"4","scheduledTime":"2023-10-18T18:01:00.000Z","time":"2023-10-18T18:01:00.000Z","reihung":false},"auslastung":{"first":2,"second":1}},{"station":{"evaNumber":"8010101","name":"Erfurt Hbf","coordinates":{"lng":11.038502,"lat":50.97255},"ril100":"UE  P"},"arrival":{"platform":"10","scheduledTime":"2023-10-18T18:26:00.000Z","time":"2023-10-18T18:26:00.000Z","reihung":false},"departure":{"platform":"10","scheduledTime":"2023-10-18T18:28:00.000Z","time":"2023-10-18T18:28:00.000Z","reihung":false},"auslastung":{"first":2,"second":1}},{"station":{"evaNumber":"8010205","name":"Leipzig Hbf","coordinates":{"lng":12.381167,"lat":51.345081},"ril100":"LL"},"arrival":{"platform":"13","scheduledTime":"2023-10-18T19:10:00.000Z","time":"2023-10-18T19:10:00.000Z","reihung":false},"departure":{"platform":"13","scheduledTime":"2023-10-18T19:16:00.000Z","time":"2023-10-18T19:16:00.000Z","reihung":false},"auslastung":{"first":1,"second":1}},{"station":{"evaNumber":"8010222","name":"Lutherstadt Wittenberg Hbf","coordinates":{"lng":12.661999,"lat":51.867579},"ril100":"LW"},"arrival":{"platform":"3","scheduledTime":"2023-10-18T19:46:00.000Z","time":"2023-10-18T19:46:00.000Z","reihung":false},"departure":{"platform":"3","scheduledTime":"2023-10-18T19:48:00.000Z","time":"2023-10-18T19:48:00.000Z","reihung":false},"auslastung":{"first":1,"second":1}},{"station":{"evaNumber":"8011113","name":"Berlin Südkreuz","coordinates":{"lng":13.365863,"lat":52.47623},"ril100":"BPAF"},"arrival":{"platform":"8","scheduledTime":"2023-10-18T20:24:00.000Z","time":"2023-10-18T20:24:00.000Z","reihung":false}},{"station":{"evaNumber":"8098160","name":"Berlin Hbf (tief)","coordinates":{"lng":13.368892,"lat":52.52585},"ril100":"BL"},"arrival":{"platform":"7","scheduledTime":"2023-10-18T20:31:00.000Z","time":"2023-10-18T20:31:00.000Z","reihung":false}}],"finalDestination":"Berlin Hbf (tief)","jid":"1|363133|0|80|18102023","auslastung":{"first":2,"second":2},"messages":[{"type":"A","code":"CK","prio":200,"icoX":3,"txtN":"Sicher & kontaktlos ohne Ticketkontrolle reisen mit Komfort Check-in"},{"type":"A","code":"FR","prio":260,"icoX":4,"txtN":"Fahrradmitnahme reservierungspflichtig"},{"type":"A","code":"FB","prio":260,"icoX":5,"txtN":"Fahrradmitnahme begrenzt möglich"},{"type":"A","code":"BR","prio":450,"icoX":6,"txtN":"Bordrestaurant"},{"type":"A","code":"EH","prio":560,"icoX":3,"txtN":"Fahrzeuggebundene Einstiegshilfe vorhanden"}],"type":"JNY"},{"type":"WALK","train":{"name":"Fußweg","type":"Fußweg"},"arrival":{"scheduledTime":"2023-10-18T20:40:00.000Z","time":"2023-10-18T20:40:00.000Z","reihung":false},"departure":{"scheduledTime":"2023-10-18T20:31:00.000Z","time":"2023-10-18T20:31:00.000Z","reihung":false},"duration":540000,"segmentStart":{"evaNumber":"8098160","name":"Berlin Hbf (tief)","coordinates":{"lng":13.368892,"lat":52.52585},"ril100":"BL"},"segmentDestination":{"evaNumber":"8011160","name":"Berlin Hbf","coordinates":{"lng":13.369629,"lat":52.524924},"ril100":"BLS"}},{"arrival":{"platform":"9","scheduledTime":"2023-10-18T22:12:00.000Z","time":"2023-10-18T22:12:00.000Z","reihung":false},"departure":{"platform":"12","scheduledTime":"2023-10-18T20:56:00.000Z","time":"2023-10-18T20:56:00.000Z","reihung":false},"duration":4560000,"train":{"name":"RE 1","line":"1","admin":"OWRE","number":"73748","type":"RE","operator":{"name":"Ostdeutsche Eisenbahn GmbH","icoX":9}},"segmentStart":{"name":"Berlin Hbf","evaNumber":"8011160"},"segmentDestination":{"name":"Frankfurt(Oder)","evaNumber":"8010113"},"stops":[{"station":{"evaNumber":"8011160","name":"Berlin Hbf","coordinates":{"lng":13.369629,"lat":52.524924},"ril100":"BLS"},"departure":{"platform":"12","scheduledTime":"2023-10-18T20:56:00.000Z","time":"2023-10-18T20:56:00.000Z","reihung":false}},{"station":{"evaNumber":"8011306","name":"Berlin Friedrichstraße","coordinates":{"lng":13.386925,"lat":52.520331},"ril100":"BFRI"},"arrival":{"platform":"1","scheduledTime":"2023-10-18T20:58:00.000Z","time":"2023-10-18T20:58:00.000Z","reihung":false},"departure":{"platform":"1","scheduledTime":"2023-10-18T20:59:00.000Z","time":"2023-10-18T20:59:00.000Z","reihung":false}},{"station":{"evaNumber":"8011155","name":"Berlin Alexanderplatz","coordinates":{"lng":13.411088,"lat":52.521526},"ril100":"BALE"},"arrival":{"platform":"1","scheduledTime":"2023-10-18T21:02:00.000Z","time":"2023-10-18T21:02:00.000Z","reihung":false},"departure":{"platform":"1","scheduledTime":"2023-10-18T21:03:00.000Z","time":"2023-10-18T21:03:00.000Z","reihung":false}},{"station":{"evaNumber":"8010255","name":"Berlin Ostbahnhof","coordinates":{"lng":13.4349,"lat":52.510424},"ril100":"BHF"},"arrival":{"platform":"1","scheduledTime":"2023-10-18T21:06:00.000Z","time":"2023-10-18T21:06:00.000Z","reihung":false},"departure":{"platform":"1","scheduledTime":"2023-10-18T21:07:00.000Z","time":"2023-10-18T21:07:00.000Z","reihung":false}},{"station":{"evaNumber":"8011162","name":"Berlin Ostkreuz","coordinates":{"lng":13.470497,"lat":52.504689},"ril100":"BOKN"},"arrival":{"platform":"1","scheduledTime":"2023-10-18T21:10:00.000Z","time":"2023-10-18T21:10:00.000Z","reihung":false},"departure":{"platform":"1","scheduledTime":"2023-10-18T21:12:00.000Z","time":"2023-10-18T21:12:00.000Z","reihung":false}},{"station":{"evaNumber":"8013477","name":"Erkner","coordinates":{"lng":13.751518,"lat":52.428236},"ril100":"BERK"},"arrival":{"platform":"1","scheduledTime":"2023-10-18T21:26:00.000Z","time":"2023-10-18T21:26:00.000Z","reihung":false},"departure":{"platform":"1","scheduledTime":"2023-10-18T21:27:00.000Z","time":"2023-10-18T21:27:00.000Z","reihung":false}},{"station":{"evaNumber":"8011533","name":"Fangschleuse","coordinates":{"lng":13.82487,"lat":52.406725},"ril100":"BFS"},"arrival":{"platform":"1","scheduledTime":"2023-10-18T21:31:00.000Z","time":"2023-10-18T21:31:00.000Z","reihung":false},"departure":{"platform":"1","scheduledTime":"2023-10-18T21:31:00.000Z","time":"2023-10-18T21:31:00.000Z","reihung":false}},{"station":{"evaNumber":"8011818","name":"Hangelsberg","coordinates":{"lng":13.921342,"lat":52.400181},"ril100":"BHGB"},"arrival":{"platform":"1","scheduledTime":"2023-10-18T21:37:00.000Z","time":"2023-10-18T21:37:00.000Z","reihung":false},"departure":{"platform":"1","scheduledTime":"2023-10-18T21:37:00.000Z","time":"2023-10-18T21:37:00.000Z","reihung":false}},{"station":{"evaNumber":"8010120","name":"Fürstenwalde(Spree)","coordinates":{"lng":14.059974,"lat":52.366741},"ril100":"BFUW"},"arrival":{"platform":"1","scheduledTime":"2023-10-18T21:44:00.000Z","time":"2023-10-18T21:44:00.000Z","reihung":false},"departure":{"platform":"1","scheduledTime":"2023-10-18T21:45:00.000Z","time":"2023-10-18T21:45:00.000Z","reihung":false}},{"station":{"evaNumber":"8011154","name":"Berkenbrück","coordinates":{"lng":14.165103,"lat":52.357212},"ril100":"BBKR"},"arrival":{"platform":"1","scheduledTime":"2023-10-18T21:50:00.000Z","time":"2023-10-18T21:50:00.000Z","reihung":false},"departure":{"platform":"1","scheduledTime":"2023-10-18T21:50:00.000Z","time":"2023-10-18T21:50:00.000Z","reihung":false}},{"station":{"evaNumber":"8011269","name":"Briesen(Mark)","coordinates":{"lng":14.28074,"lat":52.346596},"ril100":"BBSN"},"arrival":{"platform":"1","scheduledTime":"2023-10-18T21:56:00.000Z","time":"2023-10-18T21:56:00.000Z","reihung":false},"departure":{"platform":"1","scheduledTime":"2023-10-18T21:56:00.000Z","time":"2023-10-18T21:56:00.000Z","reihung":false}},{"station":{"evaNumber":"8011940","name":"Jacobsdorf(Mark)","coordinates":{"lng":14.355431,"lat":52.33269},"ril100":"BJF"},"arrival":{"platform":"1","scheduledTime":"2023-10-18T22:00:00.000Z","time":"2023-10-18T22:00:00.000Z","reihung":false},"departure":{"platform":"1","scheduledTime":"2023-10-18T22:00:00.000Z","time":"2023-10-18T22:00:00.000Z","reihung":false}},{"station":{"evaNumber":"8012636","name":"Pillgram","coordinates":{"lng":14.398607,"lat":52.33696},"ril100":"BPIL"},"arrival":{"platform":"1","scheduledTime":"2023-10-18T22:03:00.000Z","time":"2023-10-18T22:03:00.000Z","reihung":false},"departure":{"platform":"1","scheduledTime":"2023-10-18T22:03:00.000Z","time":"2023-10-18T22:03:00.000Z","reihung":false}},{"station":{"evaNumber":"8011559","name":"Frankfurt(Oder)-Rosengarten","coordinates":{"lng":14.473145,"lat":52.337957},"ril100":"BFRS"},"arrival":{"platform":"1","scheduledTime":"2023-10-18T22:07:00.000Z","time":"2023-10-18T22:07:00.000Z","reihung":false},"departure":{"platform":"1","scheduledTime":"2023-10-18T22:07:00.000Z","time":"2023-10-18T22:07:00.000Z","reihung":false}},{"station":{"evaNumber":"8010113","name":"Frankfurt(Oder)","coordinates":{"lng":14.547073,"lat":52.335863},"ril100":"BFP"},"arrival":{"platform":"9","scheduledTime":"2023-10-18T22:12:00.000Z","time":"2023-10-18T22:12:00.000Z","reihung":false}}],"finalDestination":"Frankfurt(Oder)","jid":"1|516254|0|80|18102023","messages":[{"type":"A","code":"FB","prio":260,"icoX":5,"txtN":"Fahrradmitnahme begrenzt möglich"},{"type":"A","code":"GL","prio":330,"icoX":3,"txtN":"Beförderung von Gruppen eingeschränkt"},{"type":"A","code":"RO","prio":560,"icoX":13,"txtN":"Rollstuhlstellplatz"},{"type":"A","code":"EH","prio":560,"icoX":3,"txtN":"Fahrzeuggebundene Einstiegshilfe vorhanden"},{"type":"A","code":"EA","prio":560,"icoX":3,"txtN":"Behindertengerechte Ausstattung"},{"type":"A","code":"LS","prio":605,"icoX":3,"txtN":"Laptop-Steckdosen"},{"type":"A","code":"KL","prio":610,"icoX":3,"txtN":"Klimaanlage"},{"type":"A","code":"WV","prio":710,"icoX":3,"txtN":"WLAN verfügbar"}],"type":"JNY"}],"segmentTypes":["ICE","Fußweg","RE"]},{"checksum":"e8fc1d2c_3","cid":"C-1","date":"2023-10-17T22:00:00.000Z","duration":28080000,"changes":3,"isRideable":true,"arrival":{"platform":"9","scheduledTime":"2023-10-18T22:12:00.000Z","time":"2023-10-18T22:12:00.000Z","reihung":false},"departure":{"platform":"1","scheduledTime":"2023-10-18T14:24:00.000Z","time":"2023-10-18T14:24:00.000Z","reihung":false},"segments":[{"arrival":{"platform":"3","scheduledTime":"2023-10-18T16:44:00.000Z","time":"2023-10-18T16:44:00.000Z","reihung":false},"departure":{"platform":"1","scheduledTime":"2023-10-18T14:24:00.000Z","time":"2023-10-18T14:24:00.000Z","reihung":false},"duration":8400000,"train":{"name":"ECE 52","line":"85","admin":"80TRI","number":"52","type":"ECE","operator":{"name":"DB/SBB/TI","icoX":15}},"changeDuration":18,"segmentStart":{"name":"Freiburg(Breisgau) Hbf","evaNumber":"8000107"},"segmentDestination":{"name":"Frankfurt(Main)Hbf","evaNumber":"8000105"},"stops":[{"station":{"evaNumber":"8000107","name":"Freiburg(Breisgau) Hbf","coordinates":{"lng":7.841344,"lat":47.997974},"ril100":"RF"},"departure":{"platform":"1","scheduledTime":"2023-10-18T14:24:00.000Z","time":"2023-10-18T14:24:00.000Z","reihung":false},"auslastung":{"first":2,"second":1}},{"station":{"evaNumber":"8005101","name":"Ringsheim/Europa-Park","coordinates":{"lng":7.773197,"lat":48.248926},"ril100":"RRI"},"arrival":{"platform":"2","scheduledTime":"2023-10-18T14:40:00.000Z","time":"2023-10-18T14:40:00.000Z","reihung":false},"departure":{"platform":"2","scheduledTime":"2023-10-18T14:42:00.000Z","time":"2023-10-18T14:42:00.000Z","reihung":false},"auslastung":{"first":2,"second":1}},{"station":{"evaNumber":"8000191","name":"Karlsruhe Hbf","coordinates":{"lng":8.401939,"lat":48.99353},"ril100":"RK"},"arrival":{"platform":"3","scheduledTime":"2023-10-18T15:27:00.000Z","time":"2023-10-18T15:27:00.000Z","reihung":false},"departure":{"platform":"3","scheduledTime":"2023-10-18T15:29:00.000Z","time":"2023-10-18T15:29:00.000Z","reihung":false},"auslastung":{"first":1,"second":1}},{"station":{"evaNumber":"8000244","name":"Mannheim Hbf","coordinates":{"lng":8.469268,"lat":49.479181},"ril100":"RM"},"arrival":{"platform":"2","scheduledTime":"2023-10-18T15:58:00.000Z","time":"2023-10-18T15:58:00.000Z","reihung":false},"departure":{"platform":"2","scheduledTime":"2023-10-18T16:00:00.000Z","time":"2023-10-18T16:00:00.000Z","reihung":false},"auslastung":{"first":2,"second":1}},{"station":{"evaNumber":"8000105","name":"Frankfurt(Main)Hbf","coordinates":{"lng":8.663003,"lat":50.106817},"ril100":"FF"},"arrival":{"platform":"3","scheduledTime":"2023-10-18T16:44:00.000Z","time":"2023-10-18T16:44:00.000Z","reihung":false}}],"finalDestination":"Frankfurt(Main)Hbf","jid":"1|361429|0|80|18102023","auslastung":{"first":2,"second":1},"messages":[{"type":"A","code":"BR","prio":450,"icoX":6,"txtN":"Bordrestaurant"}],"type":"JNY"},{"arrival":{"platform":"7","scheduledTime":"2023-10-18T20:43:00.000Z","time":"2023-10-18T20:43:00.000Z","reihung":false},"departure":{"platform":"8","scheduledTime":"2023-10-18T17:02:00.000Z","time":"2023-10-18T17:02:00.000Z","reihung":false},"duration":13260000,"train":{"name":"ICE 572","line":"22","admin":"80","number":"572","type":"ICE","operator":{"name":"DB Fernverkehr AG","icoX":2}},"changeDuration":7,"segmentStart":{"name":"Frankfurt(Main)Hbf","evaNumber":"8000105"},"segmentDestination":{"name":"Berlin Südkreuz","evaNumber":"8011113"},"stops":[{"station":{"evaNumber":"8000105","name":"Frankfurt(Main)Hbf","coordinates":{"lng":8.663003,"lat":50.106817},"ril100":"FF"},"departure":{"platform":"8","scheduledTime":"2023-10-18T17:02:00.000Z","time":"2023-10-18T17:02:00.000Z","reihung":false},"auslastung":{"first":2,"second":2}},{"station":{"evaNumber":"8010101","name":"Erfurt Hbf","coordinates":{"lng":11.038502,"lat":50.97255},"ril100":"UE  P"},"arrival":{"platform":"10","scheduledTime":"2023-10-18T19:07:00.000Z","time":"2023-10-18T19:07:00.000Z","reihung":false},"departure":{"platform":"10","scheduledTime":"2023-10-18T19:09:00.000Z","time":"2023-10-18T19:09:00.000Z","reihung":false},"auslastung":{"first":2,"second":1}},{"station":{"evaNumber":"8010159","name":"Halle(Saale)Hbf","coordinates":{"lng":11.98699,"lat":51.477079},"ril100":"LH"},"arrival":{"platform":"7","scheduledTime":"2023-10-18T19:39:00.000Z","time":"2023-10-18T19:39:00.000Z","reihung":false},"departure":{"platform":"7","scheduledTime":"2023-10-18T19:42:00.000Z","time":"2023-10-18T19:42:00.000Z","reihung":false},"auslastung":{"first":2,"second":1}},{"station":{"evaNumber":"8011113","name":"Berlin Südkreuz","coordinates":{"lng":13.365863,"lat":52.47623},"ril100":"BPAF"},"arrival":{"platform":"7","scheduledTime":"2023-10-18T20:43:00.000Z","time":"2023-10-18T20:43:00.000Z","reihung":false}}],"finalDestination":"Berlin Hbf (tief)","jid":"1|206498|0|80|18102023","auslastung":{"first":2,"second":2},"messages":[{"type":"A","code":"CK","prio":200,"icoX":3,"txtN":"Sicher & kontaktlos ohne Ticketkontrolle reisen mit Komfort Check-in"},{"type":"A","code":"FR","prio":260,"icoX":4,"txtN":"Fahrradmitnahme reservierungspflichtig"},{"type":"A","code":"FB","prio":260,"icoX":5,"txtN":"Fahrradmitnahme begrenzt möglich"},{"type":"A","code":"BR","prio":450,"icoX":6,"txtN":"Bordrestaurant"},{"type":"A","code":"EH","prio":560,"icoX":3,"txtN":"Fahrzeuggebundene Einstiegshilfe vorhanden"},{"type":"A","code":"IT","prio":100,"icoX":16,"txtN":"ICE Sprinter"}],"type":"JNY"},{"type":"WALK","train":{"name":"Fußweg","type":"Fußweg"},"arrival":{"scheduledTime":"2023-10-18T20:50:00.000Z","time":"2023-10-18T20:50:00.000Z","reihung":false},"departure":{"scheduledTime":"2023-10-18T20:43:00.000Z","time":"2023-10-18T20:43:00.000Z","reihung":false},"duration":420000,"segmentStart":{"evaNumber":"8011113","name":"Berlin Südkreuz","coordinates":{"lng":13.365863,"lat":52.47623},"ril100":"BPAF"},"segmentDestination":{"evaNumber":"8089073","name":"Berlin Südkreuz (S)","coordinates":{"lng":13.365881,"lat":52.474962},"ril100":"BSKR"}},{"arrival":{"platform":"12","scheduledTime":"2023-10-18T21:05:00.000Z","time":"2023-10-18T21:05:00.000Z","reihung":false},"departure":{"platform":"12","scheduledTime":"2023-10-18T20:50:00.000Z","time":"2023-10-18T20:50:00.000Z","reihung":false},"duration":900000,"train":{"name":"S 42","line":"42","admin":"08","number":"42239","type":"S","operator":{"name":"S-Bahn Berlin","icoX":18}},"changeDuration":7,"segmentStart":{"name":"Berlin Südkreuz (S)","evaNumber":"8089073"},"segmentDestination":{"name":"Berlin Ostkreuz (S)","evaNumber":"8089028"},"stops":[{"station":{"evaNumber":"8089073","name":"Berlin Südkreuz (S)","coordinates":{"lng":13.365881,"lat":52.474962},"ril100":"BSKR"},"departure":{"platform":"12","scheduledTime":"2023-10-18T20:50:00.000Z","time":"2023-10-18T20:50:00.000Z","reihung":false}},{"station":{"evaNumber":"8089090","name":"Berlin-Tempelhof","coordinates":{"lng":13.384264,"lat":52.471025},"ril100":"BTHF"},"arrival":{"platform":"2","scheduledTime":"2023-10-18T20:52:00.000Z","time":"2023-10-18T20:52:00.000Z","reihung":false},"departure":{"platform":"2","scheduledTime":"2023-10-18T20:53:00.000Z","time":"2023-10-18T20:53:00.000Z","reihung":false}},{"station":{"evaNumber":"8089105","name":"Berlin Hermannstraße","coordinates":{"lng":13.430945,"lat":52.467645},"ril100":"BHER"},"arrival":{"platform":"2","scheduledTime":"2023-10-18T20:56:00.000Z","time":"2023-10-18T20:56:00.000Z","reihung":false},"departure":{"platform":"2","scheduledTime":"2023-10-18T20:56:00.000Z","time":"2023-10-18T20:56:00.000Z","reihung":false}},{"station":{"evaNumber":"8089077","name":"Berlin-Neukölln","coordinates":{"lng":13.443071,"lat":52.469434},"ril100":"BNK"},"arrival":{"platform":"2","scheduledTime":"2023-10-18T20:58:00.000Z","time":"2023-10-18T20:58:00.000Z","reihung":false},"departure":{"platform":"2","scheduledTime":"2023-10-18T20:58:00.000Z","time":"2023-10-18T20:58:00.000Z","reihung":false}},{"station":{"evaNumber":"8089327","name":"Berlin Sonnenallee","coordinates":{"lng":13.455521,"lat":52.472778},"ril100":"BSO"},"arrival":{"platform":"2","scheduledTime":"2023-10-18T21:00:00.000Z","time":"2023-10-18T21:00:00.000Z","reihung":false},"departure":{"platform":"2","scheduledTime":"2023-10-18T21:00:00.000Z","time":"2023-10-18T21:00:00.000Z","reihung":false}},{"station":{"evaNumber":"8089043","name":"Berlin Treptower Park","coordinates":{"lng":13.461364,"lat":52.493345}},"arrival":{"platform":"2","scheduledTime":"2023-10-18T21:03:00.000Z","time":"2023-10-18T21:03:00.000Z","reihung":false},"departure":{"platform":"2","scheduledTime":"2023-10-18T21:03:00.000Z","time":"2023-10-18T21:03:00.000Z","reihung":false}},{"station":{"evaNumber":"8089028","name":"Berlin Ostkreuz (S)","coordinates":{"lng":13.468861,"lat":52.503305},"ril100":"BOK"},"arrival":{"platform":"12","scheduledTime":"2023-10-18T21:05:00.000Z","time":"2023-10-18T21:05:00.000Z","reihung":false}}],"finalDestination":"Berlin Gesundbrunnen(S)","jid":"1|312862|1|80|18102023","messages":[{"type":"A","code":"FB","prio":260,"icoX":5,"txtN":"Fahrradmitnahme begrenzt möglich"},{"type":"A","code":"K2","prio":300,"icoX":19,"txtN":"nur 2. Klasse"}],"type":"JNY"},{"type":"WALK","train":{"name":"Fußweg","type":"Fußweg"},"arrival":{"scheduledTime":"2023-10-18T21:10:00.000Z","time":"2023-10-18T21:10:00.000Z","reihung":false},"departure":{"scheduledTime":"2023-10-18T21:05:00.000Z","time":"2023-10-18T21:05:00.000Z","reihung":false},"duration":300000,"segmentStart":{"evaNumber":"8089028","name":"Berlin Ostkreuz (S)","coordinates":{"lng":13.468861,"lat":52.503305},"ril100":"BOK"},"segmentDestination":{"evaNumber":"8011162","name":"Berlin Ostkreuz","coordinates":{"lng":13.470497,"lat":52.504689},"ril100":"BOKN"}},{"arrival":{"platform":"9","scheduledTime":"2023-10-18T22:12:00.000Z","time":"2023-10-18T22:12:00.000Z","reihung":false},"departure":{"platform":"1","scheduledTime":"2023-10-18T21:12:00.000Z","time":"2023-10-18T21:12:00.000Z","reihung":false},"duration":3600000,"train":{"name":"RE 1","line":"1","admin":"OWRE","number":"73748","type":"RE","operator":{"name":"Ostdeutsche Eisenbahn GmbH","icoX":9}},"segmentStart":{"name":"Berlin Ostkreuz","evaNumber":"8011162"},"segmentDestination":{"name":"Frankfurt(Oder)","evaNumber":"8010113"},"stops":[{"station":{"evaNumber":"8011162","name":"Berlin Ostkreuz","coordinates":{"lng":13.470497,"lat":52.504689},"ril100":"BOKN"},"departure":{"platform":"1","scheduledTime":"2023-10-18T21:12:00.000Z","time":"2023-10-18T21:12:00.000Z","reihung":false}},{"station":{"evaNumber":"8013477","name":"Erkner","coordinates":{"lng":13.751518,"lat":52.428236},"ril100":"BERK"},"arrival":{"platform":"1","scheduledTime":"2023-10-18T21:26:00.000Z","time":"2023-10-18T21:26:00.000Z","reihung":false},"departure":{"platform":"1","scheduledTime":"2023-10-18T21:27:00.000Z","time":"2023-10-18T21:27:00.000Z","reihung":false}},{"station":{"evaNumber":"8011533","name":"Fangschleuse","coordinates":{"lng":13.82487,"lat":52.406725},"ril100":"BFS"},"arrival":{"platform":"1","scheduledTime":"2023-10-18T21:31:00.000Z","time":"2023-10-18T21:31:00.000Z","reihung":false},"departure":{"platform":"1","scheduledTime":"2023-10-18T21:31:00.000Z","time":"2023-10-18T21:31:00.000Z","reihung":false}},{"station":{"evaNumber":"8011818","name":"Hangelsberg","coordinates":{"lng":13.921342,"lat":52.400181},"ril100":"BHGB"},"arrival":{"platform":"1","scheduledTime":"2023-10-18T21:37:00.000Z","time":"2023-10-18T21:37:00.000Z","reihung":false},"departure":{"platform":"1","scheduledTime":"2023-10-18T21:37:00.000Z","time":"2023-10-18T21:37:00.000Z","reihung":false}},{"station":{"evaNumber":"8010120","name":"Fürstenwalde(Spree)","coordinates":{"lng":14.059974,"lat":52.366741},"ril100":"BFUW"},"arrival":{"platform":"1","scheduledTime":"2023-10-18T21:44:00.000Z","time":"2023-10-18T21:44:00.000Z","reihung":false},"departure":{"platform":"1","scheduledTime":"2023-10-18T21:45:00.000Z","time":"2023-10-18T21:45:00.000Z","reihung":false}},{"station":{"evaNumber":"8011154","name":"Berkenbrück","coordinates":{"lng":14.165103,"lat":52.357212},"ril100":"BBKR"},"arrival":{"platform":"1","scheduledTime":"2023-10-18T21:50:00.000Z","time":"2023-10-18T21:50:00.000Z","reihung":false},"departure":{"platform":"1","scheduledTime":"2023-10-18T21:50:00.000Z","time":"2023-10-18T21:50:00.000Z","reihung":false}},{"station":{"evaNumber":"8011269","name":"Briesen(Mark)","coordinates":{"lng":14.28074,"lat":52.346596},"ril100":"BBSN"},"arrival":{"platform":"1","scheduledTime":"2023-10-18T21:56:00.000Z","time":"2023-10-18T21:56:00.000Z","reihung":false},"departure":{"platform":"1","scheduledTime":"2023-10-18T21:56:00.000Z","time":"2023-10-18T21:56:00.000Z","reihung":false}},{"station":{"evaNumber":"8011940","name":"Jacobsdorf(Mark)","coordinates":{"lng":14.355431,"lat":52.33269},"ril100":"BJF"},"arrival":{"platform":"1","scheduledTime":"2023-10-18T22:00:00.000Z","time":"2023-10-18T22:00:00.000Z","reihung":false},"departure":{"platform":"1","scheduledTime":"2023-10-18T22:00:00.000Z","time":"2023-10-18T22:00:00.000Z","reihung":false}},{"station":{"evaNumber":"8012636","name":"Pillgram","coordinates":{"lng":14.398607,"lat":52.33696},"ril100":"BPIL"},"arrival":{"platform":"1","scheduledTime":"2023-10-18T22:03:00.000Z","time":"2023-10-18T22:03:00.000Z","reihung":false},"departure":{"platform":"1","scheduledTime":"2023-10-18T22:03:00.000Z","time":"2023-10-18T22:03:00.000Z","reihung":false}},{"station":{"evaNumber":"8011559","name":"Frankfurt(Oder)-Rosengarten","coordinates":{"lng":14.473145,"lat":52.337957},"ril100":"BFRS"},"arrival":{"platform":"1","scheduledTime":"2023-10-18T22:07:00.000Z","time":"2023-10-18T22:07:00.000Z","reihung":false},"departure":{"platform":"1","scheduledTime":"2023-10-18T22:07:00.000Z","time":"2023-10-18T22:07:00.000Z","reihung":false}},{"station":{"evaNumber":"8010113","name":"Frankfurt(Oder)","coordinates":{"lng":14.547073,"lat":52.335863},"ril100":"BFP"},"arrival":{"platform":"9","scheduledTime":"2023-10-18T22:12:00.000Z","time":"2023-10-18T22:12:00.000Z","reihung":false}}],"finalDestination":"Frankfurt(Oder)","jid":"1|516254|0|80|18102023","messages":[{"type":"A","code":"FB","prio":260,"icoX":5,"txtN":"Fahrradmitnahme begrenzt möglich"},{"type":"A","code":"GL","prio":330,"icoX":3,"txtN":"Beförderung von Gruppen eingeschränkt"},{"type":"A","code":"RO","prio":560,"icoX":13,"txtN":"Rollstuhlstellplatz"},{"type":"A","code":"EH","prio":560,"icoX":3,"txtN":"Fahrzeuggebundene Einstiegshilfe vorhanden"},{"type":"A","code":"EA","prio":560,"icoX":3,"txtN":"Behindertengerechte Ausstattung"},{"type":"A","code":"LS","prio":605,"icoX":3,"txtN":"Laptop-Steckdosen"},{"type":"A","code":"KL","prio":610,"icoX":3,"txtN":"Klimaanlage"},{"type":"A","code":"WV","prio":710,"icoX":3,"txtN":"WLAN verfügbar"}],"type":"JNY"}],"segmentTypes":["ECE","ICE","Fußweg","S","Fußweg","RE"]},{"checksum":"d407c826_3","cid":"C-2","date":"2023-10-17T22:00:00.000Z","duration":31680000,"changes":2,"isRideable":true,"arrival":{"platform":"11","scheduledTime":"2023-10-18T23:12:00.000Z","time":"2023-10-18T23:12:00.000Z","reihung":false},"departure":{"platform":"1","scheduledTime":"2023-10-18T14:24:00.000Z","time":"2023-10-18T14:24:00.000Z","reihung":false},"segments":[{"arrival":{"platform":"3","scheduledTime":"2023-10-18T16:44:00.000Z","time":"2023-10-18T16:44:00.000Z","reihung":false},"departure":{"platform":"1","scheduledTime":"2023-10-18T14:24:00.000Z","time":"2023-10-18T14:24:00.000Z","reihung":false},"duration":8400000,"train":{"name":"ECE 52","line":"85","admin":"80TRI","number":"52","type":"ECE","operator":{"name":"DB/SBB/TI","icoX":15}},"changeDuration":18,"segmentStart":{"name":"Freiburg(Breisgau) Hbf","evaNumber":"8000107"},"segmentDestination":{"name":"Frankfurt(Main)Hbf","evaNumber":"8000105"},"stops":[{"station":{"evaNumber":"8000107","name":"Freiburg(Breisgau) Hbf","coordinates":{"lng":7.841344,"lat":47.997974},"ril100":"RF"},"departure":{"platform":"1","scheduledTime":"2023-10-18T14:24:00.000Z","time":"2023-10-18T14:24:00.000Z","reihung":false},"auslastung":{"first":2,"second":1}},{"station":{"evaNumber":"8005101","name":"Ringsheim/Europa-Park","coordinates":{"lng":7.773197,"lat":48.248926},"ril100":"RRI"},"arrival":{"platform":"2","scheduledTime":"2023-10-18T14:40:00.000Z","time":"2023-10-18T14:40:00.000Z","reihung":false},"departure":{"platform":"2","scheduledTime":"2023-10-18T14:42:00.000Z","time":"2023-10-18T14:42:00.000Z","reihung":false},"auslastung":{"first":2,"second":1}},{"station":{"evaNumber":"8000191","name":"Karlsruhe Hbf","coordinates":{"lng":8.401939,"lat":48.99353},"ril100":"RK"},"arrival":{"platform":"3","scheduledTime":"2023-10-18T15:27:00.000Z","time":"2023-10-18T15:27:00.000Z","reihung":false},"departure":{"platform":"3","scheduledTime":"2023-10-18T15:29:00.000Z","time":"2023-10-18T15:29:00.000Z","reihung":false},"auslastung":{"first":1,"second":1}},{"station":{"evaNumber":"8000244","name":"Mannheim Hbf","coordinates":{"lng":8.469268,"lat":49.479181},"ril100":"RM"},"arrival":{"platform":"2","scheduledTime":"2023-10-18T15:58:00.000Z","time":"2023-10-18T15:58:00.000Z","reihung":false},"departure":{"platform":"2","scheduledTime":"2023-10-18T16:00:00.000Z","time":"2023-10-18T16:00:00.000Z","reihung":false},"auslastung":{"first":2,"second":1}},{"station":{"evaNumber":"8000105","name":"Frankfurt(Main)Hbf","coordinates":{"lng":8.663003,"lat":50.106817},"ril100":"FF"},"arrival":{"platform":"3","scheduledTime":"2023-10-18T16:44:00.000Z","time":"2023-10-18T16:44:00.000Z","reihung":false}}],"finalDestination":"Frankfurt(Main)Hbf","jid":"1|361429|0|80|18102023","auslastung":{"first":2,"second":1},"messages":[{"type":"A","code":"BR","prio":450,"icoX":6,"txtN":"Bordrestaurant"}],"type":"JNY"},{"arrival":{"platform":"7","scheduledTime":"2023-10-18T20:50:00.000Z","time":"2023-10-18T20:50:00.000Z","reihung":false},"departure":{"platform":"8","scheduledTime":"2023-10-18T17:02:00.000Z","time":"2023-10-18T17:02:00.000Z","reihung":false},"duration":13680000,"train":{"name":"ICE 572","line":"22","admin":"80","number":"572","type":"ICE","operator":{"name":"DB Fernverkehr AG","icoX":2}},"changeDuration":66,"segmentStart":{"name":"Frankfurt(Main)Hbf","evaNumber":"8000105"},"segmentDestination":{"name":"Berlin Hbf (tief)","evaNumber":"8098160"},"stops":[{"station":{"evaNumber":"8000105","name":"Frankfurt(Main)Hbf","coordinates":{"lng":8.663003,"lat":50.106817},"ril100":"FF"},"departure":{"platform":"8","scheduledTime":"2023-10-18T17:02:00.000Z","time":"2023-10-18T17:02:00.000Z","reihung":false},"auslastung":{"first":2,"second":2}},{"station":{"evaNumber":"8010101","name":"Erfurt Hbf","coordinates":{"lng":11.038502,"lat":50.97255},"ril100":"UE  P"},"arrival":{"platform":"10","scheduledTime":"2023-10-18T19:07:00.000Z","time":"2023-10-18T19:07:00.000Z","reihung":false},"departure":{"platform":"10","scheduledTime":"2023-10-18T19:09:00.000Z","time":"2023-10-18T19:09:00.000Z","reihung":false},"auslastung":{"first":2,"second":1}},{"station":{"evaNumber":"8010159","name":"Halle(Saale)Hbf","coordinates":{"lng":11.98699,"lat":51.477079},"ril100":"LH"},"arrival":{"platform":"7","scheduledTime":"2023-10-18T19:39:00.000Z","time":"2023-10-18T19:39:00.000Z","reihung":false},"departure":{"platform":"7","scheduledTime":"2023-10-18T19:42:00.000Z","time":"2023-10-18T19:42:00.000Z","reihung":false},"auslastung":{"first":2,"second":1}},{"station":{"evaNumber":"8011113","name":"Berlin Südkreuz","coordinates":{"lng":13.365863,"lat":52.47623},"ril100":"BPAF"},"arrival":{"platform":"7","scheduledTime":"2023-10-18T20:43:00.000Z","time":"2023-10-18T20:43:00.000Z","reihung":false}},{"station":{"evaNumber":"8098160","name":"Berlin Hbf (tief)","coordinates":{"lng":13.368892,"lat":52.52585},"ril100":"BL"},"arrival":{"platform":"7","scheduledTime":"2023-10-18T20:50:00.000Z","time":"2023-10-18T20:50:00.000Z","reihung":false}}],"finalDestination":"Berlin Hbf (tief)","jid":"1|206498|0|80|18102023","auslastung":{"first":2,"second":2},"messages":[{"type":"A","code":"CK","prio":200,"icoX":3,"txtN":"Sicher & kontaktlos ohne Ticketkontrolle reisen mit Komfort Check-in"},{"type":"A","code":"FR","prio":260,"icoX":4,"txtN":"Fahrradmitnahme reservierungspflichtig"},{"type":"A","code":"FB","prio":260,"icoX":5,"txtN":"Fahrradmitnahme begrenzt möglich"},{"type":"A","code":"BR","prio":450,"icoX":6,"txtN":"Bordrestaurant"},{"type":"A","code":"EH","prio":560,"icoX":3,"txtN":"Fahrzeuggebundene Einstiegshilfe vorhanden"},{"type":"A","code":"IT","prio":100,"icoX":16,"txtN":"ICE Sprinter"}],"type":"JNY"},{"type":"WALK","train":{"name":"Fußweg","type":"Fußweg"},"arrival":{"scheduledTime":"2023-10-18T20:59:00.000Z","time":"2023-10-18T20:59:00.000Z","reihung":false},"departure":{"scheduledTime":"2023-10-18T20:50:00.000Z","time":"2023-10-18T20:50:00.000Z","reihung":false},"duration":540000,"segmentStart":{"evaNumber":"8098160","name":"Berlin Hbf (tief)","coordinates":{"lng":13.368892,"lat":52.52585},"ril100":"BL"},"segmentDestination":{"evaNumber":"8011160","name":"Berlin Hbf","coordinates":{"lng":13.369629,"lat":52.524924},"ril100":"BLS"}},{"arrival":{"platform":"11","scheduledTime":"2023-10-18T23:12:00.000Z","time":"2023-10-18T23:12:00.000Z","reihung":false},"departure":{"platform":"12","scheduledTime":"2023-10-18T21:56:00.000Z","time":"2023-10-18T21:56:00.000Z","reihung":false},"duration":4560000,"train":{"name":"RE 1","line":"1","admin":"OWRE","number":"73750","type":"RE","operator":{"name":"Ostdeutsche Eisenbahn GmbH","icoX":9}},"segmentStart":{"name":"Berlin Hbf","evaNumber":"8011160"},"segmentDestination":{"name":"Frankfurt(Oder)","evaNumber":"8010113"},"stops":[{"station":{"evaNumber":"8011160","name":"Berlin Hbf","coordinates":{"lng":13.369629,"lat":52.524924},"ril100":"BLS"},"departure":{"platform":"12","scheduledTime":"2023-10-18T21:56:00.000Z","time":"2023-10-18T21:56:00.000Z","reihung":false}},{"station":{"evaNumber":"8011306","name":"Berlin Friedrichstraße","coordinates":{"lng":13.386925,"lat":52.520331},"ril100":"BFRI"},"arrival":{"platform":"1","scheduledTime":"2023-10-18T21:58:00.000Z","time":"2023-10-18T21:58:00.000Z","reihung":false},"departure":{"platform":"1","scheduledTime":"2023-10-18T21:59:00.000Z","time":"2023-10-18T21:59:00.000Z","reihung":false}},{"station":{"evaNumber":"8011155","name":"Berlin Alexanderplatz","coordinates":{"lng":13.411088,"lat":52.521526},"ril100":"BALE"},"arrival":{"platform":"1","scheduledTime":"2023-10-18T22:02:00.000Z","time":"2023-10-18T22:02:00.000Z","reihung":false},"departure":{"platform":"1","scheduledTime":"2023-10-18T22:03:00.000Z","time":"2023-10-18T22:03:00.000Z","reihung":false}},{"station":{"evaNumber":"8010255","name":"Berlin Ostbahnhof","coordinates":{"lng":13.4349,"lat":52.510424},"ril100":"BHF"},"arrival":{"platform":"1","scheduledTime":"2023-10-18T22:06:00.000Z","time":"2023-10-18T22:06:00.000Z","reihung":false},"departure":{"platform":"1","scheduledTime":"2023-10-18T22:07:00.000Z","time":"2023-10-18T22:07:00.000Z","reihung":false}},{"station":{"evaNumber":"8011162","name":"Berlin Ostkreuz","coordinates":{"lng":13.470497,"lat":52.504689},"ril100":"BOKN"},"arrival":{"platform":"1","scheduledTime":"2023-10-18T22:10:00.000Z","time":"2023-10-18T22:10:00.000Z","reihung":false},"departure":{"platform":"1","scheduledTime":"2023-10-18T22:12:00.000Z","time":"2023-10-18T22:12:00.000Z","reihung":false}},{"station":{"evaNumber":"8013477","name":"Erkner","coordinates":{"lng":13.751518,"lat":52.428236},"ril100":"BERK"},"arrival":{"platform":"1","scheduledTime":"2023-10-18T22:26:00.000Z","time":"2023-10-18T22:26:00.000Z","reihung":false},"departure":{"platform":"1","scheduledTime":"2023-10-18T22:27:00.000Z","time":"2023-10-18T22:27:00.000Z","reihung":false}},{"station":{"evaNumber":"8011533","name":"Fangschleuse","coordinates":{"lng":13.82487,"lat":52.406725},"ril100":"BFS"},"arrival":{"platform":"1","scheduledTime":"2023-10-18T22:31:00.000Z","time":"2023-10-18T22:31:00.000Z","reihung":false},"departure":{"platform":"1","scheduledTime":"2023-10-18T22:31:00.000Z","time":"2023-10-18T22:31:00.000Z","reihung":false}},{"station":{"evaNumber":"8011818","name":"Hangelsberg","coordinates":{"lng":13.921342,"lat":52.400181},"ril100":"BHGB"},"arrival":{"platform":"1","scheduledTime":"2023-10-18T22:37:00.000Z","time":"2023-10-18T22:37:00.000Z","reihung":false},"departure":{"platform":"1","scheduledTime":"2023-10-18T22:37:00.000Z","time":"2023-10-18T22:37:00.000Z","reihung":false}},{"station":{"evaNumber":"8010120","name":"Fürstenwalde(Spree)","coordinates":{"lng":14.059974,"lat":52.366741},"ril100":"BFUW"},"arrival":{"platform":"1","scheduledTime":"2023-10-18T22:44:00.000Z","time":"2023-10-18T22:44:00.000Z","reihung":false},"departure":{"platform":"1","scheduledTime":"2023-10-18T22:45:00.000Z","time":"2023-10-18T22:45:00.000Z","reihung":false}},{"station":{"evaNumber":"8011154","name":"Berkenbrück","coordinates":{"lng":14.165103,"lat":52.357212},"ril100":"BBKR"},"arrival":{"platform":"1","scheduledTime":"2023-10-18T22:50:00.000Z","time":"2023-10-18T22:50:00.000Z","reihung":false},"departure":{"platform":"1","scheduledTime":"2023-10-18T22:50:00.000Z","time":"2023-10-18T22:50:00.000Z","reihung":false}},{"station":{"evaNumber":"8011269","name":"Briesen(Mark)","coordinates":{"lng":14.28074,"lat":52.346596},"ril100":"BBSN"},"arrival":{"platform":"1","scheduledTime":"2023-10-18T22:56:00.000Z","time":"2023-10-18T22:56:00.000Z","reihung":false},"departure":{"platform":"1","scheduledTime":"2023-10-18T22:56:00.000Z","time":"2023-10-18T22:56:00.000Z","reihung":false}},{"station":{"evaNumber":"8011940","name":"Jacobsdorf(Mark)","coordinates":{"lng":14.355431,"lat":52.33269},"ril100":"BJF"},"arrival":{"platform":"1","scheduledTime":"2023-10-18T23:00:00.000Z","time":"2023-10-18T23:00:00.000Z","reihung":false},"departure":{"platform":"1","scheduledTime":"2023-10-18T23:00:00.000Z","time":"2023-10-18T23:00:00.000Z","reihung":false}},{"station":{"evaNumber":"8012636","name":"Pillgram","coordinates":{"lng":14.398607,"lat":52.33696},"ril100":"BPIL"},"arrival":{"platform":"1","scheduledTime":"2023-10-18T23:03:00.000Z","time":"2023-10-18T23:03:00.000Z","reihung":false},"departure":{"platform":"1","scheduledTime":"2023-10-18T23:03:00.000Z","time":"2023-10-18T23:03:00.000Z","reihung":false}},{"station":{"evaNumber":"8011559","name":"Frankfurt(Oder)-Rosengarten","coordinates":{"lng":14.473145,"lat":52.337957},"ril100":"BFRS"},"arrival":{"platform":"1","scheduledTime":"2023-10-18T23:07:00.000Z","time":"2023-10-18T23:07:00.000Z","reihung":false},"departure":{"platform":"1","scheduledTime":"2023-10-18T23:07:00.000Z","time":"2023-10-18T23:07:00.000Z","reihung":false}},{"station":{"evaNumber":"8010113","name":"Frankfurt(Oder)","coordinates":{"lng":14.547073,"lat":52.335863},"ril100":"BFP"},"arrival":{"platform":"11","scheduledTime":"2023-10-18T23:12:00.000Z","time":"2023-10-18T23:12:00.000Z","reihung":false}}],"finalDestination":"Frankfurt(Oder)","jid":"1|516284|0|80|18102023","messages":[{"type":"A","code":"FB","prio":260,"icoX":5,"txtN":"Fahrradmitnahme begrenzt möglich"},{"type":"A","code":"GL","prio":330,"icoX":3,"txtN":"Beförderung von Gruppen eingeschränkt"},{"type":"A","code":"RO","prio":560,"icoX":13,"txtN":"Rollstuhlstellplatz"},{"type":"A","code":"EH","prio":560,"icoX":3,"txtN":"Fahrzeuggebundene Einstiegshilfe vorhanden"},{"type":"A","code":"EA","prio":560,"icoX":3,"txtN":"Behindertengerechte Ausstattung"},{"type":"A","code":"LS","prio":605,"icoX":3,"txtN":"Laptop-Steckdosen"},{"type":"A","code":"KL","prio":610,"icoX":3,"txtN":"Klimaanlage"},{"type":"A","code":"WV","prio":710,"icoX":3,"txtN":"WLAN verfügbar"}],"type":"JNY"}],"segmentTypes":["ECE","ICE","Fußweg","RE"]},{"checksum":"8c1d8ab5_3","cid":"C-3","date":"2023-10-17T22:00:00.000Z","duration":29820000,"changes":4,"isRideable":true,"arrival":{"platform":"11","scheduledTime":"2023-10-18T23:12:00.000Z","time":"2023-10-18T23:12:00.000Z","reihung":false},"departure":{"platform":"1","scheduledTime":"2023-10-18T14:55:00.000Z","time":"2023-10-18T14:55:00.000Z","reihung":false},"segments":[{"arrival":{"platform":"9","scheduledTime":"2023-10-18T17:08:00.000Z","time":"2023-10-18T17:08:00.000Z","reihung":false},"departure":{"platform":"1","scheduledTime":"2023-10-18T14:55:00.000Z","time":"2023-10-18T14:55:00.000Z","reihung":false},"duration":7980000,"train":{"name":"ICE 274","line":"12","admin":"80","number":"274","type":"ICE","operator":{"name":"DB Fernverkehr AG","icoX":2}},"changeDuration":11,"segmentStart":{"name":"Freiburg(Breisgau) Hbf","evaNumber":"8000107"},"segmentDestination":{"name":"Frankfurt(Main)Hbf","evaNumber":"8000105"},"stops":[{"station":{"evaNumber":"8000107","name":"Freiburg(Breisgau) Hbf","coordinates":{"lng":7.841344,"lat":47.997974},"ril100":"RF"},"departure":{"platform":"1","scheduledTime":"2023-10-18T14:55:00.000Z","time":"2023-10-18T14:55:00.000Z","reihung":false},"auslastung":{"first":1,"second":1}},{"station":{"evaNumber":"8000290","name":"Offenburg","coordinates":{"lng":7.94677,"lat":48.476506},"ril100":"RO"},"arrival":{"platform":"3","scheduledTime":"2023-10-18T15:26:00.000Z","time":"2023-10-18T15:26:00.000Z","reihung":false},"departure":{"platform":"3","scheduledTime":"2023-10-18T15:27:00.000Z","time":"2023-10-18T15:27:00.000Z","reihung":false},"auslastung":{"first":1,"second":1}},{"station":{"evaNumber":"8000191","name":"Karlsruhe Hbf","coordinates":{"lng":8.401939,"lat":48.99353},"ril100":"RK"},"arrival":{"platform":"3","scheduledTime":"2023-10-18T15:58:00.000Z","time":"2023-10-18T15:58:00.000Z","reihung":false},"departure":{"platform":"3","scheduledTime":"2023-10-18T16:00:00.000Z","time":"2023-10-18T16:00:00.000Z","reihung":false},"auslastung":{"first":1,"second":1}},{"station":{"evaNumber":"8000244","name":"Mannheim Hbf","coordinates":{"lng":8.469268,"lat":49.479181},"ril100":"RM"},"arrival":{"platform":"2","scheduledTime":"2023-10-18T16:24:00.000Z","time":"2023-10-18T16:24:00.000Z","reihung":false},"departure":{"platform":"2","scheduledTime":"2023-10-18T16:32:00.000Z","time":"2023-10-18T16:32:00.000Z","reihung":false},"auslastung":{"first":1,"second":1}},{"station":{"evaNumber":"8000105","name":"Frankfurt(Main)Hbf","coordinates":{"lng":8.663003,"lat":50.106817},"ril100":"FF"},"arrival":{"platform":"9","scheduledTime":"2023-10-18T17:08:00.000Z","time":"2023-10-18T17:08:00.000Z","reihung":false}}],"finalDestination":"Hamburg-Altona","jid":"1|204229|0|80|18102023","auslastung":{"first":1,"second":1},"messages":[{"type":"A","code":"CK","prio":200,"icoX":3,"txtN":"Sicher & kontaktlos ohne Ticketkontrolle reisen mit Komfort Check-in"},{"type":"A","code":"FR","prio":260,"icoX":4,"txtN":"Fahrradmitnahme reservierungspflichtig"},{"type":"A","code":"FB","prio":260,"icoX":5,"txtN":"Fahrradmitnahme begrenzt möglich"},{"type":"A","code":"BR","prio":450,"icoX":6,"txtN":"Bordrestaurant"},{"type":"A","code":"EH","prio":560,"icoX":3,"txtN":"Fahrzeuggebundene Einstiegshilfe vorhanden"},{"type":"M","code":"","icoX":21,"txtS":"ICE 274: Frankfurt(Main)Hbf: Information.","txtN":"Keine Be-/Entladung von Fahrrädern in Frankfurt(Main)Hbf möglich.","sIdx":0}],"type":"JNY"},{"arrival":{"platform":"10","scheduledTime":"2023-10-18T19:38:00.000Z","time":"2023-10-18T19:38:00.000Z","reihung":false},"departure":{"platform":"6","scheduledTime":"2023-10-18T17:19:00.000Z","time":"2023-10-18T17:19:00.000Z","reihung":false},"duration":8340000,"train":{"name":"ICE 1657","line":"50","admin":"80","number":"1657","type":"ICE","operator":{"name":"DB Fernverkehr AG","icoX":2}},"changeDuration":33,"segmentStart":{"name":"Frankfurt(Main)Hbf","evaNumber":"8000105"},"segmentDestination":{"name":"Erfurt Hbf","evaNumber":"8010101"},"stops":[{"station":{"evaNumber":"8000105","name":"Frankfurt(Main)Hbf","coordinates":{"lng":8.663003,"lat":50.106817},"ril100":"FF"},"departure":{"platform":"6","scheduledTime":"2023-10-18T17:19:00.000Z","time":"2023-10-18T17:19:00.000Z","reihung":false},"auslastung":{"first":1,"second":1}},{"station":{"evaNumber":"8000115","name":"Fulda","coordinates":{"lng":9.684178,"lat":50.554794},"ril100":"FFU"},"arrival":{"platform":"7","scheduledTime":"2023-10-18T18:13:00.000Z","time":"2023-10-18T18:13:00.000Z","reihung":false},"departure":{"platform":"7","scheduledTime":"2023-10-18T18:15:00.000Z","time":"2023-10-18T18:15:00.000Z","reihung":false},"auslastung":{"first":1,"second":1}},{"station":{"evaNumber":"8000020","name":"Bad Hersfeld","coordinates":{"lng":9.716611,"lat":50.86992},"ril100":"FBHF"},"arrival":{"platform":"3","scheduledTime":"2023-10-18T18:39:00.000Z","time":"2023-10-18T18:39:00.000Z","reihung":false},"departure":{"platform":"3","scheduledTime":"2023-10-18T18:40:00.000Z","time":"2023-10-18T18:40:00.000Z","reihung":false},"auslastung":{"first":1,"second":1}},{"station":{"evaNumber":"8010097","name":"Eisenach","coordinates":{"lng":10.33212,"lat":50.976928},"ril100":"UEI"},"arrival":{"platform":"4","scheduledTime":"2023-10-18T19:07:00.000Z","time":"2023-10-18T19:07:00.000Z","reihung":false},"departure":{"platform":"4","scheduledTime":"2023-10-18T19:08:00.000Z","time":"2023-10-18T19:08:00.000Z","reihung":false},"auslastung":{"first":1,"second":1}},{"station":{"evaNumber":"8010136","name":"Gotha","coordinates":{"lng":10.712688,"lat":50.939029},"ril100":"UGO"},"arrival":{"platform":"3","scheduledTime":"2023-10-18T19:21:00.000Z","time":"2023-10-18T19:21:00.000Z","reihung":false},"departure":{"platform":"3","scheduledTime":"2023-10-18T19:22:00.000Z","time":"2023-10-18T19:22:00.000Z","reihung":false},"auslastung":{"first":1,"second":1}},{"station":{"evaNumber":"8010101","name":"Erfurt Hbf","coordinates":{"lng":11.038502,"lat":50.97255},"ril100":"UE  P"},"arrival":{"platform":"10","scheduledTime":"2023-10-18T19:38:00.000Z","time":"2023-10-18T19:38:00.000Z","reihung":false}}],"finalDestination":"Dresden Hbf","jid":"1|198699|0|80|18102023","auslastung":{"first":1,"second":1},"messages":[{"type":"A","code":"CK","prio":200,"icoX":3,"txtN":"Sicher & kontaktlos ohne Ticketkontrolle reisen mit Komfort Check-in"},{"type":"A","code":"FR","prio":260,"icoX":4,"txtN":"Fahrradmitnahme reservierungspflichtig"},{"type":"A","code":"FB","prio":260,"icoX":5,"txtN":"Fahrradmitnahme begrenzt möglich"},{"type":"A","code":"BR","prio":450,"icoX":6,"txtN":"Bordrestaurant"}],"type":"JNY"},{"arrival":{"platform":"6","scheduledTime":"2023-10-18T21:43:00.000Z","time":"2023-10-18T21:43:00.000Z","reihung":false},"departure":{"platform":"2","scheduledTime":"2023-10-18T20:11:00.000Z","time":"2023-10-18T20:11:00.000Z","reihung":false},"duration":5520000,"train":{"name":"ICE 1100","line":"29","admin":"80","number":"1100","type":"ICE","operator":{"name":"DB Fernverkehr AG","icoX":2}},"changeDuration":7,"segmentStart":{"name":"Erfurt Hbf","evaNumber":"8010101"},"segmentDestination":{"name":"Berlin Südkreuz","evaNumber":"8011113"},"stops":[{"station":{"evaNumber":"8010101","name":"Erfurt Hbf","coordinates":{"lng":11.038502,"lat":50.97255},"ril100":"UE  P"},"departure":{"platform":"2","scheduledTime":"2023-10-18T20:11:00.000Z","time":"2023-10-18T20:11:00.000Z","reihung":false},"auslastung":{"first":1,"second":2}},{"station":{"evaNumber":"8010159","name":"Halle(Saale)Hbf","coordinates":{"lng":11.98699,"lat":51.477079},"ril100":"LH"},"arrival":{"platform":"7","scheduledTime":"2023-10-18T20:38:00.000Z","time":"2023-10-18T20:38:00.000Z","reihung":false},"departure":{"platform":"7","scheduledTime":"2023-10-18T20:42:00.000Z","time":"2023-10-18T20:42:00.000Z","reihung":false},"auslastung":{"first":1,"second":2}},{"station":{"evaNumber":"8011113","name":"Berlin Südkreuz","coordinates":{"lng":13.365863,"lat":52.47623},"ril100":"BPAF"},"arrival":{"platform":"5","scheduledTime":"2023-10-18T21:43:00.000Z","time":"2023-10-18T21:43:00.000Z","reihung":false}}],"finalDestination":"Berlin Gesundbrunnen","jid":"1|196646|0|80|18102023","auslastung":{"first":1,"second":2},"messages":[{"type":"A","code":"CK","prio":200,"icoX":3,"txtN":"Sicher & kontaktlos ohne Ticketkontrolle reisen mit Komfort Check-in"},{"type":"A","code":"BR","prio":450,"icoX":6,"txtN":"Bordrestaurant"}],"type":"JNY"},{"type":"WALK","train":{"name":"Fußweg","type":"Fußweg"},"arrival":{"scheduledTime":"2023-10-18T21:50:00.000Z","time":"2023-10-18T21:50:00.000Z","reihung":false},"departure":{"scheduledTime":"2023-10-18T21:43:00.000Z","time":"2023-10-18T21:43:00.000Z","reihung":false},"duration":420000,"segmentStart":{"evaNumber":"8011113","name":"Berlin Südkreuz","coordinates":{"lng":13.365863,"lat":52.47623},"ril100":"BPAF"},"segmentDestination":{"evaNumber":"8089073","name":"Berlin Südkreuz (S)","coordinates":{"lng":13.365881,"lat":52.474962},"ril100":"BSKR"}},{"arrival":{"platform":"12","scheduledTime":"2023-10-18T22:05:00.000Z","time":"2023-10-18T22:05:00.000Z","reihung":false},"departure":{"platform":"12","scheduledTime":"2023-10-18T21:50:00.000Z","time":"2023-10-18T21:50:00.000Z","reihung":false},"duration":900000,"train":{"name":"S 42","line":"42","admin":"08","number":"42251","type":"S","operator":{"name":"S-Bahn Berlin","icoX":18}},"changeDuration":7,"segmentStart":{"name":"Berlin Südkreuz (S)","evaNumber":"8089073"},"segmentDestination":{"name":"Berlin Ostkreuz (S)","evaNumber":"8089028"},"stops":[{"station":{"evaNumber":"8089073","name":"Berlin Südkreuz (S)","coordinates":{"lng":13.365881,"lat":52.474962},"ril100":"BSKR"},"departure":{"platform":"12","scheduledTime":"2023-10-18T21:50:00.000Z","time":"2023-10-18T21:50:00.000Z","reihung":false}},{"station":{"evaNumber":"8089090","name":"Berlin-Tempelhof","coordinates":{"lng":13.384264,"lat":52.471025},"ril100":"BTHF"},"arrival":{"platform":"2","scheduledTime":"2023-10-18T21:52:00.000Z","time":"2023-10-18T21:52:00.000Z","reihung":false},"departure":{"platform":"2","scheduledTime":"2023-10-18T21:53:00.000Z","time":"2023-10-18T21:53:00.000Z","reihung":false}},{"station":{"evaNumber":"8089105","name":"Berlin Hermannstraße","coordinates":{"lng":13.430945,"lat":52.467645},"ril100":"BHER"},"arrival":{"platform":"2","scheduledTime":"2023-10-18T21:56:00.000Z","time":"2023-10-18T21:56:00.000Z","reihung":false},"departure":{"platform":"2","scheduledTime":"2023-10-18T21:56:00.000Z","time":"2023-10-18T21:56:00.000Z","reihung":false}},{"station":{"evaNumber":"8089077","name":"Berlin-Neukölln","coordinates":{"lng":13.443071,"lat":52.469434},"ril100":"BNK"},"arrival":{"platform":"2","scheduledTime":"2023-10-18T21:58:00.000Z","time":"2023-10-18T21:58:00.000Z","reihung":false},"departure":{"platform":"2","scheduledTime":"2023-10-18T21:58:00.000Z","time":"2023-10-18T21:58:00.000Z","reihung":false}},{"station":{"evaNumber":"8089327","name":"Berlin Sonnenallee","coordinates":{"lng":13.455521,"lat":52.472778},"ril100":"BSO"},"arrival":{"platform":"2","scheduledTime":"2023-10-18T22:00:00.000Z","time":"2023-10-18T22:00:00.000Z","reihung":false},"departure":{"platform":"2","scheduledTime":"2023-10-18T22:00:00.000Z","time":"2023-10-18T22:00:00.000Z","reihung":false}},{"station":{"evaNumber":"8089043","name":"Berlin Treptower Park","coordinates":{"lng":13.461364,"lat":52.493345}},"arrival":{"platform":"2","scheduledTime":"2023-10-18T22:03:00.000Z","time":"2023-10-18T22:03:00.000Z","reihung":false},"departure":{"platform":"2","scheduledTime":"2023-10-18T22:03:00.000Z","time":"2023-10-18T22:03:00.000Z","reihung":false}},{"station":{"evaNumber":"8089028","name":"Berlin Ostkreuz (S)","coordinates":{"lng":13.468861,"lat":52.503305},"ril100":"BOK"},"arrival":{"platform":"12","scheduledTime":"2023-10-18T22:05:00.000Z","time":"2023-10-18T22:05:00.000Z","reihung":false}}],"finalDestination":"Berlin Gesundbrunnen(S)","jid":"1|312862|7|80|18102023","messages":[{"type":"A","code":"FB","prio":260,"icoX":5,"txtN":"Fahrradmitnahme begrenzt möglich"},{"type":"A","code":"K2","prio":300,"icoX":19,"txtN":"nur 2. Klasse"}],"type":"JNY"},{"type":"WALK","train":{"name":"Fußweg","type":"Fußweg"},"arrival":{"scheduledTime":"2023-10-18T22:10:00.000Z","time":"2023-10-18T22:10:00.000Z","reihung":false},"departure":{"scheduledTime":"2023-10-18T22:05:00.000Z","time":"2023-10-18T22:05:00.000Z","reihung":false},"duration":300000,"segmentStart":{"evaNumber":"8089028","name":"Berlin Ostkreuz (S)","coordinates":{"lng":13.468861,"lat":52.503305},"ril100":"BOK"},"segmentDestination":{"evaNumber":"8011162","name":"Berlin Ostkreuz","coordinates":{"lng":13.470497,"lat":52.504689},"ril100":"BOKN"}},{"arrival":{"platform":"11","scheduledTime":"2023-10-18T23:12:00.000Z","time":"2023-10-18T23:12:00.000Z","reihung":false},"departure":{"platform":"1","scheduledTime":"2023-10-18T22:12:00.000Z","time":"2023-10-18T22:12:00.000Z","reihung":false},"duration":3600000,"train":{"name":"RE 1","line":"1","admin":"OWRE","number":"73750","type":"RE","operator":{"name":"Ostdeutsche Eisenbahn GmbH","icoX":9}},"segmentStart":{"name":"Berlin Ostkreuz","evaNumber":"8011162"},"segmentDestination":{"name":"Frankfurt(Oder)","evaNumber":"8010113"},"stops":[{"station":{"evaNumber":"8011162","name":"Berlin Ostkreuz","coordinates":{"lng":13.470497,"lat":52.504689},"ril100":"BOKN"},"departure":{"platform":"1","scheduledTime":"2023-10-18T22:12:00.000Z","time":"2023-10-18T22:12:00.000Z","reihung":false}},{"station":{"evaNumber":"8013477","name":"Erkner","coordinates":{"lng":13.751518,"lat":52.428236},"ril100":"BERK"},"arrival":{"platform":"1","scheduledTime":"2023-10-18T22:26:00.000Z","time":"2023-10-18T22:26:00.000Z","reihung":false},"departure":{"platform":"1","scheduledTime":"2023-10-18T22:27:00.000Z","time":"2023-10-18T22:27:00.000Z","reihung":false}},{"station":{"evaNumber":"8011533","name":"Fangschleuse","coordinates":{"lng":13.82487,"lat":52.406725},"ril100":"BFS"},"arrival":{"platform":"1","scheduledTime":"2023-10-18T22:31:00.000Z","time":"2023-10-18T22:31:00.000Z","reihung":false},"departure":{"platform":"1","scheduledTime":"2023-10-18T22:31:00.000Z","time":"2023-10-18T22:31:00.000Z","reihung":false}},{"station":{"evaNumber":"8011818","name":"Hangelsberg","coordinates":{"lng":13.921342,"lat":52.400181},"ril100":"BHGB"},"arrival":{"platform":"1","scheduledTime":"2023-10-18T22:37:00.000Z","time":"2023-10-18T22:37:00.000Z","reihung":false},"departure":{"platform":"1","scheduledTime":"2023-10-18T22:37:00.000Z","time":"2023-10-18T22:37:00.000Z","reihung":false}},{"station":{"evaNumber":"8010120","name":"Fürstenwalde(Spree)","coordinates":{"lng":14.059974,"lat":52.366741},"ril100":"BFUW"},"arrival":{"platform":"1","scheduledTime":"2023-10-18T22:44:00.000Z","time":"2023-10-18T22:44:00.000Z","reihung":false},"departure":{"platform":"1","scheduledTime":"2023-10-18T22:45:00.000Z","time":"2023-10-18T22:45:00.000Z","reihung":false}},{"station":{"evaNumber":"8011154","name":"Berkenbrück","coordinates":{"lng":14.165103,"lat":52.357212},"ril100":"BBKR"},"arrival":{"platform":"1","scheduledTime":"2023-10-18T22:50:00.000Z","time":"2023-10-18T22:50:00.000Z","reihung":false},"departure":{"platform":"1","scheduledTime":"2023-10-18T22:50:00.000Z","time":"2023-10-18T22:50:00.000Z","reihung":false}},{"station":{"evaNumber":"8011269","name":"Briesen(Mark)","coordinates":{"lng":14.28074,"lat":52.346596},"ril100":"BBSN"},"arrival":{"platform":"1","scheduledTime":"2023-10-18T22:56:00.000Z","time":"2023-10-18T22:56:00.000Z","reihung":false},"departure":{"platform":"1","scheduledTime":"2023-10-18T22:56:00.000Z","time":"2023-10-18T22:56:00.000Z","reihung":false}},{"station":{"evaNumber":"8011940","name":"Jacobsdorf(Mark)","coordinates":{"lng":14.355431,"lat":52.33269},"ril100":"BJF"},"arrival":{"platform":"1","scheduledTime":"2023-10-18T23:00:00.000Z","time":"2023-10-18T23:00:00.000Z","reihung":false},"departure":{"platform":"1","scheduledTime":"2023-10-18T23:00:00.000Z","time":"2023-10-18T23:00:00.000Z","reihung":false}},{"station":{"evaNumber":"8012636","name":"Pillgram","coordinates":{"lng":14.398607,"lat":52.33696},"ril100":"BPIL"},"arrival":{"platform":"1","scheduledTime":"2023-10-18T23:03:00.000Z","time":"2023-10-18T23:03:00.000Z","reihung":false},"departure":{"platform":"1","scheduledTime":"2023-10-18T23:03:00.000Z","time":"2023-10-18T23:03:00.000Z","reihung":false}},{"station":{"evaNumber":"8011559","name":"Frankfurt(Oder)-Rosengarten","coordinates":{"lng":14.473145,"lat":52.337957},"ril100":"BFRS"},"arrival":{"platform":"1","scheduledTime":"2023-10-18T23:07:00.000Z","time":"2023-10-18T23:07:00.000Z","reihung":false},"departure":{"platform":"1","scheduledTime":"2023-10-18T23:07:00.000Z","time":"2023-10-18T23:07:00.000Z","reihung":false}},{"station":{"evaNumber":"8010113","name":"Frankfurt(Oder)","coordinates":{"lng":14.547073,"lat":52.335863},"ril100":"BFP"},"arrival":{"platform":"11","scheduledTime":"2023-10-18T23:12:00.000Z","time":"2023-10-18T23:12:00.000Z","reihung":false}}],"finalDestination":"Frankfurt(Oder)","jid":"1|516284|0|80|18102023","messages":[{"type":"A","code":"FB","prio":260,"icoX":5,"txtN":"Fahrradmitnahme begrenzt möglich"},{"type":"A","code":"GL","prio":330,"icoX":3,"txtN":"Beförderung von Gruppen eingeschränkt"},{"type":"A","code":"RO","prio":560,"icoX":13,"txtN":"Rollstuhlstellplatz"},{"type":"A","code":"EH","prio":560,"icoX":3,"txtN":"Fahrzeuggebundene Einstiegshilfe vorhanden"},{"type":"A","code":"EA","prio":560,"icoX":3,"txtN":"Behindertengerechte Ausstattung"},{"type":"A","code":"LS","prio":605,"icoX":3,"txtN":"Laptop-Steckdosen"},{"type":"A","code":"KL","prio":610,"icoX":3,"txtN":"Klimaanlage"},{"type":"A","code":"WV","prio":710,"icoX":3,"txtN":"WLAN verfügbar"}],"type":"JNY"}],"segmentTypes":["ICE","ICE","ICE","Fußweg","S","Fußweg","RE"]},{"checksum":"d1bf68a0_3","cid":"C-4","date":"2023-10-17T22:00:00.000Z","duration":31680000,"changes":1,"isRideable":true,"arrival":{"platform":"11","scheduledTime":"2023-10-19T00:36:00.000Z","time":"2023-10-19T00:36:00.000Z","reihung":false},"departure":{"platform":"1","scheduledTime":"2023-10-18T15:48:00.000Z","time":"2023-10-18T15:48:00.000Z","reihung":false},"segments":[{"arrival":{"platform":"8","scheduledTime":"2023-10-18T22:36:00.000Z","time":"2023-10-18T22:36:00.000Z","reihung":false},"departure":{"platform":"1","scheduledTime":"2023-10-18T15:48:00.000Z","time":"2023-10-18T15:48:00.000Z","reihung":false},"duration":24480000,"train":{"name":"ICE 376","line":"20","admin":"80","number":"376","type":"ICE","operator":{"name":"DB Fernverkehr AG","icoX":2}},"changeDuration":45,"segmentStart":{"name":"Freiburg(Breisgau) Hbf","evaNumber":"8000107"},"segmentDestination":{"name":"Berlin Hbf (tief)","evaNumber":"8098160"},"stops":[{"station":{"evaNumber":"8000107","name":"Freiburg(Breisgau) Hbf","coordinates":{"lng":7.841344,"lat":47.997974},"ril100":"RF"},"departure":{"platform":"1","scheduledTime":"2023-10-18T15:48:00.000Z","time":"2023-10-18T15:48:00.000Z","reihung":false},"auslastung":{"first":1,"second":1}},{"station":{"evaNumber":"8000774","name":"Baden-Baden","coordinates":{"lng":8.190773,"lat":48.790392},"ril100":"RBB"},"arrival":{"platform":"4","scheduledTime":"2023-10-18T16:31:00.000Z","time":"2023-10-18T16:31:00.000Z","reihung":false},"departure":{"platform":"4","scheduledTime":"2023-10-18T16:32:00.000Z","time":"2023-10-18T16:32:00.000Z","reihung":false},"auslastung":{"first":1,"second":1}},{"station":{"evaNumber":"8000191","name":"Karlsruhe Hbf","coordinates":{"lng":8.401939,"lat":48.99353},"ril100":"RK"},"arrival":{"platform":"3","scheduledTime":"2023-10-18T16:49:00.000Z","time":"2023-10-18T16:49:00.000Z","reihung":false},"departure":{"platform":"3","scheduledTime":"2023-10-18T16:51:00.000Z","time":"2023-10-18T16:51:00.000Z","reihung":false},"auslastung":{"first":1,"second":1}},{"station":{"evaNumber":"8000244","name":"Mannheim Hbf","coordinates":{"lng":8.469268,"lat":49.479181},"ril100":"RM"},"arrival":{"platform":"3","scheduledTime":"2023-10-18T17:14:00.000Z","time":"2023-10-18T17:14:00.000Z","reihung":false},"departure":{"platform":"3","scheduledTime":"2023-10-18T17:16:00.000Z","time":"2023-10-18T17:16:00.000Z","reihung":false},"auslastung":{"first":1,"second":1}},{"station":{"evaNumber":"8000105","name":"Frankfurt(Main)Hbf","coordinates":{"lng":8.663003,"lat":50.106817},"ril100":"FF"},"arrival":{"platform":"8","scheduledTime":"2023-10-18T17:52:00.000Z","time":"2023-10-18T17:52:00.000Z","reihung":false},"departure":{"platform":"8","scheduledTime":"2023-10-18T17:58:00.000Z","time":"2023-10-18T17:58:00.000Z","reihung":false},"auslastung":{"first":1,"second":1}},{"station":{"evaNumber":"8000150","name":"Hanau Hbf","coordinates":{"lng":8.92921,"lat":50.120903},"ril100":"FH"},"arrival":{"platform":"7","scheduledTime":"2023-10-18T18:12:00.000Z","time":"2023-10-18T18:12:00.000Z","reihung":false},"departure":{"platform":"7","scheduledTime":"2023-10-18T18:14:00.000Z","time":"2023-10-18T18:14:00.000Z","reihung":false},"auslastung":{"first":1,"second":1}},{"station":{"evaNumber":"8000115","name":"Fulda","coordinates":{"lng":9.684178,"lat":50.554794},"ril100":"FFU"},"arrival":{"platform":"6","scheduledTime":"2023-10-18T18:58:00.000Z","time":"2023-10-18T18:58:00.000Z","reihung":false},"departure":{"platform":"6","scheduledTime":"2023-10-18T19:08:00.000Z","time":"2023-10-18T19:08:00.000Z","reihung":false},"auslastung":{"first":1,"second":1}},{"station":{"evaNumber":"8000020","name":"Bad Hersfeld","coordinates":{"lng":9.716611,"lat":50.86992},"ril100":"FBHF"},"arrival":{"platform":"3","scheduledTime":"2023-10-18T19:32:00.000Z","time":"2023-10-18T19:32:00.000Z","reihung":false},"departure":{"platform":"3","scheduledTime":"2023-10-18T19:34:00.000Z","time":"2023-10-18T19:34:00.000Z","reihung":false},"auslastung":{"first":1,"second":1}},{"station":{"evaNumber":"8010097","name":"Eisenach","coordinates":{"lng":10.33212,"lat":50.976928},"ril100":"UEI"},"arrival":{"platform":"4","scheduledTime":"2023-10-18T20:04:00.000Z","time":"2023-10-18T20:04:00.000Z","reihung":false},"departure":{"platform":"4","scheduledTime":"2023-10-18T20:06:00.000Z","time":"2023-10-18T20:06:00.000Z","reihung":false},"auslastung":{"first":1,"second":1}},{"station":{"evaNumber":"8010136","name":"Gotha","coordinates":{"lng":10.712688,"lat":50.939029},"ril100":"UGO"},"arrival":{"platform":"3","scheduledTime":"2023-10-18T20:19:00.000Z","time":"2023-10-18T20:19:00.000Z","reihung":false},"departure":{"platform":"3","scheduledTime":"2023-10-18T20:21:00.000Z","time":"2023-10-18T20:21:00.000Z","reihung":false},"auslastung":{"first":1,"second":1}},{"station":{"evaNumber":"8010101","name":"Erfurt Hbf","coordinates":{"lng":11.038502,"lat":50.97255},"ril100":"UE  P"},"arrival":{"platform":"10","scheduledTime":"2023-10-18T20:36:00.000Z","time":"2023-10-18T20:36:00.000Z","reihung":false},"departure":{"platform":"10","scheduledTime":"2023-10-18T20:45:00.000Z","time":"2023-10-18T20:45:00.000Z","reihung":false},"auslastung":{"first":1,"second":1}},{"station":{"evaNumber":"8010159","name":"Halle(Saale)Hbf","coordinates":{"lng":11.98699,"lat":51.477079},"ril100":"LH"},"arrival":{"platform":"7","scheduledTime":"2023-10-18T21:18:00.000Z","time":"2023-10-18T21:18:00.000Z","reihung":false},"departure":{"platform":"7","scheduledTime":"2023-10-18T21:20:00.000Z","time":"2023-10-18T21:20:00.000Z","reihung":false},"auslastung":{"first":1,"second":1}},{"station":{"evaNumber":"8010222","name":"Lutherstadt Wittenberg Hbf","coordinates":{"lng":12.661999,"lat":51.867579},"ril100":"LW"},"arrival":{"platform":"3","scheduledTime":"2023-10-18T21:48:00.000Z","time":"2023-10-18T21:48:00.000Z","reihung":false},"departure":{"platform":"3","scheduledTime":"2023-10-18T21:50:00.000Z","time":"2023-10-18T21:50:00.000Z","reihung":false},"auslastung":{"first":1,"second":1}},{"station":{"evaNumber":"8011113","name":"Berlin Südkreuz","coordinates":{"lng":13.365863,"lat":52.47623},"ril100":"BPAF"},"arrival":{"platform":"5","scheduledTime":"2023-10-18T22:29:00.000Z","time":"2023-10-18T22:29:00.000Z","reihung":false}},{"station":{"evaNumber":"8098160","name":"Berlin Hbf (tief)","coordinates":{"lng":13.368892,"lat":52.52585},"ril100":"BL"},"arrival":{"platform":"8","scheduledTime":"2023-10-18T22:36:00.000Z","time":"2023-10-18T22:36:00.000Z","reihung":false}}],"finalDestination":"Berlin Gesundbrunnen","jid":"1|357607|0|80|18102023","auslastung":{"first":1,"second":1},"messages":[{"type":"A","code":"CK","prio":200,"icoX":3,"txtN":"Sicher & kontaktlos ohne Ticketkontrolle reisen mit Komfort Check-in (Freiburg(Breisgau) Hbf - Berlin Südkreuz)"},{"type":"A","code":"CK","prio":200,"icoX":3,"txtN":"Sicher & kontaktlos ohne Ticketkontrolle reisen mit Komfort Check-in (Berlin Südkreuz - Berlin Hbf (tief))"},{"type":"A","code":"FR","prio":260,"icoX":4,"txtN":"Fahrradmitnahme reservierungspflichtig"},{"type":"A","code":"FB","prio":260,"icoX":5,"txtN":"Fahrradmitnahme begrenzt möglich"},{"type":"A","code":"BR","prio":450,"icoX":6,"txtN":"Bordrestaurant (Freiburg(Breisgau) Hbf - Berlin Südkreuz)"},{"type":"A","code":"BR","prio":450,"icoX":6,"txtN":"Bordrestaurant (Berlin Südkreuz - Berlin Hbf (tief))"},{"type":"A","code":"EH","prio":560,"icoX":3,"txtN":"Fahrzeuggebundene Einstiegshilfe vorhanden"}],"type":"JNY"},{"type":"WALK","train":{"name":"Fußweg","type":"Fußweg"},"arrival":{"scheduledTime":"2023-10-18T22:45:00.000Z","time":"2023-10-18T22:45:00.000Z","reihung":false},"departure":{"scheduledTime":"2023-10-18T22:36:00.000Z","time":"2023-10-18T22:36:00.000Z","reihung":false},"duration":540000,"segmentStart":{"evaNumber":"8098160","name":"Berlin Hbf (tief)","coordinates":{"lng":13.368892,"lat":52.52585},"ril100":"BL"},"segmentDestination":{"evaNumber":"8011160","name":"Berlin Hbf","coordinates":{"lng":13.369629,"lat":52.524924},"ril100":"BLS"}},{"arrival":{"platform":"11","scheduledTime":"2023-10-19T00:36:00.000Z","time":"2023-10-19T00:36:00.000Z","reihung":false},"departure":{"platform":"12","scheduledTime":"2023-10-18T23:21:00.000Z","time":"2023-10-18T23:21:00.000Z","reihung":false},"duration":4500000,"train":{"name":"RE 1","line":"1","admin":"OWRE","number":"73794","type":"RE","operator":{"name":"Ostdeutsche Eisenbahn GmbH","icoX":9}},"segmentStart":{"name":"Berlin Hbf","evaNumber":"8011160"},"segmentDestination":{"name":"Frankfurt(Oder)","evaNumber":"8010113"},"stops":[{"station":{"evaNumber":"8011160","name":"Berlin Hbf","coordinates":{"lng":13.369629,"lat":52.524924},"ril100":"BLS"},"departure":{"platform":"12","scheduledTime":"2023-10-18T23:21:00.000Z","time":"2023-10-18T23:21:00.000Z","reihung":false}},{"station":{"evaNumber":"8011306","name":"Berlin Friedrichstraße","coordinates":{"lng":13.386925,"lat":52.520331},"ril100":"BFRI"},"arrival":{"platform":"2","scheduledTime":"2023-10-18T23:23:00.000Z","time":"2023-10-18T23:23:00.000Z","reihung":false},"departure":{"platform":"2","scheduledTime":"2023-10-18T23:24:00.000Z","time":"2023-10-18T23:24:00.000Z","reihung":false}},{"station":{"evaNumber":"8011155","name":"Berlin Alexanderplatz","coordinates":{"lng":13.411088,"lat":52.521526},"ril100":"BALE"},"arrival":{"platform":"1","scheduledTime":"2023-10-18T23:27:00.000Z","time":"2023-10-18T23:27:00.000Z","reihung":false},"departure":{"platform":"1","scheduledTime":"2023-10-18T23:28:00.000Z","time":"2023-10-18T23:28:00.000Z","reihung":false}},{"station":{"evaNumber":"8010255","name":"Berlin Ostbahnhof","coordinates":{"lng":13.4349,"lat":52.510424},"ril100":"BHF"},"arrival":{"platform":"1","scheduledTime":"2023-10-18T23:31:00.000Z","time":"2023-10-18T23:31:00.000Z","reihung":false},"departure":{"platform":"1","scheduledTime":"2023-10-18T23:32:00.000Z","time":"2023-10-18T23:32:00.000Z","reihung":false}},{"station":{"evaNumber":"8011162","name":"Berlin Ostkreuz","coordinates":{"lng":13.470497,"lat":52.504689},"ril100":"BOKN"},"arrival":{"platform":"1","scheduledTime":"2023-10-18T23:35:00.000Z","time":"2023-10-18T23:35:00.000Z","reihung":false},"departure":{"platform":"1","scheduledTime":"2023-10-18T23:36:00.000Z","time":"2023-10-18T23:36:00.000Z","reihung":false}},{"station":{"evaNumber":"8013477","name":"Erkner","coordinates":{"lng":13.751518,"lat":52.428236},"ril100":"BERK"},"arrival":{"platform":"1","scheduledTime":"2023-10-18T23:50:00.000Z","time":"2023-10-18T23:50:00.000Z","reihung":false},"departure":{"platform":"1","scheduledTime":"2023-10-18T23:51:00.000Z","time":"2023-10-18T23:51:00.000Z","reihung":false}},{"station":{"evaNumber":"8011533","name":"Fangschleuse","coordinates":{"lng":13.82487,"lat":52.406725},"ril100":"BFS"},"arrival":{"platform":"1","scheduledTime":"2023-10-18T23:55:00.000Z","time":"2023-10-18T23:55:00.000Z","reihung":false},"departure":{"platform":"1","scheduledTime":"2023-10-18T23:55:00.000Z","time":"2023-10-18T23:55:00.000Z","reihung":false}},{"station":{"evaNumber":"8011818","name":"Hangelsberg","coordinates":{"lng":13.921342,"lat":52.400181},"ril100":"BHGB"},"arrival":{"platform":"1","scheduledTime":"2023-10-19T00:01:00.000Z","time":"2023-10-19T00:01:00.000Z","reihung":false},"departure":{"platform":"1","scheduledTime":"2023-10-19T00:01:00.000Z","time":"2023-10-19T00:01:00.000Z","reihung":false}},{"station":{"evaNumber":"8010120","name":"Fürstenwalde(Spree)","coordinates":{"lng":14.059974,"lat":52.366741},"ril100":"BFUW"},"arrival":{"platform":"1","scheduledTime":"2023-10-19T00:07:00.000Z","time":"2023-10-19T00:07:00.000Z","reihung":false},"departure":{"platform":"1","scheduledTime":"2023-10-19T00:09:00.000Z","time":"2023-10-19T00:09:00.000Z","reihung":false}},{"station":{"evaNumber":"8011154","name":"Berkenbrück","coordinates":{"lng":14.165103,"lat":52.357212},"ril100":"BBKR"},"arrival":{"platform":"1","scheduledTime":"2023-10-19T00:13:00.000Z","time":"2023-10-19T00:13:00.000Z","reihung":false},"departure":{"platform":"1","scheduledTime":"2023-10-19T00:14:00.000Z","time":"2023-10-19T00:14:00.000Z","reihung":false}},{"station":{"evaNumber":"8011269","name":"Briesen(Mark)","coordinates":{"lng":14.28074,"lat":52.346596},"ril100":"BBSN"},"arrival":{"platform":"1","scheduledTime":"2023-10-19T00:20:00.000Z","time":"2023-10-19T00:20:00.000Z","reihung":false},"departure":{"platform":"1","scheduledTime":"2023-10-19T00:20:00.000Z","time":"2023-10-19T00:20:00.000Z","reihung":false}},{"station":{"evaNumber":"8011940","name":"Jacobsdorf(Mark)","coordinates":{"lng":14.355431,"lat":52.33269},"ril100":"BJF"},"arrival":{"platform":"1","scheduledTime":"2023-10-19T00:24:00.000Z","time":"2023-10-19T00:24:00.000Z","reihung":false},"departure":{"platform":"1","scheduledTime":"2023-10-19T00:24:00.000Z","time":"2023-10-19T00:24:00.000Z","reihung":false}},{"station":{"evaNumber":"8012636","name":"Pillgram","coordinates":{"lng":14.398607,"lat":52.33696},"ril100":"BPIL"},"arrival":{"platform":"1","scheduledTime":"2023-10-19T00:27:00.000Z","time":"2023-10-19T00:27:00.000Z","reihung":false},"departure":{"platform":"1","scheduledTime":"2023-10-19T00:27:00.000Z","time":"2023-10-19T00:27:00.000Z","reihung":false}},{"station":{"evaNumber":"8011559","name":"Frankfurt(Oder)-Rosengarten","coordinates":{"lng":14.473145,"lat":52.337957},"ril100":"BFRS"},"arrival":{"platform":"1","scheduledTime":"2023-10-19T00:31:00.000Z","time":"2023-10-19T00:31:00.000Z","reihung":false},"departure":{"platform":"1","scheduledTime":"2023-10-19T00:31:00.000Z","time":"2023-10-19T00:31:00.000Z","reihung":false}},{"station":{"evaNumber":"8010113","name":"Frankfurt(Oder)","coordinates":{"lng":14.547073,"lat":52.335863},"ril100":"BFP"},"arrival":{"platform":"11","scheduledTime":"2023-10-19T00:36:00.000Z","time":"2023-10-19T00:36:00.000Z","reihung":false}}],"finalDestination":"Frankfurt(Oder)","jid":"1|516532|0|80|18102023","messages":[{"type":"A","code":"FB","prio":260,"icoX":5,"txtN":"Fahrradmitnahme begrenzt möglich"},{"type":"A","code":"GL","prio":330,"icoX":3,"txtN":"Beförderung von Gruppen eingeschränkt"},{"type":"A","code":"RO","prio":560,"icoX":13,"txtN":"Rollstuhlstellplatz"},{"type":"A","code":"EH","prio":560,"icoX":3,"txtN":"Fahrzeuggebundene Einstiegshilfe vorhanden"},{"type":"A","code":"EA","prio":560,"icoX":3,"txtN":"Behindertengerechte Ausstattung"},{"type":"A","code":"LS","prio":605,"icoX":3,"txtN":"Laptop-Steckdosen"},{"type":"A","code":"KL","prio":610,"icoX":3,"txtN":"Klimaanlage"},{"type":"A","code":"WV","prio":710,"icoX":3,"txtN":"WLAN verfügbar"}],"type":"JNY"}],"segmentTypes":["ICE","Fußweg","RE"]},{"checksum":"6696278c_3","cid":"C-5","date":"2023-10-17T22:00:00.000Z","duration":42660000,"changes":2,"isRideable":true,"arrival":{"platform":"11","scheduledTime":"2023-10-19T04:46:00.000Z","time":"2023-10-19T04:46:00.000Z","reihung":false},"departure":{"platform":"1","scheduledTime":"2023-10-18T16:55:00.000Z","time":"2023-10-18T16:55:00.000Z","reihung":false},"segments":[{"arrival":{"platform":"8","scheduledTime":"2023-10-18T22:59:00.000Z","time":"2023-10-18T22:59:00.000Z","reihung":false},"departure":{"platform":"1","scheduledTime":"2023-10-18T16:55:00.000Z","time":"2023-10-18T16:55:00.000Z","reihung":false},"duration":21840000,"train":{"name":"ICE 272","line":"12","admin":"80","number":"272","type":"ICE","operator":{"name":"DB Fernverkehr AG","icoX":2}},"changeDuration":101,"segmentStart":{"name":"Freiburg(Breisgau) Hbf","evaNumber":"8000107"},"segmentDestination":{"name":"Hannover Hbf","evaNumber":"8000152"},"stops":[{"station":{"evaNumber":"8000107","name":"Freiburg(Breisgau) Hbf","coordinates":{"lng":7.841344,"lat":47.997974},"ril100":"RF"},"departure":{"platform":"1","scheduledTime":"2023-10-18T16:55:00.000Z","time":"2023-10-18T16:55:00.000Z","reihung":false},"auslastung":{"first":1,"second":1}},{"station":{"evaNumber":"8000290","name":"Offenburg","coordinates":{"lng":7.94677,"lat":48.476506},"ril100":"RO"},"arrival":{"platform":"3","scheduledTime":"2023-10-18T17:26:00.000Z","time":"2023-10-18T17:26:00.000Z","reihung":false},"departure":{"platform":"3","scheduledTime":"2023-10-18T17:27:00.000Z","time":"2023-10-18T17:27:00.000Z","reihung":false},"auslastung":{"first":1,"second":1}},{"station":{"evaNumber":"8000191","name":"Karlsruhe Hbf","coordinates":{"lng":8.401939,"lat":48.99353},"ril100":"RK"},"arrival":{"platform":"3","scheduledTime":"2023-10-18T17:58:00.000Z","time":"2023-10-18T17:58:00.000Z","reihung":false},"departure":{"platform":"3","scheduledTime":"2023-10-18T18:00:00.000Z","time":"2023-10-18T18:00:00.000Z","reihung":false},"auslastung":{"first":1,"second":1}},{"station":{"evaNumber":"8000244","name":"Mannheim Hbf","coordinates":{"lng":8.469268,"lat":49.479181},"ril100":"RM"},"arrival":{"platform":"2","scheduledTime":"2023-10-18T18:24:00.000Z","time":"2023-10-18T18:24:00.000Z","reihung":false},"departure":{"platform":"2","scheduledTime":"2023-10-18T18:32:00.000Z","time":"2023-10-18T18:32:00.000Z","reihung":false},"auslastung":{"first":1,"second":1}},{"station":{"evaNumber":"8000105","name":"Frankfurt(Main)Hbf","coordinates":{"lng":8.663003,"lat":50.106817},"ril100":"FF"},"arrival":{"platform":"8","scheduledTime":"2023-10-18T19:08:00.000Z","time":"2023-10-18T19:08:00.000Z","reihung":false},"departure":{"platform":"8","scheduledTime":"2023-10-18T19:14:00.000Z","time":"2023-10-18T19:14:00.000Z","reihung":false},"auslastung":{"first":1,"second":1}},{"station":{"evaNumber":"8000150","name":"Hanau Hbf","coordinates":{"lng":8.92921,"lat":50.120903},"ril100":"FH"},"arrival":{"platform":"7","scheduledTime":"2023-10-18T19:28:00.000Z","time":"2023-10-18T19:28:00.000Z","reihung":false},"departure":{"platform":"7","scheduledTime":"2023-10-18T19:30:00.000Z","time":"2023-10-18T19:30:00.000Z","reihung":false},"auslastung":{"first":1,"second":1}},{"station":{"evaNumber":"8000115","name":"Fulda","coordinates":{"lng":9.684178,"lat":50.554794},"ril100":"FFU"},"arrival":{"platform":"6","scheduledTime":"2023-10-18T20:10:00.000Z","time":"2023-10-18T20:10:00.000Z","reihung":false},"departure":{"platform":"6","scheduledTime":"2023-10-18T20:12:00.000Z","time":"2023-10-18T20:12:00.000Z","reihung":false},"auslastung":{"first":1,"second":1}},{"station":{"evaNumber":"8003200","name":"Kassel-Wilhelmshöhe","coordinates":{"lng":9.446845,"lat":51.312998},"ril100":"FKW"},"arrival":{"platform":"3","scheduledTime":"2023-10-18T21:19:00.000Z","time":"2023-10-18T21:19:00.000Z","reihung":false},"departure":{"platform":"3","scheduledTime":"2023-10-18T21:21:00.000Z","time":"2023-10-18T21:21:00.000Z","reihung":false},"auslastung":{"first":1,"second":1}},{"station":{"evaNumber":"8000128","name":"Göttingen","coordinates":{"lng":9.926257,"lat":51.536758},"ril100":"HG"},"arrival":{"platform":"9","scheduledTime":"2023-10-18T21:40:00.000Z","time":"2023-10-18T21:40:00.000Z","reihung":false},"departure":{"platform":"9","scheduledTime":"2023-10-18T21:43:00.000Z","time":"2023-10-18T21:43:00.000Z","reihung":false},"auslastung":{"first":1,"second":1}},{"station":{"evaNumber":"8000152","name":"Hannover Hbf","coordinates":{"lng":9.741763,"lat":52.377079},"ril100":"HH"},"arrival":{"platform":"8","scheduledTime":"2023-10-18T22:59:00.000Z","time":"2023-10-18T22:59:00.000Z","reihung":false}}],"finalDestination":"Hamburg-Altona","jid":"1|355965|0|80|18102023","auslastung":{"first":1,"second":1},"messages":[{"type":"A","code":"CK","prio":200,"icoX":3,"txtN":"Sicher & kontaktlos ohne Ticketkontrolle reisen mit Komfort Check-in"},{"type":"A","code":"FR","prio":260,"icoX":4,"txtN":"Fahrradmitnahme reservierungspflichtig"},{"type":"A","code":"FB","prio":260,"icoX":5,"txtN":"Fahrradmitnahme begrenzt möglich"},{"type":"A","code":"EH","prio":560,"icoX":3,"txtN":"Fahrzeuggebundene Einstiegshilfe vorhanden"}],"type":"JNY"},{"arrival":{"platform":"2","scheduledTime":"2023-10-19T03:48:00.000Z","time":"2023-10-19T03:48:00.000Z","reihung":false},"departure":{"platform":"9 D-G","scheduledTime":"2023-10-19T00:40:00.000Z","time":"2023-10-19T00:40:00.000Z","reihung":false},"duration":11280000,"train":{"name":"ICE 949","line":"10","admin":"80","number":"949","type":"ICE","operator":{"name":"DB Fernverkehr AG","icoX":2}},"changeDuration":13,"segmentStart":{"name":"Hannover Hbf","evaNumber":"8000152"},"segmentDestination":{"name":"Berlin Ostbahnhof","evaNumber":"8010255"},"stops":[{"station":{"evaNumber":"8000152","name":"Hannover Hbf","coordinates":{"lng":9.741763,"lat":52.377079},"ril100":"HH"},"departure":{"platform":"9 D-G","scheduledTime":"2023-10-19T00:40:00.000Z","time":"2023-10-19T00:40:00.000Z","reihung":false},"auslastung":{"first":1,"second":2}},{"station":{"evaNumber":"8000049","name":"Braunschweig Hbf","coordinates":{"lng":10.540436,"lat":52.252128},"ril100":"HBS"},"arrival":{"platform":"7","scheduledTime":"2023-10-19T01:14:00.000Z","time":"2023-10-19T01:14:00.000Z","reihung":false},"departure":{"platform":"7","scheduledTime":"2023-10-19T01:16:00.000Z","time":"2023-10-19T01:16:00.000Z","reihung":false},"auslastung":{"first":1,"second":1}},{"station":{"evaNumber":"8010224","name":"Magdeburg Hbf","coordinates":{"lng":11.6269,"lat":52.130495},"ril100":"LM"},"arrival":{"platform":"7","scheduledTime":"2023-10-19T02:02:00.000Z","time":"2023-10-19T02:02:00.000Z","reihung":false},"departure":{"platform":"7","scheduledTime":"2023-10-19T02:04:00.000Z","time":"2023-10-19T02:04:00.000Z","reihung":false},"auslastung":{"first":1,"second":2}},{"station":{"evaNumber":"8010060","name":"Brandenburg Hbf","coordinates":{"lng":12.566416,"lat":52.400756},"ril100":"LB"},"arrival":{"platform":"3","scheduledTime":"2023-10-19T02:45:00.000Z","time":"2023-10-19T02:45:00.000Z","reihung":false},"departure":{"platform":"3","scheduledTime":"2023-10-19T02:47:00.000Z","time":"2023-10-19T02:47:00.000Z","reihung":false},"auslastung":{"first":1,"second":1}},{"station":{"evaNumber":"8012666","name":"Potsdam Hbf","coordinates":{"lng":13.066711,"lat":52.391551},"ril100":"BPD"},"arrival":{"platform":"4","scheduledTime":"2023-10-19T03:04:00.000Z","time":"2023-10-19T03:04:00.000Z","reihung":false},"auslastung":{"first":1,"second":1}},{"station":{"evaNumber":"8010405","name":"Berlin-Wannsee","coordinates":{"lng":13.179696,"lat":52.420955},"ril100":"BWS"},"arrival":{"platform":"5","scheduledTime":"2023-10-19T03:13:00.000Z","time":"2023-10-19T03:13:00.000Z","reihung":false}},{"station":{"evaNumber":"8010406","name":"Berlin Zoologischer Garten","coordinates":{"lng":13.332414,"lat":52.507242},"ril100":"BZOO"},"arrival":{"platform":"2","scheduledTime":"2023-10-19T03:28:00.000Z","time":"2023-10-19T03:28:00.000Z","reihung":false}},{"station":{"evaNumber":"8011160","name":"Berlin Hbf","coordinates":{"lng":13.369629,"lat":52.524924},"ril100":"BLS"},"arrival":{"platform":"12","scheduledTime":"2023-10-19T03:35:00.000Z","time":"2023-10-19T03:35:00.000Z","reihung":false}},{"station":{"evaNumber":"8010255","name":"Berlin Ostbahnhof","coordinates":{"lng":13.4349,"lat":52.510424},"ril100":"BHF"},"arrival":{"platform":"2","scheduledTime":"2023-10-19T03:48:00.000Z","time":"2023-10-19T03:48:00.000Z","reihung":false}}],"finalDestination":"Berlin Ostbahnhof","jid":"1|212839|0|80|18102023","auslastung":{"first":1,"second":2},"messages":[{"type":"A","code":"CK","prio":200,"icoX":3,"txtN":"Sicher & kontaktlos ohne Ticketkontrolle reisen mit Komfort Check-in"},{"type":"A","code":"KG","prio":640,"icoX":3,"txtN":"Ohne gastronomisches Angebot"},{"type":"M","code":"","icoX":22,"txtS":"ICE 949, EC 41: Berlin Ostbahnhof: Bauarbeiten.","txtN":"Kein Mobilitätsservice für Rollstuhlfahrer auf den Gleisen 1 - 7 (Regional- und Fernbahn) möglich. Mobilitätseingeschränkte Reisende wenden sich bzgl. eventuell erforderlicher Umbuchungen an unsere Mobilitätsservice-Zentrale unter 030 65212888.","sIdx":1}],"type":"JNY"},{"arrival":{"platform":"11","scheduledTime":"2023-10-19T04:46:00.000Z","time":"2023-10-19T04:46:00.000Z","reihung":false},"departure":{"platform":"2","scheduledTime":"2023-10-19T04:01:00.000Z","time":"2023-10-19T04:01:00.000Z","reihung":false},"duration":2700000,"train":{"name":"EC 41","line":"95","admin":"80","number":"41","type":"EC","operator":{"name":"DB Fernverkehr AG","icoX":2}},"segmentStart":{"name":"Berlin Ostbahnhof","evaNumber":"8010255"},"segmentDestination":{"name":"Frankfurt(Oder)","evaNumber":"8010113"},"stops":[{"station":{"evaNumber":"8010255","name":"Berlin Ostbahnhof","coordinates":{"lng":13.4349,"lat":52.510424},"ril100":"BHF"},"departure":{"platform":"2","scheduledTime":"2023-10-19T04:01:00.000Z","time":"2023-10-19T04:01:00.000Z","reihung":false}},{"station":{"evaNumber":"8011162","name":"Berlin Ostkreuz","coordinates":{"lng":13.470497,"lat":52.504689},"ril100":"BOKN"},"departure":{"platform":"1","scheduledTime":"2023-10-19T04:06:00.000Z","time":"2023-10-19T04:06:00.000Z","reihung":false}},{"station":{"evaNumber":"8010113","name":"Frankfurt(Oder)","coordinates":{"lng":14.547073,"lat":52.335863},"ril100":"BFP"},"arrival":{"platform":"11","scheduledTime":"2023-10-19T04:46:00.000Z","time":"2023-10-19T04:46:00.000Z","reihung":false}}],"finalDestination":"Warszawa Wschodnia","jid":"1|359162|0|80|19102023","type":"JNY"}],"segmentTypes":["ICE","ICE","EC"]},{"checksum":"6726d1a6_3","cid":"C-6","date":"2023-10-17T22:00:00.000Z","duration":39120000,"changes":2,"isRideable":true,"arrival":{"platform":"11","scheduledTime":"2023-10-19T04:46:00.000Z","time":"2023-10-19T04:46:00.000Z","reihung":false},"departure":{"platform":"1","scheduledTime":"2023-10-18T17:54:00.000Z","time":"2023-10-18T17:54:00.000Z","reihung":false},"segments":[{"arrival":{"platform":"10","scheduledTime":"2023-10-18T22:24:00.000Z","time":"2023-10-18T22:24:00.000Z","reihung":false},"departure":{"platform":"1","scheduledTime":"2023-10-18T17:54:00.000Z","time":"2023-10-18T17:54:00.000Z","reihung":false},"duration":16200000,"train":{"name":"ICE 100","line":"43","admin":"80","number":"100","type":"ICE","operator":{"name":"DB Fernverkehr AG","icoX":2}},"changeDuration":9,"segmentStart":{"name":"Freiburg(Breisgau) Hbf","evaNumber":"8000107"},"segmentDestination":{"name":"Dortmund Hbf","evaNumber":"8000080"},"stops":[{"station":{"evaNumber":"8000107","name":"Freiburg(Breisgau) Hbf","coordinates":{"lng":7.841344,"lat":47.997974},"ril100":"RF"},"departure":{"platform":"1","scheduledTime":"2023-10-18T17:54:00.000Z","time":"2023-10-18T17:54:00.000Z","reihung":false},"auslastung":{"first":1,"second":1}},{"station":{"evaNumber":"8000290","name":"Offenburg","coordinates":{"lng":7.94677,"lat":48.476506},"ril100":"RO"},"arrival":{"platform":"3","scheduledTime":"2023-10-18T18:23:00.000Z","time":"2023-10-18T18:23:00.000Z","reihung":false},"departure":{"platform":"3","scheduledTime":"2023-10-18T18:25:00.000Z","time":"2023-10-18T18:25:00.000Z","reihung":false},"auslastung":{"first":1,"second":1}},{"station":{"evaNumber":"8000774","name":"Baden-Baden","coordinates":{"lng":8.190773,"lat":48.790392},"ril100":"RBB"},"arrival":{"platform":"4","scheduledTime":"2023-10-18T18:40:00.000Z","time":"2023-10-18T18:40:00.000Z","reihung":false},"departure":{"platform":"4","scheduledTime":"2023-10-18T18:41:00.000Z","time":"2023-10-18T18:41:00.000Z","reihung":false},"auslastung":{"first":1,"second":1}},{"station":{"evaNumber":"8000191","name":"Karlsruhe Hbf","coordinates":{"lng":8.401939,"lat":48.99353},"ril100":"RK"},"arrival":{"platform":"3","scheduledTime":"2023-10-18T18:58:00.000Z","time":"2023-10-18T18:58:00.000Z","reihung":false},"departure":{"platform":"3","scheduledTime":"2023-10-18T19:00:00.000Z","time":"2023-10-18T19:00:00.000Z","reihung":false},"auslastung":{"first":1,"second":1}},{"station":{"evaNumber":"8000244","name":"Mannheim Hbf","coordinates":{"lng":8.469268,"lat":49.479181},"ril100":"RM"},"arrival":{"platform":"3","scheduledTime":"2023-10-18T19:24:00.000Z","time":"2023-10-18T19:24:00.000Z","reihung":false},"departure":{"platform":"3","scheduledTime":"2023-10-18T19:36:00.000Z","time":"2023-10-18T19:36:00.000Z","reihung":false},"auslastung":{"first":1,"second":1}},{"station":{"evaNumber":"8070003","name":"Frankfurt(M) Flughafen Fernbf","coordinates":{"lng":8.569776,"lat":50.052926},"ril100":"FFLF"},"arrival":{"platform":"Fern 6","scheduledTime":"2023-10-18T20:06:00.000Z","time":"2023-10-18T20:06:00.000Z","reihung":false},"departure":{"platform":"Fern 6","scheduledTime":"2023-10-18T20:07:00.000Z","time":"2023-10-18T20:07:00.000Z","reihung":false},"auslastung":{"first":1,"second":1}},{"station":{"evaNumber":"8005556","name":"Siegburg/Bonn","coordinates":{"lng":7.202616,"lat":50.794051},"ril100":"KSIB"},"arrival":{"platform":"3","scheduledTime":"2023-10-18T20:50:00.000Z","time":"2023-10-18T20:50:00.000Z","reihung":false},"departure":{"platform":"3","scheduledTime":"2023-10-18T20:51:00.000Z","time":"2023-10-18T20:51:00.000Z","reihung":false},"auslastung":{"first":1,"second":1}},{"station":{"evaNumber":"8000207","name":"Köln Hbf","coordinates":{"lng":6.959197,"lat":50.942823},"ril100":"KK"},"arrival":{"platform":"4","scheduledTime":"2023-10-18T21:07:00.000Z","time":"2023-10-18T21:07:00.000Z","reihung":false},"departure":{"platform":"4","scheduledTime":"2023-10-18T21:13:00.000Z","time":"2023-10-18T21:13:00.000Z","reihung":false},"auslastung":{"first":1,"second":1}},{"station":{"evaNumber":"8000087","name":"Solingen Hbf","coordinates":{"lng":7.004287,"lat":51.160784},"ril100":"KSO"},"arrival":{"platform":"3","scheduledTime":"2023-10-18T21:31:00.000Z","time":"2023-10-18T21:31:00.000Z","reihung":false},"departure":{"platform":"3","scheduledTime":"2023-10-18T21:32:00.000Z","time":"2023-10-18T21:32:00.000Z","reihung":false},"auslastung":{"first":1,"second":1}},{"station":{"evaNumber":"8000266","name":"Wuppertal Hbf","coordinates":{"lng":7.150155,"lat":51.254443},"ril100":"KW"},"arrival":{"platform":"2","scheduledTime":"2023-10-18T21:44:00.000Z","time":"2023-10-18T21:44:00.000Z","reihung":false},"departure":{"platform":"2","scheduledTime":"2023-10-18T21:46:00.000Z","time":"2023-10-18T21:46:00.000Z","reihung":false},"auslastung":{"first":1,"second":1}},{"station":{"evaNumber":"8000142","name":"Hagen Hbf","coordinates":{"lng":7.460391,"lat":51.362727},"ril100":"EHG"},"arrival":{"platform":"5/6","scheduledTime":"2023-10-18T22:01:00.000Z","time":"2023-10-18T22:01:00.000Z","reihung":false},"departure":{"platform":"5/6","scheduledTime":"2023-10-18T22:03:00.000Z","time":"2023-10-18T22:03:00.000Z","reihung":false},"auslastung":{"first":1,"second":1}},{"station":{"evaNumber":"8000080","name":"Dortmund Hbf","coordinates":{"lng":7.459276,"lat":51.517872},"ril100":"EDO"},"arrival":{"platform":"10","scheduledTime":"2023-10-18T22:24:00.000Z","time":"2023-10-18T22:24:00.000Z","reihung":false}}],"finalDestination":"Dortmund Hbf","jid":"1|195084|0|80|18102023","auslastung":{"first":1,"second":1},"messages":[{"type":"A","code":"CK","prio":200,"icoX":3,"txtN":"Sicher & kontaktlos ohne Ticketkontrolle reisen mit Komfort Check-in"},{"type":"A","code":"FR","prio":260,"icoX":4,"txtN":"Fahrradmitnahme reservierungspflichtig"},{"type":"A","code":"FB","prio":260,"icoX":5,"txtN":"Fahrradmitnahme begrenzt möglich"},{"type":"A","code":"EH","prio":560,"icoX":3,"txtN":"Fahrzeuggebundene Einstiegshilfe vorhanden"}],"type":"JNY"},{"arrival":{"platform":"2","scheduledTime":"2023-10-19T03:48:00.000Z","time":"2023-10-19T03:48:00.000Z","reihung":false},"departure":{"platform":"8","scheduledTime":"2023-10-18T22:33:00.000Z","time":"2023-10-18T22:33:00.000Z","reihung":false},"duration":18900000,"train":{"name":"ICE 949","line":"10","admin":"80","number":"949","type":"ICE","operator":{"name":"DB Fernverkehr AG","icoX":2}},"changeDuration":13,"segmentStart":{"name":"Dortmund Hbf","evaNumber":"8000080"},"segmentDestination":{"name":"Berlin Ostbahnhof","evaNumber":"8010255"},"stops":[{"station":{"evaNumber":"8000080","name":"Dortmund Hbf","coordinates":{"lng":7.459276,"lat":51.517872},"ril100":"EDO"},"departure":{"platform":"8","scheduledTime":"2023-10-18T22:33:00.000Z","time":"2023-10-18T22:33:00.000Z","reihung":false},"auslastung":{"first":1,"second":1}},{"station":{"evaNumber":"8000149","name":"Hamm(Westf)Hbf","coordinates":{"lng":7.80777,"lat":51.678131},"ril100":"EHM"},"arrival":{"platform":"9","scheduledTime":"2023-10-18T22:48:00.000Z","time":"2023-10-18T22:48:00.000Z","reihung":false},"departure":{"platform":"9","scheduledTime":"2023-10-18T22:50:00.000Z","time":"2023-10-18T22:50:00.000Z","reihung":false},"auslastung":{"first":1,"second":2}},{"station":{"evaNumber":"8002461","name":"Gütersloh Hbf","coordinates":{"lng":8.385129,"lat":51.906862},"ril100":"EGLO"},"arrival":{"platform":"3","scheduledTime":"2023-10-18T23:09:00.000Z","time":"2023-10-18T23:09:00.000Z","reihung":false},"departure":{"platform":"3","scheduledTime":"2023-10-18T23:10:00.000Z","time":"2023-10-18T23:10:00.000Z","reihung":false},"auslastung":{"first":1,"second":2}},{"station":{"evaNumber":"8000036","name":"Bielefeld Hbf","coordinates":{"lng":8.532777,"lat":52.029421},"ril100":"EBILP"},"arrival":{"platform":"2","scheduledTime":"2023-10-18T23:22:00.000Z","time":"2023-10-18T23:22:00.000Z","reihung":false},"departure":{"platform":"2","scheduledTime":"2023-10-18T23:24:00.000Z","time":"2023-10-18T23:24:00.000Z","reihung":false},"auslastung":{"first":1,"second":2}},{"station":{"evaNumber":"8000252","name":"Minden(Westf)","coordinates":{"lng":8.934442,"lat":52.290566},"ril100":"HM"},"arrival":{"platform":"13","scheduledTime":"2023-10-18T23:50:00.000Z","time":"2023-10-18T23:50:00.000Z","reihung":false},"departure":{"platform":"13","scheduledTime":"2023-10-18T23:51:00.000Z","time":"2023-10-18T23:51:00.000Z","reihung":false},"auslastung":{"first":1,"second":2}},{"station":{"evaNumber":"8000152","name":"Hannover Hbf","coordinates":{"lng":9.741763,"lat":52.377079},"ril100":"HH"},"arrival":{"platform":"9 D-G","scheduledTime":"2023-10-19T00:23:00.000Z","time":"2023-10-19T00:23:00.000Z","reihung":false},"departure":{"platform":"9 D-G","scheduledTime":"2023-10-19T00:40:00.000Z","time":"2023-10-19T00:40:00.000Z","reihung":false},"auslastung":{"first":1,"second":2}},{"station":{"evaNumber":"8000049","name":"Braunschweig Hbf","coordinates":{"lng":10.540436,"lat":52.252128},"ril100":"HBS"},"arrival":{"platform":"7","scheduledTime":"2023-10-19T01:14:00.000Z","time":"2023-10-19T01:14:00.000Z","reihung":false},"departure":{"platform":"7","scheduledTime":"2023-10-19T01:16:00.000Z","time":"2023-10-19T01:16:00.000Z","reihung":false},"auslastung":{"first":1,"second":1}},{"station":{"evaNumber":"8010224","name":"Magdeburg Hbf","coordinates":{"lng":11.6269,"lat":52.130495},"ril100":"LM"},"arrival":{"platform":"7","scheduledTime":"2023-10-19T02:02:00.000Z","time":"2023-10-19T02:02:00.000Z","reihung":false},"departure":{"platform":"7","scheduledTime":"2023-10-19T02:04:00.000Z","time":"2023-10-19T02:04:00.000Z","reihung":false},"auslastung":{"first":1,"second":2}},{"station":{"evaNumber":"8010060","name":"Brandenburg Hbf","coordinates":{"lng":12.566416,"lat":52.400756},"ril100":"LB"},"arrival":{"platform":"3","scheduledTime":"2023-10-19T02:45:00.000Z","time":"2023-10-19T02:45:00.000Z","reihung":false},"departure":{"platform":"3","scheduledTime":"2023-10-19T02:47:00.000Z","time":"2023-10-19T02:47:00.000Z","reihung":false},"auslastung":{"first":1,"second":1}},{"station":{"evaNumber":"8012666","name":"Potsdam Hbf","coordinates":{"lng":13.066711,"lat":52.391551},"ril100":"BPD"},"arrival":{"platform":"4","scheduledTime":"2023-10-19T03:04:00.000Z","time":"2023-10-19T03:04:00.000Z","reihung":false},"auslastung":{"first":1,"second":1}},{"station":{"evaNumber":"8010405","name":"Berlin-Wannsee","coordinates":{"lng":13.179696,"lat":52.420955},"ril100":"BWS"},"arrival":{"platform":"5","scheduledTime":"2023-10-19T03:13:00.000Z","time":"2023-10-19T03:13:00.000Z","reihung":false}},{"station":{"evaNumber":"8010406","name":"Berlin Zoologischer Garten","coordinates":{"lng":13.332414,"lat":52.507242},"ril100":"BZOO"},"arrival":{"platform":"2","scheduledTime":"2023-10-19T03:28:00.000Z","time":"2023-10-19T03:28:00.000Z","reihung":false}},{"station":{"evaNumber":"8011160","name":"Berlin Hbf","coordinates":{"lng":13.369629,"lat":52.524924},"ril100":"BLS"},"arrival":{"platform":"12","scheduledTime":"2023-10-19T03:35:00.000Z","time":"2023-10-19T03:35:00.000Z","reihung":false}},{"station":{"evaNumber":"8010255","name":"Berlin Ostbahnhof","coordinates":{"lng":13.4349,"lat":52.510424},"ril100":"BHF"},"arrival":{"platform":"2","scheduledTime":"2023-10-19T03:48:00.000Z","time":"2023-10-19T03:48:00.000Z","reihung":false}}],"finalDestination":"Berlin Ostbahnhof","jid":"1|212839|0|80|18102023","auslastung":{"first":1,"second":2},"messages":[{"type":"A","code":"CK","prio":200,"icoX":3,"txtN":"Sicher & kontaktlos ohne Ticketkontrolle reisen mit Komfort Check-in"},{"type":"A","code":"KG","prio":640,"icoX":3,"txtN":"Ohne gastronomisches Angebot"},{"type":"M","code":"","icoX":22,"txtS":"ICE 949, EC 41: Berlin Ostbahnhof: Bauarbeiten.","txtN":"Kein Mobilitätsservice für Rollstuhlfahrer auf den Gleisen 1 - 7 (Regional- und Fernbahn) möglich. Mobilitätseingeschränkte Reisende wenden sich bzgl. eventuell erforderlicher Umbuchungen an unsere Mobilitätsservice-Zentrale unter 030 65212888.","sIdx":1}],"type":"JNY"},{"arrival":{"platform":"11","scheduledTime":"2023-10-19T04:46:00.000Z","time":"2023-10-19T04:46:00.000Z","reihung":false},"departure":{"platform":"2","scheduledTime":"2023-10-19T04:01:00.000Z","time":"2023-10-19T04:01:00.000Z","reihung":false},"duration":2700000,"train":{"name":"EC 41","line":"95","admin":"80","number":"41","type":"EC","operator":{"name":"DB Fernverkehr AG","icoX":2}},"segmentStart":{"name":"Berlin Ostbahnhof","evaNumber":"8010255"},"segmentDestination":{"name":"Frankfurt(Oder)","evaNumber":"8010113"},"stops":[{"station":{"evaNumber":"8010255","name":"Berlin Ostbahnhof","coordinates":{"lng":13.4349,"lat":52.510424},"ril100":"BHF"},"departure":{"platform":"2","scheduledTime":"2023-10-19T04:01:00.000Z","time":"2023-10-19T04:01:00.000Z","reihung":false}},{"station":{"evaNumber":"8011162","name":"Berlin Ostkreuz","coordinates":{"lng":13.470497,"lat":52.504689},"ril100":"BOKN"},"departure":{"platform":"1","scheduledTime":"2023-10-19T04:06:00.000Z","time":"2023-10-19T04:06:00.000Z","reihung":false}},{"station":{"evaNumber":"8010113","name":"Frankfurt(Oder)","coordinates":{"lng":14.547073,"lat":52.335863},"ril100":"BFP"},"arrival":{"platform":"11","scheduledTime":"2023-10-19T04:46:00.000Z","time":"2023-10-19T04:46:00.000Z","reihung":false}}],"finalDestination":"Warszawa Wschodnia","jid":"1|359162|0|80|19102023","type":"JNY"}],"segmentTypes":["ICE","ICE","EC"]}]}