{"context":{"earlier":"3|OB|MT#14#451606#451580#451738#451738#0#0#485#451576#1#0#227#0#0#-2147483648#1#2|PDH#bbe10b32f5270e429a5a473728022d1b|RD#18102023|RT#141653|US#0|RS#INIT","later":"3|OF|MT#14#451666#451666#451773#451773#0#0#485#451631#7#0#1051#0#0#-2147483648#1#2|PDH#bbe10b32f5270e429a5a473728022d1b|RD#18102023|RT#141653|US#0|RS#INIT"},"routes":[{"checksum":"0df85103_3","cid":"C-0","date":"2023-10-17T22:00:00.000Z","duration":9480000,"changes":1,"isRideable":true,"arrival":{"platform":"3","scheduledTime":"2023-10-18T14:58:00.000Z","time":"2023-10-18T14:58:00.000Z","reihung":false},"departure":{"platform":"2","scheduledTime":"2023-10-18T12:20:00.000Z","time":"2023-10-18T12:20:00.000Z","reihung":false},"segments":[{"arrival":{"platform":"10","scheduledTime":"2023-10-18T13:48:00.000Z","time":"2023-10-18T13:48:00.000Z","reihung":false},"departure":{"platform":"2","scheduledTime":"2023-10-18T12:20:00.000Z","time":"2023-10-18T12:20:00.000Z","reihung":false},"duration":5280000,"train":{"name":"RB 68","line":"68","admin":"800574","number":"15320","type":"RB","operator":{"name":"DB Regio AG Mitte","icoX":2}},"changeDuration":13,"segmentStart":{"name":"Heidelberg Hbf","evaNumber":"8000156"},"segmentDestination":{"name":"Frankfurt(Main)Hbf","evaNumber":"8000105"},"stops":[{"station":{"evaNumber":"8000156","name":"Heidelberg Hbf","coordinates":{"lng":8.67548,"lat":49.403582},"ril100":"RH"},"departure":{"platform":"2","scheduledTime":"2023-10-18T12:20:00.000Z","time":"2023-10-18T12:20:00.000Z","reihung":false}},{"station":{"evaNumber":"8002687","name":"Heidelberg-Pfaffengrund/Wieblingen","coordinates":{"lng":8.641474,"lat":49.411969},"ril100":"RHBP"},"arrival":{"platform":"1","scheduledTime":"2023-10-18T12:23:00.000Z","time":"2023-10-18T12:23:00.000Z","reihung":false},"departure":{"platform":"1","scheduledTime":"2023-10-18T12:23:00.000Z","time":"2023-10-18T12:23:00.000Z","reihung":false}},{"station":{"evaNumber":"8000631","name":"Neu-Edingen/Friedrichsfeld","coordinates":{"lng":8.579934,"lat":49.44842},"ril100":"RMF"},"arrival":{"platform":"1","scheduledTime":"2023-10-18T12:29:00.000Z","time":"2023-10-18T12:29:00.000Z","reihung":false},"departure":{"platform":"1","scheduledTime":"2023-10-18T12:33:00.000Z","time":"2023-10-18T12:33:00.000Z","reihung":false}},{"station":{"evaNumber":"8003489","name":"Ladenburg","coordinates":{"lng":8.602128,"lat":49.473491},"ril100":"RLD"},"arrival":{"platform":"1","scheduledTime":"2023-10-18T12:36:00.000Z","time":"2023-10-18T12:36:00.000Z","reihung":false},"departure":{"platform":"1","scheduledTime":"2023-10-18T12:37:00.000Z","time":"2023-10-18T12:37:00.000Z","reihung":false}},{"station":{"evaNumber":"8002430","name":"Heddesheim/Hirschberg","coordinates":{"lng":8.634148,"lat":49.509897},"ril100":"RGCH"},"arrival":{"platform":"2","scheduledTime":"2023-10-18T12:40:00.000Z","time":"2023-10-18T12:40:00.000Z","reihung":false},"departure":{"platform":"2","scheduledTime":"2023-10-18T12:40:00.000Z","time":"2023-10-18T12:40:00.000Z","reihung":false}},{"station":{"evaNumber":"8003792","name":"Weinheim-Lützelsachsen","coordinates":{"lng":8.649232,"lat":49.527022},"ril100":"RLUE"},"arrival":{"platform":"1","scheduledTime":"2023-10-18T12:42:00.000Z","time":"2023-10-18T12:42:00.000Z","reihung":false},"departure":{"platform":"1","scheduledTime":"2023-10-18T12:43:00.000Z","time":"2023-10-18T12:43:00.000Z","reihung":false}},{"station":{"evaNumber":"8000377","name":"Weinheim(Bergstr)Hbf","coordinates":{"lng":8.66561,"lat":49.553738},"ril100":"RWE"},"arrival":{"platform":"2","scheduledTime":"2023-10-18T12:46:00.000Z","time":"2023-10-18T12:46:00.000Z","reihung":false},"departure":{"platform":"2","scheduledTime":"2023-10-18T12:46:00.000Z","time":"2023-10-18T12:46:00.000Z","reihung":false}},{"station":{"evaNumber":"8006283","name":"Weinheim-Sulzbach","coordinates":{"lng":8.65636,"lat":49.575797},"ril100":"RWEZ"},"arrival":{"platform":"2","scheduledTime":"2023-10-18T12:49:00.000Z","time":"2023-10-18T12:49:00.000Z","reihung":false},"departure":{"platform":"2","scheduledTime":"2023-10-18T12:49:00.000Z","time":"2023-10-18T12:49:00.000Z","reihung":false}},{"station":{"evaNumber":"8002748","name":"Hemsbach","coordinates":{"lng":8.648702,"lat":49.590539},"ril100":"RHCH"},"arrival":{"platform":"1","scheduledTime":"2023-10-18T12:51:00.000Z","time":"2023-10-18T12:51:00.000Z","reihung":false},"departure":{"platform":"1","scheduledTime":"2023-10-18T12:52:00.000Z","time":"2023-10-18T12:52:00.000Z","reihung":false}},{"station":{"evaNumber":"8003571","name":"Laudenbach(Bergstr)","coordinates":{"lng":8.644638,"lat":49.611646},"ril100":"RLCH"},"arrival":{"platform":"1","scheduledTime":"2023-10-18T12:54:00.000Z","time":"2023-10-18T12:54:00.000Z","reihung":false},"departure":{"platform":"1","scheduledTime":"2023-10-18T12:54:00.000Z","time":"2023-10-18T12:54:00.000Z","reihung":false}},{"station":{"evaNumber":"8002757","name":"Heppenheim(Bergstr)","coordinates":{"lng":8.633366,"lat":49.641562},"ril100":"FHP"},"arrival":{"platform":"1","scheduledTime":"2023-10-18T12:57:00.000Z","time":"2023-10-18T12:57:00.000Z","reihung":false},"departure":{"platform":"1","scheduledTime":"2023-10-18T12:57:00.000Z","time":"2023-10-18T12:57:00.000Z","reihung":false}},{"station":{"evaNumber":"8000031","name":"Bensheim","coordinates":{"lng":8.616646,"lat":49.68142},"ril100":"FBH"},"arrival":{"platform":"1","scheduledTime":"2023-10-18T13:00:00.000Z","time":"2023-10-18T13:00:00.000Z","reihung":false},"departure":{"platform":"1","scheduledTime":"2023-10-18T13:01:00.000Z","time":"2023-10-18T13:01:00.000Z","reihung":false}},{"station":{"evaNumber":"8000877","name":"Bensheim-Auerbach","coordinates":{"lng":8.613149,"lat":49.702257},"ril100":"FBAU"},"arrival":{"platform":"1","scheduledTime":"2023-10-18T13:03:00.000Z","time":"2023-10-18T13:03:00.000Z","reihung":false},"departure":{"platform":"1","scheduledTime":"2023-10-18T13:04:00.000Z","time":"2023-10-18T13:04:00.000Z","reihung":false}},{"station":{"evaNumber":"8006687","name":"Zwingenberg(Bergstr)","coordinates":{"lng":8.608987,"lat":49.72562},"ril100":"FZW"},"arrival":{"platform":"1","scheduledTime":"2023-10-18T13:06:00.000Z","time":"2023-10-18T13:06:00.000Z","reihung":false},"departure":{"platform":"1","scheduledTime":"2023-10-18T13:06:00.000Z","time":"2023-10-18T13:06:00.000Z","reihung":false}},{"station":{"evaNumber":"8002498","name":"Hähnlein-Alsbach","coordinates":{"lng":8.606398,"lat":49.740129},"ril100":"FHAE"},"arrival":{"platform":"2","scheduledTime":"2023-10-18T13:08:00.000Z","time":"2023-10-18T13:08:00.000Z","reihung":false},"departure":{"platform":"2","scheduledTime":"2023-10-18T13:09:00.000Z","time":"2023-10-18T13:09:00.000Z","reihung":false}},{"station":{"evaNumber":"8000948","name":"Bickenbach(Bergstr)","coordinates":{"lng":8.603432,"lat":49.759626},"ril100":"FBI"},"arrival":{"platform":"1","scheduledTime":"2023-10-18T13:11:00.000Z","time":"2023-10-18T13:11:00.000Z","reihung":false},"departure":{"platform":"1","scheduledTime":"2023-10-18T13:11:00.000Z","time":"2023-10-18T13:11:00.000Z","reihung":false}},{"station":{"evaNumber":"8001379","name":"Darmstadt-Eberstadt","coordinates":{"lng":8.625986,"lat":49.814452},"ril100":"FDE"},"arrival":{"platform":"1","scheduledTime":"2023-10-18T13:17:00.000Z","time":"2023-10-18T13:17:00.000Z","reihung":false},"departure":{"platform":"1","scheduledTime":"2023-10-18T13:17:00.000Z","time":"2023-10-18T13:17:00.000Z","reihung":false}},{"station":{"evaNumber":"8001377","name":"Darmstadt Süd","coordinates":{"lng":8.637132,"lat":49.854157},"ril100":"FDS"},"arrival":{"platform":"1","scheduledTime":"2023-10-18T13:21:00.000Z","time":"2023-10-18T13:21:00.000Z","reihung":false},"departure":{"platform":"1","scheduledTime":"2023-10-18T13:21:00.000Z","time":"2023-10-18T13:21:00.000Z","reihung":false}},{"station":{"evaNumber":"8000068","name":"Darmstadt Hbf","coordinates":{"lng":8.629707,"lat":49.872549},"ril100":"FD"},"arrival":{"platform":"7","scheduledTime":"2023-10-18T13:28:00.000Z","time":"2023-10-18T13:28:00.000Z","reihung":false},"departure":{"platform":"7","scheduledTime":"2023-10-18T13:30:00.000Z","time":"2023-10-18T13:30:00.000Z","reihung":false}},{"station":{"evaNumber":"8003523","name":"Langen(Hess)","coordinates":{"lng":8.656828,"lat":49.993535},"ril100":"FLG"},"arrival":{"platform":"1","scheduledTime":"2023-10-18T13:38:00.000Z","time":"2023-10-18T13:38:00.000Z","reihung":false},"departure":{"platform":"1","scheduledTime":"2023-10-18T13:39:00.000Z","time":"2023-10-18T13:39:00.000Z","reihung":false}},{"station":{"evaNumber":"8000105","name":"Frankfurt(Main)Hbf","coordinates":{"lng":8.663003,"lat":50.106817},"ril100":"FF"},"arrival":{"platform":"10","scheduledTime":"2023-10-18T13:48:00.000Z","time":"2023-10-18T13:48:00.000Z","reihung":false}}],"finalDestination":"Frankfurt(Main)Hbf","jid":"1|351686|0|80|18102023","messages":[{"type":"A","code":"FB","prio":260,"icoX":6,"txtN":"Fahrradmitnahme begrenzt möglich"},{"type":"A","code":"EH","prio":560,"icoX":7,"txtN":"Fahrzeuggebundene Einstiegshilfe vorhanden"},{"type":"A","code":"KL","prio":610,"icoX":7,"txtN":"Klimaanlage"},{"type":"M","code":"","icoX":8,"txtS":"RB 15320: Heidelberg Hbf->Frankfurt(Main)Hbf: Bauarbeiten.","txtN":"Aufgrund von Bauarbeiten kommt es vom 10. bis 27. Oktober 2023 auf den Linien RE60 und RB67/68 zu geänderten Fahrtzeiten sowie zu Zug- und Teilausfällen. Es wird ein Ersatzverkehr (EV) mit Bussen für Sie eingerichtet Die Mitnahme von Fahrrädern im Bus ist ausgeschlossen. Bitte informieren Sie sich frühzeitig über Ihre geplanten Verbindungen und wählen Sie gegebenenfalls eine frühere Zugverbindung, um Ihre Anschlüsse an Ihren Umsteigebahnhöfen erreichen zu können. Die Fahrplanänderungen zu dieser Baumaßnahme sind in die Online - Fahrplanauskünfte eingearbeitet.","url":"https://him.static-bahn.de/1696265834247_10_23_V01_ZvF_53273_22_10_2023.pdf","sIdx":0}],"type":"JNY"},{"arrival":{"platform":"3","scheduledTime":"2023-10-18T14:58:00.000Z","time":"2023-10-18T14:58:00.000Z","reihung":false},"departure":{"platform":"15","scheduledTime":"2023-10-18T14:01:00.000Z","time":"2023-10-18T14:01:00.000Z","reihung":false},"duration":3420000,"train":{"name":"RE 30","line":"30","admin":"8005MW","number":"4174","type":"RE","operator":{"name":"DB Regio AG Mitte","icoX":2}},"segmentStart":{"name":"Frankfurt(Main)Hbf","evaNumber":"8000105"},"segmentDestination":{"name":"Gießen","evaNumber":"8000124"},"stops":[{"station":{"evaNumber":"8000105","name":"Frankfurt(Main)Hbf","coordinates":{"lng":8.663003,"lat":50.106817},"ril100":"FF"},"departure":{"platform":"15","scheduledTime":"2023-10-18T14:01:00.000Z","time":"2023-10-18T14:01:00.000Z","reihung":false}},{"station":{"evaNumber":"8002042","name":"Frankfurt(Main)West","coordinates":{"lng":8.639371,"lat":50.11924},"ril100":"FFW"},"arrival":{"platform":"4","scheduledTime":"2023-10-18T14:05:00.000Z","time":"2023-10-18T14:05:00.000Z","reihung":false},"departure":{"platform":"4","scheduledTime":"2023-10-18T14:06:00.000Z","time":"2023-10-18T14:06:00.000Z","reihung":false}},{"station":{"evaNumber":"8000111","name":"Friedberg(Hess)","coordinates":{"lng":8.761327,"lat":50.332842},"ril100":"FFG"},"arrival":{"platform":"4","scheduledTime":"2023-10-18T14:28:00.000Z","time":"2023-10-18T14:28:00.000Z","reihung":false},"departure":{"platform":"4","scheduledTime":"2023-10-18T14:29:00.000Z","time":"2023-10-18T14:29:00.000Z","reihung":false}},{"station":{"evaNumber":"8000728","name":"Bad Nauheim","coordinates":{"lng":8.749093,"lat":50.367909},"ril100":"FBNA"},"arrival":{"platform":"2","scheduledTime":"2023-10-18T14:32:00.000Z","time":"2023-10-18T14:32:00.000Z","reihung":false},"departure":{"platform":"2","scheduledTime":"2023-10-18T14:33:00.000Z","time":"2023-10-18T14:33:00.000Z","reihung":false}},{"station":{"evaNumber":"8004712","name":"Ostheim(b Butzbach)","coordinates":{"lng":8.675184,"lat":50.406589},"ril100":"FOM"},"arrival":{"platform":"2","scheduledTime":"2023-10-18T14:37:00.000Z","time":"2023-10-18T14:37:00.000Z","reihung":false},"departure":{"platform":"2","scheduledTime":"2023-10-18T14:38:00.000Z","time":"2023-10-18T14:38:00.000Z","reihung":false}},{"station":{"evaNumber":"8001312","name":"Butzbach","coordinates":{"lng":8.669592,"lat":50.431139}},"arrival":{"platform":"1","scheduledTime":"2023-10-18T14:41:00.000Z","time":"2023-10-18T14:41:00.000Z","reihung":false},"departure":{"platform":"1","scheduledTime":"2023-10-18T14:42:00.000Z","time":"2023-10-18T14:42:00.000Z","reihung":false}},{"station":{"evaNumber":"8003262","name":"Kirch Göns","coordinates":{"lng":8.666806,"lat":50.473496},"ril100":"FKGS"},"arrival":{"platform":"2","scheduledTime":"2023-10-18T14:46:00.000Z","time":"2023-10-18T14:46:00.000Z","reihung":false},"departure":{"platform":"2","scheduledTime":"2023-10-18T14:47:00.000Z","time":"2023-10-18T14:47:00.000Z","reihung":false}},{"station":{"evaNumber":"8003520","name":"Lang Göns","coordinates":{"lng":8.667013,"lat":50.497497},"ril100":"FLGS"},"arrival":{"platform":"3","scheduledTime":"2023-10-18T14:49:00.000Z","time":"2023-10-18T14:49:00.000Z","reihung":false},"departure":{"platform":"3","scheduledTime":"2023-10-18T14:50:00.000Z","time":"2023-10-18T14:50:00.000Z","reihung":false}},{"station":{"evaNumber":"8002410","name":"Großen Linden","coordinates":{"lng":8.662033,"lat":50.528375},"ril100":"FGL"},"arrival":{"platform":"3","scheduledTime":"2023-10-18T14:53:00.000Z","time":"2023-10-18T14:53:00.000Z","reihung":false},"departure":{"platform":"3","scheduledTime":"2023-10-18T14:53:00.000Z","time":"2023-10-18T14:53:00.000Z","reihung":false}},{"station":{"evaNumber":"8000124","name":"Gießen","coordinates":{"lng":8.662842,"lat":50.579371},"ril100":"FG"},"arrival":{"platform":"3","scheduledTime":"2023-10-18T14:58:00.000Z","time":"2023-10-18T14:58:00.000Z","reihung":false}}],"finalDestination":"Gießen","jid":"1|255614|0|80|18102023","messages":[{"type":"A","code":"FB","prio":260,"icoX":6,"txtN":"Fahrradmitnahme begrenzt möglich"},{"type":"A","code":"EH","prio":560,"icoX":7,"txtN":"Fahrzeuggebundene Einstiegshilfe vorhanden"},{"type":"A","code":"KL","prio":610,"icoX":7,"txtN":"Klimaanlage"}],"type":"JNY"}],"segmentTypes":["RB","RE"]},{"checksum":"f1a08e1c_3","cid":"C-1","date":"2023-10-17T22:00:00.000Z","duration":7920000,"changes":2,"isRideable":true,"arrival":{"platform":"3","scheduledTime":"2023-10-18T14:58:00.000Z","time":"2023-10-18T14:58:00.000Z","reihung":false},"departure":{"platform":"3","scheduledTime":"2023-10-18T12:46:00.000Z","time":"2023-10-18T12:46:00.000Z","reihung":false},"segments":[{"arrival":{"platform":"5","scheduledTime":"2023-10-18T13:22:00.000Z","time":"2023-10-18T13:22:00.000Z","reihung":false},"departure":{"platform":"3","scheduledTime":"2023-10-18T12:46:00.000Z","time":"2023-10-18T12:46:00.000Z","reihung":false},"duration":2160000,"train":{"name":"EC 2518","line":"62","admin":"80","number":"2518","type":"EC","operator":{"name":"DB Fernverkehr AG","icoX":12}},"changeDuration":8,"segmentStart":{"name":"Heidelberg Hbf","evaNumber":"8000156"},"segmentDestination":{"name":"Darmstadt Hbf","evaNumber":"8000068"},"stops":[{"station":{"evaNumber":"8000156","name":"Heidelberg Hbf","coordinates":{"lng":8.67548,"lat":49.403582},"ril100":"RH"},"departure":{"platform":"3","scheduledTime":"2023-10-18T12:46:00.000Z","time":"2023-10-18T12:46:00.000Z","reihung":false},"auslastung":{"first":1,"second":1}},{"station":{"evaNumber":"8000377","name":"Weinheim(Bergstr)Hbf","coordinates":{"lng":8.66561,"lat":49.553738},"ril100":"RWE"},"arrival":{"platform":"2","scheduledTime":"2023-10-18T12:58:00.000Z","time":"2023-10-18T12:58:00.000Z","reihung":false},"departure":{"platform":"2","scheduledTime":"2023-10-18T13:00:00.000Z","time":"2023-10-18T13:00:00.000Z","reihung":false},"auslastung":{"first":1,"second":1}},{"station":{"evaNumber":"8000031","name":"Bensheim","coordinates":{"lng":8.616646,"lat":49.68142},"ril100":"FBH"},"arrival":{"platform":"1","scheduledTime":"2023-10-18T13:08:00.000Z","time":"2023-10-18T13:08:00.000Z","reihung":false},"departure":{"platform":"1","scheduledTime":"2023-10-18T13:09:00.000Z","time":"2023-10-18T13:09:00.000Z","reihung":false},"auslastung":{"first":1,"second":1}},{"station":{"evaNumber":"8000068","name":"Darmstadt Hbf","coordinates":{"lng":8.629707,"lat":49.872549},"ril100":"FD"},"arrival":{"platform":"5","scheduledTime":"2023-10-18T13:22:00.000Z","time":"2023-10-18T13:22:00.000Z","reihung":false}}],"finalDestination":"Frankfurt(Main)Hbf","jid":"1|203745|0|80|18102023","auslastung":{"first":1,"second":1},"messages":[{"type":"A","code":"EZ","prio":400,"icoX":7,"txtN":"Ersatzzug"}],"type":"JNY"},{"arrival":{"platform":"10","scheduledTime":"2023-10-18T13:48:00.000Z","time":"2023-10-18T13:48:00.000Z","reihung":false},"departure":{"platform":"7","scheduledTime":"2023-10-18T13:30:00.000Z","time":"2023-10-18T13:30:00.000Z","reihung":false},"duration":1080000,"wings":[{"train":{"name":"RB 68","line":"68","admin":"800574","number":"15320","type":"RB","operator":{"name":"DB Regio AG Mitte","icoX":2}},"segmentStart":{"name":"Darmstadt Hbf","evaNumber":"8000068"},"segmentDestination":{"name":"Frankfurt(Main)Hbf","evaNumber":"8000105"},"stops":[{"station":{"evaNumber":"8000068","name":"Darmstadt Hbf","coordinates":{"lng":8.629707,"lat":49.872549},"ril100":"FD"},"departure":{"platform":"7","scheduledTime":"2023-10-18T13:30:00.000Z","time":"2023-10-18T13:30:00.000Z","reihung":false}},{"station":{"evaNumber":"8003523","name":"Langen(Hess)","coordinates":{"lng":8.656828,"lat":49.993535},"ril100":"FLG"},"arrival":{"platform":"1","scheduledTime":"2023-10-18T13:38:00.000Z","time":"2023-10-18T13:38:00.000Z","reihung":false}},{"station":{"evaNumber":"8000105","name":"Frankfurt(Main)Hbf","coordinates":{"lng":8.663003,"lat":50.106817},"ril100":"FF"},"arrival":{"platform":"10","scheduledTime":"2023-10-18T13:48:00.000Z","time":"2023-10-18T13:48:00.000Z","reihung":false}}],"finalDestination":"Frankfurt(Main)Hbf","jid":"1|351686|0|80|18102023"}],"train":{"name":"RB 67","line":"67","admin":"800574","number":"15420","type":"RB","operator":{"name":"DB Regio AG Mitte","icoX":2}},"changeDuration":13,"segmentStart":{"name":"Darmstadt Hbf","evaNumber":"8000068"},"segmentDestination":{"name":"Frankfurt(Main)Hbf","evaNumber":"8000105"},"stops":[{"station":{"evaNumber":"8000068","name":"Darmstadt Hbf","coordinates":{"lng":8.629707,"lat":49.872549},"ril100":"FD"},"departure":{"platform":"7","scheduledTime":"2023-10-18T13:30:00.000Z","time":"2023-10-18T13:30:00.000Z","reihung":false}},{"station":{"evaNumber":"8003523","name":"Langen(Hess)","coordinates":{"lng":8.656828,"lat":49.993535},"ril100":"FLG"},"arrival":{"platform":"1","scheduledTime":"2023-10-18T13:38:00.000Z","time":"2023-10-18T13:38:00.000Z","reihung":false},"departure":{"platform":"1","scheduledTime":"2023-10-18T13:39:00.000Z","time":"2023-10-18T13:39:00.000Z","reihung":false}},{"station":{"evaNumber":"8000105","name":"Frankfurt(Main)Hbf","coordinates":{"lng":8.663003,"lat":50.106817},"ril100":"FF"},"arrival":{"platform":"10","scheduledTime":"2023-10-18T13:48:00.000Z","time":"2023-10-18T13:48:00.000Z","reihung":false}}],"finalDestination":"Frankfurt(Main)Hbf","jid":"1|251830|0|80|18102023","messages":[{"type":"A","code":"FB","prio":260,"icoX":6,"txtN":"Fahrradmitnahme begrenzt möglich"},{"type":"A","code":"EH","prio":560,"icoX":7,"txtN":"Fahrzeuggebundene Einstiegshilfe vorhanden"},{"type":"A","code":"KL","prio":610,"icoX":7,"txtN":"Klimaanlage"},{"type":"M","code":"","icoX":8,"txtS":"RB 15420, RB 15320: Darmstadt Hbf->Frankfurt(Main)Hbf: Bauarbeiten.","txtN":"Aufgrund von Bauarbeiten kommt es vom 10. bis 27. Oktober 2023 auf den Linien RE60 und RB67/68 zu geänderten Fahrtzeiten sowie zu Zug- und Teilausfällen. Es wird ein Ersatzverkehr (EV) mit Bussen für Sie eingerichtet Die Mitnahme von Fahrrädern im Bus ist ausgeschlossen. Bitte informieren Sie sich frühzeitig über Ihre geplanten Verbindungen und wählen Sie gegebenenfalls eine frühere Zugverbindung, um Ihre Anschlüsse an Ihren Umsteigebahnhöfen erreichen zu können. Die Fahrplanänderungen zu dieser Baumaßnahme sind in die Online - Fahrplanauskünfte eingearbeitet.","url":"https://him.static-bahn.de/1696265834247_10_23_V01_ZvF_53273_22_10_2023.pdf","sIdx":1}],"type":"JNY"},{"arrival":{"platform":"3","scheduledTime":"2023-10-18T14:58:00.000Z","time":"2023-10-18T14:58:00.000Z","reihung":false},"departure":{"platform":"15","scheduledTime":"2023-10-18T14:01:00.000Z","time":"2023-10-18T14:01:00.000Z","reihung":false},"duration":3420000,"train":{"name":"RE 30","line":"30","admin":"8005MW","number":"4174","type":"RE","operator":{"name":"DB Regio AG Mitte","icoX":2}},"segmentStart":{"name":"Frankfurt(Main)Hbf","evaNumber":"8000105"},"segmentDestination":{"name":"Gießen","evaNumber":"8000124"},"stops":[{"station":{"evaNumber":"8000105","name":"Frankfurt(Main)Hbf","coordinates":{"lng":8.663003,"lat":50.106817},"ril100":"FF"},"departure":{"platform":"15","scheduledTime":"2023-10-18T14:01:00.000Z","time":"2023-10-18T14:01:00.000Z","reihung":false}},{"station":{"evaNumber":"8002042","name":"Frankfurt(Main)West","coordinates":{"lng":8.639371,"lat":50.11924},"ril100":"FFW"},"arrival":{"platform":"4","scheduledTime":"2023-10-18T14:05:00.000Z","time":"2023-10-18T14:05:00.000Z","reihung":false},"departure":{"platform":"4","scheduledTime":"2023-10-18T14:06:00.000Z","time":"2023-10-18T14:06:00.000Z","reihung":false}},{"station":{"evaNumber":"8000111","name":"Friedberg(Hess)","coordinates":{"lng":8.761327,"lat":50.332842},"ril100":"FFG"},"arrival":{"platform":"4","scheduledTime":"2023-10-18T14:28:00.000Z","time":"2023-10-18T14:28:00.000Z","reihung":false},"departure":{"platform":"4","scheduledTime":"2023-10-18T14:29:00.000Z","time":"2023-10-18T14:29:00.000Z","reihung":false}},{"station":{"evaNumber":"8000728","name":"Bad Nauheim","coordinates":{"lng":8.749093,"lat":50.367909},"ril100":"FBNA"},"arrival":{"platform":"2","scheduledTime":"2023-10-18T14:32:00.000Z","time":"2023-10-18T14:32:00.000Z","reihung":false},"departure":{"platform":"2","scheduledTime":"2023-10-18T14:33:00.000Z","time":"2023-10-18T14:33:00.000Z","reihung":false}},{"station":{"evaNumber":"8004712","name":"Ostheim(b Butzbach)","coordinates":{"lng":8.675184,"lat":50.406589},"ril100":"FOM"},"arrival":{"platform":"2","scheduledTime":"2023-10-18T14:37:00.000Z","time":"2023-10-18T14:37:00.000Z","reihung":false},"departure":{"platform":"2","scheduledTime":"2023-10-18T14:38:00.000Z","time":"2023-10-18T14:38:00.000Z","reihung":false}},{"station":{"evaNumber":"8001312","name":"Butzbach","coordinates":{"lng":8.669592,"lat":50.431139}},"arrival":{"platform":"1","scheduledTime":"2023-10-18T14:41:00.000Z","time":"2023-10-18T14:41:00.000Z","reihung":false},"departure":{"platform":"1","scheduledTime":"2023-10-18T14:42:00.000Z","time":"2023-10-18T14:42:00.000Z","reihung":false}},{"station":{"evaNumber":"8003262","name":"Kirch Göns","coordinates":{"lng":8.666806,"lat":50.473496},"ril100":"FKGS"},"arrival":{"platform":"2","scheduledTime":"2023-10-18T14:46:00.000Z","time":"2023-10-18T14:46:00.000Z","reihung":false},"departure":{"platform":"2","scheduledTime":"2023-10-18T14:47:00.000Z","time":"2023-10-18T14:47:00.000Z","reihung":false}},{"station":{"evaNumber":"8003520","name":"Lang Göns","coordinates":{"lng":8.667013,"lat":50.497497},"ril100":"FLGS"},"arrival":{"platform":"3","scheduledTime":"2023-10-18T14:49:00.000Z","time":"2023-10-18T14:49:00.000Z","reihung":false},"departure":{"platform":"3","scheduledTime":"2023-10-18T14:50:00.000Z","time":"2023-10-18T14:50:00.000Z","reihung":false}},{"station":{"evaNumber":"8002410","name":"Großen Linden","coordinates":{"lng":8.662033,"lat":50.528375},"ril100":"FGL"},"arrival":{"platform":"3","scheduledTime":"2023-10-18T14:53:00.000Z","time":"2023-10-18T14:53:00.000Z","reihung":false},"departure":{"platform":"3","scheduledTime":"2023-10-18T14:53:00.000Z","time":"2023-10-18T14:53:00.000Z","reihung":false}},{"station":{"evaNumber":"8000124","name":"Gießen","coordinates":{"lng":8.662842,"lat":50.579371},"ril100":"FG"},"arrival":{"platform":"3","scheduledTime":"2023-10-18T14:58:00.000Z","time":"2023-10-18T14:58:00.000Z","reihung":false}}],"finalDestination":"Gießen","jid":"1|255614|0|80|18102023","messages":[{"type":"A","code":"FB","prio":260,"icoX":6,"txtN":"Fahrradmitnahme begrenzt möglich"},{"type":"A","code":"EH","prio":560,"icoX":7,"txtN":"Fahrzeuggebundene Einstiegshilfe vorhanden"},{"type":"A","code":"KL","prio":610,"icoX":7,"txtN":"Klimaanlage"}],"type":"JNY"}],"segmentTypes":["EC","RB","RE"]},{"checksum":"12b63ff5_3","cid":"C-2","date":"2023-10-17T22:00:00.000Z","duration":8160000,"changes":1,"isRideable":true,"arrival":{"platform":"1","scheduledTime":"2023-10-18T15:02:00.000Z","time":"2023-10-18T15:02:00.000Z","reihung":false},"departure":{"platform":"3","scheduledTime":"2023-10-18T12:46:00.000Z","time":"2023-10-18T12:46:00.000Z","reihung":false},"segments":[{"arrival":{"platform":"13","scheduledTime":"2023-10-18T13:56:00.000Z","time":"2023-10-18T13:56:00.000Z","reihung":false},"departure":{"platform":"3","scheduledTime":"2023-10-18T12:46:00.000Z","time":"2023-10-18T12:46:00.000Z","reihung":false},"duration":4200000,"train":{"name":"EC 2518","line":"62","admin":"80","number":"2518","type":"EC","operator":{"name":"DB Fernverkehr AG","icoX":12}},"changeDuration":24,"segmentStart":{"name":"Heidelberg Hbf","evaNumber":"8000156"},"segmentDestination":{"name":"Frankfurt(Main)Hbf","evaNumber":"8000105"},"stops":[{"station":{"evaNumber":"8000156","name":"Heidelberg Hbf","coordinates":{"lng":8.67548,"lat":49.403582},"ril100":"RH"},"departure":{"platform":"3","scheduledTime":"2023-10-18T12:46:00.000Z","time":"2023-10-18T12:46:00.000Z","reihung":false},"auslastung":{"first":1,"second":1}},{"station":{"evaNumber":"8000377","name":"Weinheim(Bergstr)Hbf","coordinates":{"lng":8.66561,"lat":49.553738},"ril100":"RWE"},"arrival":{"platform":"2","scheduledTime":"2023-10-18T12:58:00.000Z","time":"2023-10-18T12:58:00.000Z","reihung":false},"departure":{"platform":"2","scheduledTime":"2023-10-18T13:00:00.000Z","time":"2023-10-18T13:00:00.000Z","reihung":false},"auslastung":{"first":1,"second":1}},{"station":{"evaNumber":"8000031","name":"Bensheim","coordinates":{"lng":8.616646,"lat":49.68142},"ril100":"FBH"},"arrival":{"platform":"1","scheduledTime":"2023-10-18T13:08:00.000Z","time":"2023-10-18T13:08:00.000Z","reihung":false},"departure":{"platform":"1","scheduledTime":"2023-10-18T13:09:00.000Z","time":"2023-10-18T13:09:00.000Z","reihung":false},"auslastung":{"first":1,"second":1}},{"station":{"evaNumber":"8000068","name":"Darmstadt Hbf","coordinates":{"lng":8.629707,"lat":49.872549},"ril100":"FD"},"arrival":{"platform":"5","scheduledTime":"2023-10-18T13:22:00.000Z","time":"2023-10-18T13:22:00.000Z","reihung":false},"departure":{"platform":"5","scheduledTime":"2023-10-18T13:36:00.000Z","time":"2023-10-18T13:36:00.000Z","reihung":false},"auslastung":{"first":1,"second":1}},{"station":{"evaNumber":"8000105","name":"Frankfurt(Main)Hbf","coordinates":{"lng":8.663003,"lat":50.106817},"ril100":"FF"},"arrival":{"platform":"13","scheduledTime":"2023-10-18T13:56:00.000Z","time":"2023-10-18T13:56:00.000Z","reihung":false}}],"finalDestination":"Frankfurt(Main)Hbf","jid":"1|203745|0|80|18102023","auslastung":{"first":1,"second":1},"messages":[{"type":"A","code":"EZ","prio":400,"icoX":7,"txtN":"Ersatzzug"}],"type":"JNY"},{"arrival":{"platform":"1","scheduledTime":"2023-10-18T15:02:00.000Z","time":"2023-10-18T15:02:00.000Z","reihung":false},"departure":{"platform":"16","scheduledTime":"2023-10-18T14:20:00.000Z","time":"2023-10-18T14:20:00.000Z","reihung":false},"duration":2520000,"wings":[{"train":{"name":"HLB RE98","line":"RE98","admin":"K4RE","number":"24426","type":"HLB","operator":{"name":"HLB Hessenbahn GmbH","icoX":14}},"segmentStart":{"name":"Frankfurt(Main)Hbf","evaNumber":"8000105"},"segmentDestination":{"name":"Gießen","evaNumber":"8000124"},"stops":[{"station":{"evaNumber":"8000105","name":"Frankfurt(Main)Hbf","coordinates":{"lng":8.663003,"lat":50.106817},"ril100":"FF"},"departure":{"platform":"16","scheduledTime":"2023-10-18T14:20:00.000Z","time":"2023-10-18T14:20:00.000Z","reihung":false}},{"station":{"evaNumber":"8002042","name":"Frankfurt(Main)West","coordinates":{"lng":8.639371,"lat":50.11924},"ril100":"FFW"},"arrival":{"platform":"4","scheduledTime":"2023-10-18T14:24:00.000Z","time":"2023-10-18T14:24:00.000Z","reihung":false}},{"station":{"evaNumber":"8000111","name":"Friedberg(Hess)","coordinates":{"lng":8.761327,"lat":50.332842},"ril100":"FFG"},"arrival":{"platform":"4","scheduledTime":"2023-10-18T14:44:00.000Z","time":"2023-10-18T14:44:00.000Z","reihung":false}},{"station":{"evaNumber":"8000124","name":"Gießen","coordinates":{"lng":8.662842,"lat":50.579371},"ril100":"FG"},"arrival":{"platform":"1","scheduledTime":"2023-10-18T15:02:00.000Z","time":"2023-10-18T15:02:00.000Z","reihung":false}}],"finalDestination":"Marburg(Lahn)","jid":"1|354964|0|80|18102023"},{"train":{"name":"HLB RE99","line":"RE99","admin":"K4RE","number":"24516","type":"HLB","operator":{"name":"HLB Hessenbahn GmbH","icoX":14}},"segmentStart":{"name":"Frankfurt(Main)Hbf","evaNumber":"8000105"},"segmentDestination":{"name":"Gießen","evaNumber":"8000124"},"stops":[{"station":{"evaNumber":"8000105","name":"Frankfurt(Main)Hbf","coordinates":{"lng":8.663003,"lat":50.106817},"ril100":"FF"},"departure":{"platform":"16","scheduledTime":"2023-10-18T14:20:00.000Z","time":"2023-10-18T14:20:00.000Z","reihung":false}},{"station":{"evaNumber":"8002042","name":"Frankfurt(Main)West","coordinates":{"lng":8.639371,"lat":50.11924},"ril100":"FFW"},"arrival":{"platform":"4","scheduledTime":"2023-10-18T14:24:00.000Z","time":"2023-10-18T14:24:00.000Z","reihung":false}},{"station":{"evaNumber":"8000111","name":"Friedberg(Hess)","coordinates":{"lng":8.761327,"lat":50.332842},"ril100":"FFG"},"arrival":{"platform":"4","scheduledTime":"2023-10-18T14:44:00.000Z","time":"2023-10-18T14:44:00.000Z","reihung":false}},{"station":{"evaNumber":"8000124","name":"Gießen","coordinates":{"lng":8.662842,"lat":50.579371},"ril100":"FG"},"arrival":{"platform":"1","scheduledTime":"2023-10-18T15:02:00.000Z","time":"2023-10-18T15:02:00.000Z","reihung":false}}],"finalDestination":"Siegen Hbf","jid":"1|354997|0|80|18102023"}],"train":{"name":"HLB RE98","line":"RE98","admin":"K4RE","number":"24416","type":"HLB","operator":{"name":"HLB Hessenbahn GmbH","icoX":14}},"segmentStart":{"name":"Frankfurt(Main)Hbf","evaNumber":"8000105"},"segmentDestination":{"name":"Gießen","evaNumber":"8000124"},"stops":[{"station":{"evaNumber":"8000105","name":"Frankfurt(Main)Hbf","coordinates":{"lng":8.663003,"lat":50.106817},"ril100":"FF"},"departure":{"platform":"16","scheduledTime":"2023-10-18T14:20:00.000Z","time":"2023-10-18T14:20:00.000Z","reihung":false}},{"station":{"evaNumber":"8002042","name":"Frankfurt(Main)West","coordinates":{"lng":8.639371,"lat":50.11924},"ril100":"FFW"},"arrival":{"platform":"4","scheduledTime":"2023-10-18T14:24:00.000Z","time":"2023-10-18T14:24:00.000Z","reihung":false},"departure":{"platform":"4","scheduledTime":"2023-10-18T14:24:00.000Z","time":"2023-10-18T14:24:00.000Z","reihung":false}},{"station":{"evaNumber":"8000111","name":"Friedberg(Hess)","coordinates":{"lng":8.761327,"lat":50.332842},"ril100":"FFG"},"arrival":{"platform":"4","scheduledTime":"2023-10-18T14:44:00.000Z","time":"2023-10-18T14:44:00.000Z","reihung":false},"departure":{"platform":"4","scheduledTime":"2023-10-18T14:45:00.000Z","time":"2023-10-18T14:45:00.000Z","reihung":false}},{"station":{"evaNumber":"8000124","name":"Gießen","coordinates":{"lng":8.662842,"lat":50.579371},"ril100":"FG"},"arrival":{"platform":"1","scheduledTime":"2023-10-18T15:02:00.000Z","time":"2023-10-18T15:02:00.000Z","reihung":false}}],"finalDestination":"Kassel Hbf","jid":"1|289387|0|80|18102023","messages":[{"type":"A","code":"FB","prio":260,"icoX":6,"txtN":"Fahrradmitnahme begrenzt möglich"}],"type":"JNY"}],"segmentTypes":["EC","HLB"]},{"checksum":"152b9577_3","cid":"C-3","date":"2023-10-17T22:00:00.000Z","duration":6720000,"changes":2,"isRideable":true,"arrival":{"platform":"1","scheduledTime":"2023-10-18T15:02:00.000Z","time":"2023-10-18T15:02:00.000Z","reihung":false},"departure":{"platform":"2","scheduledTime":"2023-10-18T13:10:00.000Z","time":"2023-10-18T13:10:00.000Z","reihung":false},"segments":[{"arrival":{"platform":"9","scheduledTime":"2023-10-18T13:24:00.000Z","time":"2023-10-18T13:24:00.000Z","reihung":false},"departure":{"platform":"2","scheduledTime":"2023-10-18T13:10:00.000Z","time":"2023-10-18T13:10:00.000Z","reihung":false},"duration":840000,"train":{"name":"RE 10b","line":"10b","admin":"SBSRE","number":"19272","type":"RE","operator":{"name":"SWEG Bahn Stuttgart GmbH","icoX":15}},"changeDuration":8,"segmentStart":{"name":"Heidelberg Hbf","evaNumber":"8000156"},"segmentDestination":{"name":"Mannheim Hbf","evaNumber":"8000244"},"stops":[{"station":{"evaNumber":"8000156","name":"Heidelberg Hbf","coordinates":{"lng":8.67548,"lat":49.403582},"ril100":"RH"},"departure":{"platform":"2","scheduledTime":"2023-10-18T13:10:00.000Z","time":"2023-10-18T13:10:00.000Z","reihung":false}},{"station":{"evaNumber":"8000244","name":"Mannheim Hbf","coordinates":{"lng":8.469268,"lat":49.479181},"ril100":"RM"},"arrival":{"platform":"9","scheduledTime":"2023-10-18T13:24:00.000Z","time":"2023-10-18T13:24:00.000Z","reihung":false}}],"finalDestination":"Mannheim Hbf","jid":"1|1118907|0|80|18102023","messages":[{"type":"A","code":"FB","prio":260,"icoX":6,"txtN":"Fahrradmitnahme begrenzt möglich"},{"type":"A","code":"EH","prio":560,"icoX":7,"txtN":"Fahrzeuggebundene Einstiegshilfe vorhanden"},{"type":"A","code":"EA","prio":560,"icoX":7,"txtN":"Behindertengerechte Ausstattung"},{"type":"A","code":"KL","prio":610,"icoX":7,"txtN":"Klimaanlage"},{"type":"M","code":"","icoX":16,"txtS":"RE 19272: Heidelberg Hbf->Mannheim Hbf: Information.","txtN":"1. Klasse fehlt.","sIdx":0}],"type":"JNY"},{"arrival":{"platform":"8","scheduledTime":"2023-10-18T14:08:00.000Z","time":"2023-10-18T14:08:00.000Z","reihung":false},"departure":{"platform":"2","scheduledTime":"2023-10-18T13:32:00.000Z","time":"2023-10-18T13:32:00.000Z","reihung":false},"duration":2160000,"train":{"name":"ICE 596","line":"11","admin":"80","number":"596","type":"ICE","operator":{"name":"DB Fernverkehr AG","icoX":12}},"changeDuration":12,"segmentStart":{"name":"Mannheim Hbf","evaNumber":"8000244"},"segmentDestination":{"name":"Frankfurt(Main)Hbf","evaNumber":"8000105"},"stops":[{"station":{"evaNumber":"8000244","name":"Mannheim Hbf","coordinates":{"lng":8.469268,"lat":49.479181},"ril100":"RM"},"departure":{"platform":"2","scheduledTime":"2023-10-18T13:32:00.000Z","time":"2023-10-18T13:32:00.000Z","reihung":false},"auslastung":{"first":2,"second":1}},{"station":{"evaNumber":"8000105","name":"Frankfurt(Main)Hbf","coordinates":{"lng":8.663003,"lat":50.106817},"ril100":"FF"},"arrival":{"platform":"8","scheduledTime":"2023-10-18T14:08:00.000Z","time":"2023-10-18T14:08:00.000Z","reihung":false}}],"finalDestination":"Kiel Hbf","jid":"1|207030|0|80|18102023","auslastung":{"first":2,"second":1},"messages":[{"type":"A","code":"CK","prio":200,"icoX":7,"txtN":"Sicher & kontaktlos ohne Ticketkontrolle reisen mit Komfort Check-in"},{"type":"A","code":"FR","prio":260,"icoX":17,"txtN":"Fahrradmitnahme reservierungspflichtig"},{"type":"A","code":"FB","prio":260,"icoX":6,"txtN":"Fahrradmitnahme begrenzt möglich"},{"type":"A","code":"BR","prio":450,"icoX":18,"txtN":"Bordrestaurant"},{"type":"A","code":"EH","prio":560,"icoX":7,"txtN":"Fahrzeuggebundene Einstiegshilfe vorhanden"}],"type":"JNY"},{"arrival":{"platform":"1","scheduledTime":"2023-10-18T15:02:00.000Z","time":"2023-10-18T15:02:00.000Z","reihung":false},"departure":{"platform":"16","scheduledTime":"2023-10-18T14:20:00.000Z","time":"2023-10-18T14:20:00.000Z","reihung":false},"duration":2520000,"wings":[{"train":{"name":"HLB RE98","line":"RE98","admin":"K4RE","number":"24426","type":"HLB","operator":{"name":"HLB Hessenbahn GmbH","icoX":14}},"segmentStart":{"name":"Frankfurt(Main)Hbf","evaNumber":"8000105"},"segmentDestination":{"name":"Gießen","evaNumber":"8000124"},"stops":[{"station":{"evaNumber":"8000105","name":"Frankfurt(Main)Hbf","coordinates":{"lng":8.663003,"lat":50.106817},"ril100":"FF"},"departure":{"platform":"16","scheduledTime":"2023-10-18T14:20:00.000Z","time":"2023-10-18T14:20:00.000Z","reihung":false}},{"station":{"evaNumber":"8002042","name":"Frankfurt(Main)West","coordinates":{"lng":8.639371,"lat":50.11924},"ril100":"FFW"},"arrival":{"platform":"4","scheduledTime":"2023-10-18T14:24:00.000Z","time":"2023-10-18T14:24:00.000Z","reihung":false}},{"station":{"evaNumber":"8000111","name":"Friedberg(Hess)","coordinates":{"lng":8.761327,"lat":50.332842},"ril100":"FFG"},"arrival":{"platform":"4","scheduledTime":"2023-10-18T14:44:00.000Z","time":"2023-10-18T14:44:00.000Z","reihung":false}},{"station":{"evaNumber":"8000124","name":"Gießen","coordinates":{"lng":8.662842,"lat":50.579371},"ril100":"FG"},"arrival":{"platform":"1","scheduledTime":"2023-10-18T15:02:00.000Z","time":"2023-10-18T15:02:00.000Z","reihung":false}}],"finalDestination":"Marburg(Lahn)","jid":"1|354964|0|80|18102023"},{"train":{"name":"HLB RE99","line":"RE99","admin":"K4RE","number":"24516","type":"HLB","operator":{"name":"HLB Hessenbahn GmbH","icoX":14}},"segmentStart":{"name":"Frankfurt(Main)Hbf","evaNumber":"8000105"},"segmentDestination":{"name":"Gießen","evaNumber":"8000124"},"stops":[{"station":{"evaNumber":"8000105","name":"Frankfurt(Main)Hbf","coordinates":{"lng":8.663003,"lat":50.106817},"ril100":"FF"},"departure":{"platform":"16","scheduledTime":"2023-10-18T14:20:00.000Z","time":"2023-10-18T14:20:00.000Z","reihung":false}},{"station":{"evaNumber":"8002042","name":"Frankfurt(Main)West","coordinates":{"lng":8.639371,"lat":50.11924},"ril100":"FFW"},"arrival":{"platform":"4","scheduledTime":"2023-10-18T14:24:00.000Z","time":"2023-10-18T14:24:00.000Z","reihung":false}},{"station":{"evaNumber":"8000111","name":"Friedberg(Hess)","coordinates":{"lng":8.761327,"lat":50.332842},"ril100":"FFG"},"arrival":{"platform":"4","scheduledTime":"2023-10-18T14:44:00.000Z","time":"2023-10-18T14:44:00.000Z","reihung":false}},{"station":{"evaNumber":"8000124","name":"Gießen","coordinates":{"lng":8.662842,"lat":50.579371},"ril100":"FG"},"arrival":{"platform":"1","scheduledTime":"2023-10-18T15:02:00.000Z","time":"2023-10-18T15:02:00.000Z","reihung":false}}],"finalDestination":"Siegen Hbf","jid":"1|354997|0|80|18102023"}],"train":{"name":"HLB RE98","line":"RE98","admin":"K4RE","number":"24416","type":"HLB","operator":{"name":"HLB Hessenbahn GmbH","icoX":14}},"segmentStart":{"name":"Frankfurt(Main)Hbf","evaNumber":"8000105"},"segmentDestination":{"name":"Gießen","evaNumber":"8000124"},"stops":[{"station":{"evaNumber":"8000105","name":"Frankfurt(Main)Hbf","coordinates":{"lng":8.663003,"lat":50.106817},"ril100":"FF"},"departure":{"platform":"16","scheduledTime":"2023-10-18T14:20:00.000Z","time":"2023-10-18T14:20:00.000Z","reihung":false}},{"station":{"evaNumber":"8002042","name":"Frankfurt(Main)West","coordinates":{"lng":8.639371,"lat":50.11924},"ril100":"FFW"},"arrival":{"platform":"4","scheduledTime":"2023-10-18T14:24:00.000Z","time":"2023-10-18T14:24:00.000Z","reihung":false},"departure":{"platform":"4","scheduledTime":"2023-10-18T14:24:00.000Z","time":"2023-10-18T14:24:00.000Z","reihung":false}},{"station":{"evaNumber":"8000111","name":"Friedberg(Hess)","coordinates":{"lng":8.761327,"lat":50.332842},"ril100":"FFG"},"arrival":{"platform":"4","scheduledTime":"2023-10-18T14:44:00.000Z","time":"2023-10-18T14:44:00.000Z","reihung":false},"departure":{"platform":"4","scheduledTime":"2023-10-18T14:45:00.000Z","time":"2023-10-18T14:45:00.000Z","reihung":false}},{"station":{"evaNumber":"8000124","name":"Gießen","coordinates":{"lng":8.662842,"lat":50.579371},"ril100":"FG"},"arrival":{"platform":"1","scheduledTime":"2023-10-18T15:02:00.000Z","time":"2023-10-18T15:02:00.000Z","reihung":false}}],"finalDestination":"Kassel Hbf","jid":"1|289387|0|80|18102023","messages":[{"type":"A","code":"FB","prio":260,"icoX":6,"txtN":"Fahrradmitnahme begrenzt möglich"}],"type":"JNY"}],"segmentTypes":["RE","ICE","HLB"]},{"checksum":"5fd6420b_3","cid":"C-4","date":"2023-10-17T22:00:00.000Z","duration":8700000,"changes":1,"isRideable":true,"arrival":{"platform":"2","scheduledTime":"2023-10-18T15:48:00.000Z","time":"2023-10-18T15:48:00.000Z","reihung":false},"departure":{"platform":"3","scheduledTime":"2023-10-18T13:23:00.000Z","time":"2023-10-18T13:23:00.000Z","reihung":false},"segments":[{"arrival":{"platform":"10","scheduledTime":"2023-10-18T14:48:00.000Z","time":"2023-10-18T14:48:00.000Z","reihung":false},"departure":{"platform":"3","scheduledTime":"2023-10-18T13:23:00.000Z","time":"2023-10-18T13:23:00.000Z","reihung":false},"duration":5100000,"train":{"name":"RB 68","line":"68","admin":"800574","number":"15322","type":"RB","operator":{"name":"DB Regio AG Mitte","icoX":2}},"changeDuration":13,"segmentStart":{"name":"Heidelberg Hbf","evaNumber":"8000156"},"segmentDestination":{"name":"Frankfurt(Main)Hbf","evaNumber":"8000105"},"stops":[{"station":{"evaNumber":"8000156","name":"Heidelberg Hbf","coordinates":{"lng":8.67548,"lat":49.403582},"ril100":"RH"},"departure":{"platform":"3","scheduledTime":"2023-10-18T13:23:00.000Z","time":"2023-10-18T13:23:00.000Z","reihung":false}},{"station":{"evaNumber":"8002687","name":"Heidelberg-Pfaffengrund/Wieblingen","coordinates":{"lng":8.641474,"lat":49.411969},"ril100":"RHBP"},"arrival":{"platform":"1","scheduledTime":"2023-10-18T13:26:00.000Z","time":"2023-10-18T13:26:00.000Z","reihung":false},"departure":{"platform":"1","scheduledTime":"2023-10-18T13:27:00.000Z","time":"2023-10-18T13:27:00.000Z","reihung":false}},{"station":{"evaNumber":"8000631","name":"Neu-Edingen/Friedrichsfeld","coordinates":{"lng":8.579934,"lat":49.44842},"ril100":"RMF"},"arrival":{"platform":"1","scheduledTime":"2023-10-18T13:32:00.000Z","time":"2023-10-18T13:32:00.000Z","reihung":false},"departure":{"platform":"1","scheduledTime":"2023-10-18T13:35:00.000Z","time":"2023-10-18T13:35:00.000Z","reihung":false}},{"station":{"evaNumber":"8003489","name":"Ladenburg","coordinates":{"lng":8.602128,"lat":49.473491},"ril100":"RLD"},"arrival":{"platform":"1","scheduledTime":"2023-10-18T13:38:00.000Z","time":"2023-10-18T13:38:00.000Z","reihung":false},"departure":{"platform":"1","scheduledTime":"2023-10-18T13:39:00.000Z","time":"2023-10-18T13:39:00.000Z","reihung":false}},{"station":{"evaNumber":"8002430","name":"Heddesheim/Hirschberg","coordinates":{"lng":8.634148,"lat":49.509897},"ril100":"RGCH"},"arrival":{"platform":"2","scheduledTime":"2023-10-18T13:42:00.000Z","time":"2023-10-18T13:42:00.000Z","reihung":false},"departure":{"platform":"2","scheduledTime":"2023-10-18T13:42:00.000Z","time":"2023-10-18T13:42:00.000Z","reihung":false}},{"station":{"evaNumber":"8003792","name":"Weinheim-Lützelsachsen","coordinates":{"lng":8.649232,"lat":49.527022},"ril100":"RLUE"},"arrival":{"platform":"1","scheduledTime":"2023-10-18T13:44:00.000Z","time":"2023-10-18T13:44:00.000Z","reihung":false},"departure":{"platform":"1","scheduledTime":"2023-10-18T13:45:00.000Z","time":"2023-10-18T13:45:00.000Z","reihung":false}},{"station":{"evaNumber":"8000377","name":"Weinheim(Bergstr)Hbf","coordinates":{"lng":8.66561,"lat":49.553738},"ril100":"RWE"},"arrival":{"platform":"2","scheduledTime":"2023-10-18T13:48:00.000Z","time":"2023-10-18T13:48:00.000Z","reihung":false},"departure":{"platform":"2","scheduledTime":"2023-10-18T13:48:00.000Z","time":"2023-10-18T13:48:00.000Z","reihung":false}},{"station":{"evaNumber":"8002748","name":"Hemsbach","coordinates":{"lng":8.648702,"lat":49.590539},"ril100":"RHCH"},"arrival":{"platform":"1","scheduledTime":"2023-10-18T13:51:00.000Z","time":"2023-10-18T13:51:00.000Z","reihung":false},"departure":{"platform":"1","scheduledTime":"2023-10-18T13:52:00.000Z","time":"2023-10-18T13:52:00.000Z","reihung":false}},{"station":{"evaNumber":"8003571","name":"Laudenbach(Bergstr)","coordinates":{"lng":8.644638,"lat":49.611646},"ril100":"RLCH"},"arrival":{"platform":"1","scheduledTime":"2023-10-18T13:54:00.000Z","time":"2023-10-18T13:54:00.000Z","reihung":false},"departure":{"platform":"1","scheduledTime":"2023-10-18T13:55:00.000Z","time":"2023-10-18T13:55:00.000Z","reihung":false}},{"station":{"evaNumber":"8002757","name":"Heppenheim(Bergstr)","coordinates":{"lng":8.633366,"lat":49.641562},"ril100":"FHP"},"arrival":{"platform":"1","scheduledTime":"2023-10-18T13:57:00.000Z","time":"2023-10-18T13:57:00.000Z","reihung":false},"departure":{"platform":"1","scheduledTime":"2023-10-18T13:58:00.000Z","time":"2023-10-18T13:58:00.000Z","reihung":false}},{"station":{"evaNumber":"8000031","name":"Bensheim","coordinates":{"lng":8.616646,"lat":49.68142},"ril100":"FBH"},"arrival":{"platform":"1","scheduledTime":"2023-10-18T14:01:00.000Z","time":"2023-10-18T14:01:00.000Z","reihung":false},"departure":{"platform":"1","scheduledTime":"2023-10-18T14:02:00.000Z","time":"2023-10-18T14:02:00.000Z","reihung":false}},{"station":{"evaNumber":"8000877","name":"Bensheim-Auerbach","coordinates":{"lng":8.613149,"lat":49.702257},"ril100":"FBAU"},"arrival":{"platform":"1","scheduledTime":"2023-10-18T14:04:00.000Z","time":"2023-10-18T14:04:00.000Z","reihung":false},"departure":{"platform":"1","scheduledTime":"2023-10-18T14:04:00.000Z","time":"2023-10-18T14:04:00.000Z","reihung":false}},{"station":{"evaNumber":"8006687","name":"Zwingenberg(Bergstr)","coordinates":{"lng":8.608987,"lat":49.72562},"ril100":"FZW"},"arrival":{"platform":"1","scheduledTime":"2023-10-18T14:07:00.000Z","time":"2023-10-18T14:07:00.000Z","reihung":false},"departure":{"platform":"1","scheduledTime":"2023-10-18T14:07:00.000Z","time":"2023-10-18T14:07:00.000Z","reihung":false}},{"station":{"evaNumber":"8002498","name":"Hähnlein-Alsbach","coordinates":{"lng":8.606398,"lat":49.740129},"ril100":"FHAE"},"arrival":{"platform":"2","scheduledTime":"2023-10-18T14:09:00.000Z","time":"2023-10-18T14:09:00.000Z","reihung":false},"departure":{"platform":"2","scheduledTime":"2023-10-18T14:09:00.000Z","time":"2023-10-18T14:09:00.000Z","reihung":false}},{"station":{"evaNumber":"8000948","name":"Bickenbach(Bergstr)","coordinates":{"lng":8.603432,"lat":49.759626},"ril100":"FBI"},"arrival":{"platform":"1","scheduledTime":"2023-10-18T14:11:00.000Z","time":"2023-10-18T14:11:00.000Z","reihung":false},"departure":{"platform":"1","scheduledTime":"2023-10-18T14:12:00.000Z","time":"2023-10-18T14:12:00.000Z","reihung":false}},{"station":{"evaNumber":"8001379","name":"Darmstadt-Eberstadt","coordinates":{"lng":8.625986,"lat":49.814452},"ril100":"FDE"},"arrival":{"platform":"1","scheduledTime":"2023-10-18T14:17:00.000Z","time":"2023-10-18T14:17:00.000Z","reihung":false},"departure":{"platform":"1","scheduledTime":"2023-10-18T14:17:00.000Z","time":"2023-10-18T14:17:00.000Z","reihung":false}},{"station":{"evaNumber":"8001377","name":"Darmstadt Süd","coordinates":{"lng":8.637132,"lat":49.854157},"ril100":"FDS"},"arrival":{"platform":"1","scheduledTime":"2023-10-18T14:21:00.000Z","time":"2023-10-18T14:21:00.000Z","reihung":false},"departure":{"platform":"1","scheduledTime":"2023-10-18T14:21:00.000Z","time":"2023-10-18T14:21:00.000Z","reihung":false}},{"station":{"evaNumber":"8000068","name":"Darmstadt Hbf","coordinates":{"lng":8.629707,"lat":49.872549},"ril100":"FD"},"arrival":{"platform":"7","scheduledTime":"2023-10-18T14:28:00.000Z","time":"2023-10-18T14:28:00.000Z","reihung":false},"departure":{"platform":"7","scheduledTime":"2023-10-18T14:30:00.000Z","time":"2023-10-18T14:30:00.000Z","reihung":false}},{"station":{"evaNumber":"8003523","name":"Langen(Hess)","coordinates":{"lng":8.656828,"lat":49.993535},"ril100":"FLG"},"arrival":{"platform":"1","scheduledTime":"2023-10-18T14:38:00.000Z","time":"2023-10-18T14:38:00.000Z","reihung":false},"departure":{"platform":"1","scheduledTime":"2023-10-18T14:39:00.000Z","time":"2023-10-18T14:39:00.000Z","reihung":false}},{"station":{"evaNumber":"8000105","name":"Frankfurt(Main)Hbf","coordinates":{"lng":8.663003,"lat":50.106817},"ril100":"FF"},"arrival":{"platform":"10","scheduledTime":"2023-10-18T14:48:00.000Z","time":"2023-10-18T14:48:00.000Z","reihung":false}}],"finalDestination":"Frankfurt(Main)Hbf","jid":"1|351687|0|80|18102023","messages":[{"type":"A","code":"FB","prio":260,"icoX":6,"txtN":"Fahrradmitnahme begrenzt möglich"},{"type":"A","code":"EH","prio":560,"icoX":7,"txtN":"Fahrzeuggebundene Einstiegshilfe vorhanden"},{"type":"A","code":"KL","prio":610,"icoX":7,"txtN":"Klimaanlage"},{"type":"M","code":"","icoX":8,"txtS":"RB 15322: Heidelberg Hbf->Frankfurt(Main)Hbf: Bauarbeiten.","txtN":"Aufgrund von Bauarbeiten kommt es vom 10. bis 27. Oktober 2023 auf den Linien RE60 und RB67/68 zu geänderten Fahrtzeiten sowie zu Zug- und Teilausfällen. Es wird ein Ersatzverkehr (EV) mit Bussen für Sie eingerichtet Die Mitnahme von Fahrrädern im Bus ist ausgeschlossen. Bitte informieren Sie sich frühzeitig über Ihre geplanten Verbindungen und wählen Sie gegebenenfalls eine frühere Zugverbindung, um Ihre Anschlüsse an Ihren Umsteigebahnhöfen erreichen zu können. Die Fahrplanänderungen zu dieser Baumaßnahme sind in die Online - Fahrplanauskünfte eingearbeitet.","url":"https://him.static-bahn.de/1696265834247_10_23_V01_ZvF_53273_22_10_2023.pdf","sIdx":0}],"type":"JNY"},{"arrival":{"platform":"2","scheduledTime":"2023-10-18T15:48:00.000Z","time":"2023-10-18T15:48:00.000Z","reihung":false},"departure":{"platform":"14","scheduledTime":"2023-10-18T15:01:00.000Z","time":"2023-10-18T15:01:00.000Z","reihung":false},"duration":2820000,"train":{"name":"RE 30","line":"30","admin":"8005MW","number":"4176","type":"RE","operator":{"name":"DB Regio AG Mitte","icoX":2}},"segmentStart":{"name":"Frankfurt(Main)Hbf","evaNumber":"8000105"},"segmentDestination":{"name":"Gießen","evaNumber":"8000124"},"stops":[{"station":{"evaNumber":"8000105","name":"Frankfurt(Main)Hbf","coordinates":{"lng":8.663003,"lat":50.106817},"ril100":"FF"},"departure":{"platform":"14","scheduledTime":"2023-10-18T15:01:00.000Z","time":"2023-10-18T15:01:00.000Z","reihung":false}},{"station":{"evaNumber":"8002042","name":"Frankfurt(Main)West","coordinates":{"lng":8.639371,"lat":50.11924},"ril100":"FFW"},"arrival":{"platform":"4","scheduledTime":"2023-10-18T15:05:00.000Z","time":"2023-10-18T15:05:00.000Z","reihung":false},"departure":{"platform":"4","scheduledTime":"2023-10-18T15:05:00.000Z","time":"2023-10-18T15:05:00.000Z","reihung":false}},{"station":{"evaNumber":"8000111","name":"Friedberg(Hess)","coordinates":{"lng":8.761327,"lat":50.332842},"ril100":"FFG"},"arrival":{"platform":"4","scheduledTime":"2023-10-18T15:25:00.000Z","time":"2023-10-18T15:25:00.000Z","reihung":false},"departure":{"platform":"4","scheduledTime":"2023-10-18T15:26:00.000Z","time":"2023-10-18T15:26:00.000Z","reihung":false}},{"station":{"evaNumber":"8000728","name":"Bad Nauheim","coordinates":{"lng":8.749093,"lat":50.367909},"ril100":"FBNA"},"arrival":{"platform":"2","scheduledTime":"2023-10-18T15:29:00.000Z","time":"2023-10-18T15:29:00.000Z","reihung":false},"departure":{"platform":"2","scheduledTime":"2023-10-18T15:30:00.000Z","time":"2023-10-18T15:30:00.000Z","reihung":false}},{"station":{"evaNumber":"8001312","name":"Butzbach","coordinates":{"lng":8.669592,"lat":50.431139}},"arrival":{"platform":"1","scheduledTime":"2023-10-18T15:37:00.000Z","time":"2023-10-18T15:37:00.000Z","reihung":false},"departure":{"platform":"1","scheduledTime":"2023-10-18T15:37:00.000Z","time":"2023-10-18T15:37:00.000Z","reihung":false}},{"station":{"evaNumber":"8000124","name":"Gießen","coordinates":{"lng":8.662842,"lat":50.579371},"ril100":"FG"},"arrival":{"platform":"2","scheduledTime":"2023-10-18T15:48:00.000Z","time":"2023-10-18T15:48:00.000Z","reihung":false}}],"finalDestination":"Marburg(Lahn)","jid":"1|255618|0|80|18102023","messages":[{"type":"A","code":"FB","prio":260,"icoX":6,"txtN":"Fahrradmitnahme begrenzt möglich"},{"type":"A","code":"EH","prio":560,"icoX":7,"txtN":"Fahrzeuggebundene Einstiegshilfe vorhanden"},{"type":"A","code":"KL","prio":610,"icoX":7,"txtN":"Klimaanlage"}],"type":"JNY"}],"segmentTypes":["RB","RE"]},{"checksum":"5c48a676_3","cid":"C-5","date":"2023-10-17T22:00:00.000Z","duration":10320000,"changes":2,"isRideable":true,"arrival":{"platform":"1","scheduledTime":"2023-10-18T16:35:00.000Z","time":"2023-10-18T16:35:00.000Z","reihung":false},"departure":{"platform":"5","scheduledTime":"2023-10-18T13:43:00.000Z","time":"2023-10-18T13:43:00.000Z","reihung":false},"segments":[{"arrival":{"platform":"1","scheduledTime":"2023-10-18T14:01:00.000Z","time":"2023-10-18T14:01:00.000Z","reihung":false},"departure":{"platform":"5","scheduledTime":"2023-10-18T13:43:00.000Z","time":"2023-10-18T13:43:00.000Z","reihung":false},"duration":1080000,"train":{"name":"S 3","line":"3","admin":"801539","number":"38340","type":"S","operator":{"name":"DB Regio AG Mitte","icoX":2}},"changeDuration":14,"segmentStart":{"name":"Heidelberg Hbf","evaNumber":"8000156"},"segmentDestination":{"name":"Mannheim Hbf","evaNumber":"8000244"},"stops":[{"station":{"evaNumber":"8000156","name":"Heidelberg Hbf","coordinates":{"lng":8.67548,"lat":49.403582},"ril100":"RH"},"departure":{"platform":"5","scheduledTime":"2023-10-18T13:43:00.000Z","time":"2023-10-18T13:43:00.000Z","reihung":false}},{"station":{"evaNumber":"8002687","name":"Heidelberg-Pfaffengrund/Wieblingen","coordinates":{"lng":8.641474,"lat":49.411969},"ril100":"RHBP"},"arrival":{"platform":"1","scheduledTime":"2023-10-18T13:45:00.000Z","time":"2023-10-18T13:45:00.000Z","reihung":false},"departure":{"platform":"1","scheduledTime":"2023-10-18T13:46:00.000Z","time":"2023-10-18T13:46:00.000Z","reihung":false}},{"station":{"evaNumber":"8003842","name":"Mannheim-Friedrichsfeld Süd","coordinates":{"lng":8.572239,"lat":49.438217},"ril100":"RMFS"},"arrival":{"platform":"1","scheduledTime":"2023-10-18T13:50:00.000Z","time":"2023-10-18T13:50:00.000Z","reihung":false},"departure":{"platform":"1","scheduledTime":"2023-10-18T13:50:00.000Z","time":"2023-10-18T13:50:00.000Z","reihung":false}},{"station":{"evaNumber":"8003847","name":"Mannheim-Seckenheim","coordinates":{"lng":8.538098,"lat":49.451413},"ril100":"RMSE"},"arrival":{"platform":"1","scheduledTime":"2023-10-18T13:52:00.000Z","time":"2023-10-18T13:52:00.000Z","reihung":false},"departure":{"platform":"1","scheduledTime":"2023-10-18T13:53:00.000Z","time":"2023-10-18T13:53:00.000Z","reihung":false}},{"station":{"evaNumber":"8003841","name":"Mannheim ARENA/Maimarkt","coordinates":{"lng":8.515922,"lat":49.45998},"ril100":"RMSM"},"arrival":{"platform":"1","scheduledTime":"2023-10-18T13:55:00.000Z","time":"2023-10-18T13:55:00.000Z","reihung":false},"departure":{"platform":"1","scheduledTime":"2023-10-18T13:55:00.000Z","time":"2023-10-18T13:55:00.000Z","reihung":false}},{"station":{"evaNumber":"8000244","name":"Mannheim Hbf","coordinates":{"lng":8.469268,"lat":49.479181},"ril100":"RM"},"arrival":{"platform":"1","scheduledTime":"2023-10-18T14:01:00.000Z","time":"2023-10-18T14:01:00.000Z","reihung":false}}],"finalDestination":"Schifferstadt","jid":"1|254227|0|80|18102023","messages":[{"type":"A","code":"FB","prio":260,"icoX":6,"txtN":"Fahrradmitnahme begrenzt möglich"},{"type":"A","code":"EH","prio":560,"icoX":7,"txtN":"Fahrzeuggebundene Einstiegshilfe vorhanden"}],"type":"JNY"},{"arrival":{"platform":"11","scheduledTime":"2023-10-18T15:24:00.000Z","time":"2023-10-18T15:24:00.000Z","reihung":false},"departure":{"platform":"4","scheduledTime":"2023-10-18T14:15:00.000Z","time":"2023-10-18T14:15:00.000Z","reihung":false},"duration":4140000,"train":{"name":"RE 60","line":"60","admin":"800574","number":"4672","type":"RE","operator":{"name":"DB Regio AG Mitte","icoX":2}},"changeDuration":25,"segmentStart":{"name":"Mannheim Hbf","evaNumber":"8000244"},"segmentDestination":{"name":"Frankfurt(Main)Hbf","evaNumber":"8000105"},"stops":[{"station":{"evaNumber":"8000244","name":"Mannheim Hbf","coordinates":{"lng":8.469268,"lat":49.479181},"ril100":"RM"},"departure":{"platform":"4","scheduledTime":"2023-10-18T14:15:00.000Z","time":"2023-10-18T14:15:00.000Z","reihung":false}},{"station":{"evaNumber":"8000631","name":"Neu-Edingen/Friedrichsfeld","coordinates":{"lng":8.579934,"lat":49.44842},"ril100":"RMF"},"arrival":{"platform":"2","scheduledTime":"2023-10-18T14:26:00.000Z","time":"2023-10-18T14:26:00.000Z","reihung":false},"departure":{"platform":"2","scheduledTime":"2023-10-18T14:28:00.000Z","time":"2023-10-18T14:28:00.000Z","reihung":false}},{"station":{"evaNumber":"8003489","name":"Ladenburg","coordinates":{"lng":8.602128,"lat":49.473491},"ril100":"RLD"},"arrival":{"platform":"1","scheduledTime":"2023-10-18T14:31:00.000Z","time":"2023-10-18T14:31:00.000Z","reihung":false},"departure":{"platform":"1","scheduledTime":"2023-10-18T14:32:00.000Z","time":"2023-10-18T14:32:00.000Z","reihung":false}},{"station":{"evaNumber":"8000377","name":"Weinheim(Bergstr)Hbf","coordinates":{"lng":8.66561,"lat":49.553738},"ril100":"RWE"},"arrival":{"platform":"2","scheduledTime":"2023-10-18T14:38:00.000Z","time":"2023-10-18T14:38:00.000Z","reihung":false},"departure":{"platform":"2","scheduledTime":"2023-10-18T14:39:00.000Z","time":"2023-10-18T14:39:00.000Z","reihung":false}},{"station":{"evaNumber":"8002748","name":"Hemsbach","coordinates":{"lng":8.648702,"lat":49.590539},"ril100":"RHCH"},"arrival":{"platform":"1","scheduledTime":"2023-10-18T14:42:00.000Z","time":"2023-10-18T14:42:00.000Z","reihung":false},"departure":{"platform":"1","scheduledTime":"2023-10-18T14:43:00.000Z","time":"2023-10-18T14:43:00.000Z","reihung":false}},{"station":{"evaNumber":"8002757","name":"Heppenheim(Bergstr)","coordinates":{"lng":8.633366,"lat":49.641562},"ril100":"FHP"},"arrival":{"platform":"1","scheduledTime":"2023-10-18T14:46:00.000Z","time":"2023-10-18T14:46:00.000Z","reihung":false},"departure":{"platform":"1","scheduledTime":"2023-10-18T14:47:00.000Z","time":"2023-10-18T14:47:00.000Z","reihung":false}},{"station":{"evaNumber":"8000031","name":"Bensheim","coordinates":{"lng":8.616646,"lat":49.68142},"ril100":"FBH"},"arrival":{"platform":"1","scheduledTime":"2023-10-18T14:50:00.000Z","time":"2023-10-18T14:50:00.000Z","reihung":false},"departure":{"platform":"1","scheduledTime":"2023-10-18T14:51:00.000Z","time":"2023-10-18T14:51:00.000Z","reihung":false}},{"station":{"evaNumber":"8006687","name":"Zwingenberg(Bergstr)","coordinates":{"lng":8.608987,"lat":49.72562},"ril100":"FZW"},"arrival":{"platform":"1","scheduledTime":"2023-10-18T14:54:00.000Z","time":"2023-10-18T14:54:00.000Z","reihung":false},"departure":{"platform":"1","scheduledTime":"2023-10-18T14:55:00.000Z","time":"2023-10-18T14:55:00.000Z","reihung":false}},{"station":{"evaNumber":"8000948","name":"Bickenbach(Bergstr)","coordinates":{"lng":8.603432,"lat":49.759626},"ril100":"FBI"},"arrival":{"platform":"1","scheduledTime":"2023-10-18T14:57:00.000Z","time":"2023-10-18T14:57:00.000Z","reihung":false},"departure":{"platform":"1","scheduledTime":"2023-10-18T14:58:00.000Z","time":"2023-10-18T14:58:00.000Z","reihung":false}},{"station":{"evaNumber":"8000068","name":"Darmstadt Hbf","coordinates":{"lng":8.629707,"lat":49.872549},"ril100":"FD"},"arrival":{"platform":"5","scheduledTime":"2023-10-18T15:05:00.000Z","time":"2023-10-18T15:05:00.000Z","reihung":false},"departure":{"platform":"5","scheduledTime":"2023-10-18T15:07:00.000Z","time":"2023-10-18T15:07:00.000Z","reihung":false}},{"station":{"evaNumber":"8003523","name":"Langen(Hess)","coordinates":{"lng":8.656828,"lat":49.993535},"ril100":"FLG"},"arrival":{"platform":"1","scheduledTime":"2023-10-18T15:14:00.000Z","time":"2023-10-18T15:14:00.000Z","reihung":false},"departure":{"platform":"1","scheduledTime":"2023-10-18T15:15:00.000Z","time":"2023-10-18T15:15:00.000Z","reihung":false}},{"station":{"evaNumber":"8000105","name":"Frankfurt(Main)Hbf","coordinates":{"lng":8.663003,"lat":50.106817},"ril100":"FF"},"arrival":{"platform":"11","scheduledTime":"2023-10-18T15:24:00.000Z","time":"2023-10-18T15:24:00.000Z","reihung":false}}],"finalDestination":"Frankfurt(Main)Hbf","jid":"1|256792|0|80|18102023","messages":[{"type":"A","code":"FB","prio":260,"icoX":6,"txtN":"Fahrradmitnahme begrenzt möglich"},{"type":"A","code":"EH","prio":560,"icoX":7,"txtN":"Fahrzeuggebundene Einstiegshilfe vorhanden"},{"type":"A","code":"KL","prio":610,"icoX":7,"txtN":"Klimaanlage"},{"type":"M","code":"","icoX":8,"txtS":"RE 4672: Mannheim Hbf->Frankfurt(Main)Hbf: Bauarbeiten.","txtN":"Aufgrund von Bauarbeiten kommt es vom 10. bis 27. Oktober 2023 auf den Linien RE60 und RB67/68 zu geänderten Fahrtzeiten sowie zu Zug- und Teilausfällen. Es wird ein Ersatzverkehr (EV) mit Bussen für Sie eingerichtet Die Mitnahme von Fahrrädern im Bus ist ausgeschlossen. Bitte informieren Sie sich frühzeitig über Ihre geplanten Verbindungen und wählen Sie gegebenenfalls eine frühere Zugverbindung, um Ihre Anschlüsse an Ihren Umsteigebahnhöfen erreichen zu können. Die Fahrplanänderungen zu dieser Baumaßnahme sind in die Online - Fahrplanauskünfte eingearbeitet.","url":"https://him.static-bahn.de/1696265834247_10_23_V01_ZvF_53273_22_10_2023.pdf","sIdx":1},{"type":"M","code":"","icoX":8,"txtS":"RE 4672: Bensheim->Frankfurt(Main)Hbf: Information.","txtN":"Erfahrungsgemäß hat dieser Zug eine hohe Auslastung.","sIdx":1}],"type":"JNY"},{"arrival":{"platform":"1","scheduledTime":"2023-10-18T16:35:00.000Z","time":"2023-10-18T16:35:00.000Z","reihung":false},"departure":{"platform":"15","scheduledTime":"2023-10-18T15:49:00.000Z","time":"2023-10-18T15:49:00.000Z","reihung":false},"duration":2760000,"wings":[{"train":{"name":"RB 40","line":"40","admin":"800535","number":"15124","type":"RB","operator":{"name":"DB Regio AG Mitte","icoX":2}},"segmentStart":{"name":"Frankfurt(Main)Hbf","evaNumber":"8000105"},"segmentDestination":{"name":"Gießen","evaNumber":"8000124"},"stops":[{"station":{"evaNumber":"8000105","name":"Frankfurt(Main)Hbf","coordinates":{"lng":8.663003,"lat":50.106817},"ril100":"FF"},"departure":{"platform":"15","scheduledTime":"2023-10-18T15:49:00.000Z","time":"2023-10-18T15:49:00.000Z","reihung":false}},{"station":{"evaNumber":"8002042","name":"Frankfurt(Main)West","coordinates":{"lng":8.639371,"lat":50.11924},"ril100":"FFW"},"arrival":{"platform":"4","scheduledTime":"2023-10-18T15:53:00.000Z","time":"2023-10-18T15:53:00.000Z","reihung":false}},{"station":{"evaNumber":"8000111","name":"Friedberg(Hess)","coordinates":{"lng":8.761327,"lat":50.332842},"ril100":"FFG"},"arrival":{"platform":"4","scheduledTime":"2023-10-18T16:14:00.000Z","time":"2023-10-18T16:14:00.000Z","reihung":false}},{"station":{"evaNumber":"8000728","name":"Bad Nauheim","coordinates":{"lng":8.749093,"lat":50.367909},"ril100":"FBNA"},"arrival":{"platform":"2","scheduledTime":"2023-10-18T16:19:00.000Z","time":"2023-10-18T16:19:00.000Z","reihung":false}},{"station":{"evaNumber":"8001312","name":"Butzbach","coordinates":{"lng":8.669592,"lat":50.431139}},"arrival":{"platform":"1","scheduledTime":"2023-10-18T16:25:00.000Z","time":"2023-10-18T16:25:00.000Z","reihung":false}},{"station":{"evaNumber":"8000124","name":"Gießen","coordinates":{"lng":8.662842,"lat":50.579371},"ril100":"FG"},"arrival":{"platform":"1","scheduledTime":"2023-10-18T16:35:00.000Z","time":"2023-10-18T16:35:00.000Z","reihung":false}}],"finalDestination":"Dillenburg","jid":"1|351521|3|80|18102023"}],"train":{"name":"RB 41","line":"41","admin":"800535","number":"15024","type":"RB","operator":{"name":"DB Regio AG Mitte","icoX":2}},"segmentStart":{"name":"Frankfurt(Main)Hbf","evaNumber":"8000105"},"segmentDestination":{"name":"Gießen","evaNumber":"8000124"},"stops":[{"station":{"evaNumber":"8000105","name":"Frankfurt(Main)Hbf","coordinates":{"lng":8.663003,"lat":50.106817},"ril100":"FF"},"departure":{"platform":"15","scheduledTime":"2023-10-18T15:49:00.000Z","time":"2023-10-18T15:49:00.000Z","reihung":false}},{"station":{"evaNumber":"8002042","name":"Frankfurt(Main)West","coordinates":{"lng":8.639371,"lat":50.11924},"ril100":"FFW"},"arrival":{"platform":"4","scheduledTime":"2023-10-18T15:53:00.000Z","time":"2023-10-18T15:53:00.000Z","reihung":false},"departure":{"platform":"4","scheduledTime":"2023-10-18T15:54:00.000Z","time":"2023-10-18T15:54:00.000Z","reihung":false}},{"station":{"evaNumber":"8000111","name":"Friedberg(Hess)","coordinates":{"lng":8.761327,"lat":50.332842},"ril100":"FFG"},"arrival":{"platform":"4","scheduledTime":"2023-10-18T16:14:00.000Z","time":"2023-10-18T16:14:00.000Z","reihung":false},"departure":{"platform":"4","scheduledTime":"2023-10-18T16:15:00.000Z","time":"2023-10-18T16:15:00.000Z","reihung":false}},{"station":{"evaNumber":"8000728","name":"Bad Nauheim","coordinates":{"lng":8.749093,"lat":50.367909},"ril100":"FBNA"},"arrival":{"platform":"2","scheduledTime":"2023-10-18T16:19:00.000Z","time":"2023-10-18T16:19:00.000Z","reihung":false},"departure":{"platform":"2","scheduledTime":"2023-10-18T16:20:00.000Z","time":"2023-10-18T16:20:00.000Z","reihung":false}},{"station":{"evaNumber":"8001312","name":"Butzbach","coordinates":{"lng":8.669592,"lat":50.431139}},"arrival":{"platform":"1","scheduledTime":"2023-10-18T16:25:00.000Z","time":"2023-10-18T16:25:00.000Z","reihung":false},"departure":{"platform":"1","scheduledTime":"2023-10-18T16:26:00.000Z","time":"2023-10-18T16:26:00.000Z","reihung":false}},{"station":{"evaNumber":"8000124","name":"Gießen","coordinates":{"lng":8.662842,"lat":50.579371},"ril100":"FG"},"arrival":{"platform":"1","scheduledTime":"2023-10-18T16:35:00.000Z","time":"2023-10-18T16:35:00.000Z","reihung":false}}],"finalDestination":"Treysa","jid":"1|251095|0|80|18102023","messages":[{"type":"A","code":"FB","prio":260,"icoX":6,"txtN":"Fahrradmitnahme begrenzt möglich"},{"type":"A","code":"EH","prio":560,"icoX":7,"txtN":"Fahrzeuggebundene Einstiegshilfe vorhanden"},{"type":"A","code":"KL","prio":610,"icoX":7,"txtN":"Klimaanlage"}],"type":"JNY"}],"segmentTypes":["S","RE","RB"]},{"checksum":"b09275d2_3","cid":"C-6","date":"2023-10-17T22:00:00.000Z","duration":6420000,"changes":0,"isRideable":true,"arrival":{"platform":"2","scheduledTime":"2023-10-18T15:33:00.000Z","time":"2023-10-18T15:33:00.000Z","reihung":false},"departure":{"platform":"3","scheduledTime":"2023-10-18T13:46:00.000Z","time":"2023-10-18T13:46:00.000Z","reihung":false},"segments":[{"arrival":{"platform":"2","scheduledTime":"2023-10-18T15:33:00.000Z","time":"2023-10-18T15:33:00.000Z","reihung":false},"departure":{"platform":"3","scheduledTime":"2023-10-18T13:46:00.000Z","time":"2023-10-18T13:46:00.000Z","reihung":false},"duration":6420000,"train":{"name":"ICE 1574","line":"26","admin":"80","number":"1574","type":"ICE","operator":{"name":"DB Fernverkehr AG","icoX":12}},"segmentStart":{"name":"Heidelberg Hbf","evaNumber":"8000156"},"segmentDestination":{"name":"Gießen","evaNumber":"8000124"},"stops":[{"station":{"evaNumber":"8000156","name":"Heidelberg Hbf","coordinates":{"lng":8.67548,"lat":49.403582},"ril100":"RH"},"departure":{"platform":"3","scheduledTime":"2023-10-18T13:46:00.000Z","time":"2023-10-18T13:46:00.000Z","reihung":false},"auslastung":{"first":1,"second":1}},{"station":{"evaNumber":"8000377","name":"Weinheim(Bergstr)Hbf","coordinates":{"lng":8.66561,"lat":49.553738},"ril100":"RWE"},"arrival":{"platform":"2","scheduledTime":"2023-10-18T13:58:00.000Z","time":"2023-10-18T13:58:00.000Z","reihung":false},"departure":{"platform":"2","scheduledTime":"2023-10-18T14:00:00.000Z","time":"2023-10-18T14:00:00.000Z","reihung":false},"auslastung":{"first":1,"second":1}},{"station":{"evaNumber":"8000031","name":"Bensheim","coordinates":{"lng":8.616646,"lat":49.68142},"ril100":"FBH"},"arrival":{"platform":"1","scheduledTime":"2023-10-18T14:08:00.000Z","time":"2023-10-18T14:08:00.000Z","reihung":false},"departure":{"platform":"1","scheduledTime":"2023-10-18T14:09:00.000Z","time":"2023-10-18T14:09:00.000Z","reihung":false},"auslastung":{"first":1,"second":1}},{"station":{"evaNumber":"8000068","name":"Darmstadt Hbf","coordinates":{"lng":8.629707,"lat":49.872549},"ril100":"FD"},"arrival":{"platform":"5","scheduledTime":"2023-10-18T14:22:00.000Z","time":"2023-10-18T14:22:00.000Z","reihung":false},"departure":{"platform":"5","scheduledTime":"2023-10-18T14:24:00.000Z","time":"2023-10-18T14:24:00.000Z","reihung":false},"auslastung":{"first":1,"second":1}},{"station":{"evaNumber":"8000105","name":"Frankfurt(Main)Hbf","coordinates":{"lng":8.663003,"lat":50.106817},"ril100":"FF"},"arrival":{"platform":"12","scheduledTime":"2023-10-18T14:40:00.000Z","time":"2023-10-18T14:40:00.000Z","reihung":false},"departure":{"platform":"12","scheduledTime":"2023-10-18T14:48:00.000Z","time":"2023-10-18T14:48:00.000Z","reihung":false}},{"station":{"evaNumber":"8002042","name":"Frankfurt(Main)West","coordinates":{"lng":8.639371,"lat":50.11924},"ril100":"FFW"},"arrival":{"platform":"4","scheduledTime":"2023-10-18T14:53:00.000Z","time":"2023-10-18T14:53:00.000Z","reihung":false},"departure":{"platform":"4","scheduledTime":"2023-10-18T14:54:00.000Z","time":"2023-10-18T14:54:00.000Z","reihung":false},"auslastung":{"first":2,"second":2}},{"station":{"evaNumber":"8000111","name":"Friedberg(Hess)","coordinates":{"lng":8.761327,"lat":50.332842},"ril100":"FFG"},"arrival":{"platform":"4","scheduledTime":"2023-10-18T15:15:00.000Z","time":"2023-10-18T15:15:00.000Z","reihung":false},"departure":{"platform":"4","scheduledTime":"2023-10-18T15:16:00.000Z","time":"2023-10-18T15:16:00.000Z","reihung":false},"auslastung":{"first":3,"second":2}},{"station":{"evaNumber":"8000124","name":"Gießen","coordinates":{"lng":8.662842,"lat":50.579371},"ril100":"FG"},"arrival":{"platform":"2","scheduledTime":"2023-10-18T15:33:00.000Z","time":"2023-10-18T15:33:00.000Z","reihung":false}}],"finalDestination":"Hamburg-Altona","jid":"1|198181|0|80|18102023","auslastung":{"first":3,"second":2},"messages":[{"type":"A","code":"CK","prio":200,"icoX":7,"txtN":"Sicher & kontaktlos ohne Ticketkontrolle reisen mit Komfort Check-in"},{"type":"A","code":"FR","prio":260,"icoX":17,"txtN":"Fahrradmitnahme reservierungspflichtig"},{"type":"A","code":"FB","prio":260,"icoX":6,"txtN":"Fahrradmitnahme begrenzt möglich"},{"type":"A","code":"BR","prio":450,"icoX":18,"txtN":"Bordrestaurant"}],"type":"JNY"}],"segmentTypes":["ICE"]}]}