{"context":{"earlier":"3|OB|MT#14#451606#451602#452035#452035#0#0#66421#451576#1#0#3#0#0#-2147483648#1#2|PDH#bbe10b32f5270e429a5a473728022d1b|RD#18102023|RT#141653|US#0|RS#INIT","later":"3|OF|MT#14#451690#451690#452095#452095#0#0#565#451607#6#0#27#0#0#-2147483648#1#2|PDH#bbe10b32f5270e429a5a473728022d1b|RD#18102023|RT#141653|US#0|RS#INIT"},"routes":[{"checksum":"48f798ae_3","cid":"C-0","date":"2023-10-17T22:00:00.000Z","duration":25980000,"changes":3,"isRideable":true,"arrival":{"platform":"5","scheduledTime":"2023-10-18T19:55:00.000Z","time":"2023-10-18T19:55:00.000Z","reihung":false},"departure":{"platform":"5","scheduledTime":"2023-10-18T12:42:00.000Z","time":"2023-10-18T12:42:00.000Z","reihung":false},"segments":[{"arrival":{"platform":"1","scheduledTime":"2023-10-18T13:01:00.000Z","time":"2023-10-18T13:01:00.000Z","reihung":false},"departure":{"platform":"5","scheduledTime":"2023-10-18T12:42:00.000Z","time":"2023-10-18T12:42:00.000Z","reihung":false},"duration":1140000,"train":{"name":"S 3","line":"3","admin":"801539","number":"38336","type":"S","operator":{"name":"DB Regio AG Mitte","icoX":2}},"changeDuration":15,"segmentStart":{"name":"Heidelberg Hbf","evaNumber":"8000156"},"segmentDestination":{"name":"Mannheim Hbf","evaNumber":"8000244"},"stops":[{"station":{"evaNumber":"8000156","name":"Heidelberg Hbf","coordinates":{"lng":8.67548,"lat":49.403582},"ril100":"RH"},"departure":{"platform":"5","scheduledTime":"2023-10-18T12:42:00.000Z","time":"2023-10-18T12:42:00.000Z","reihung":false}},{"station":{"evaNumber":"8002687","name":"Heidelberg-Pfaffengrund/Wieblingen","coordinates":{"lng":8.641474,"lat":49.411969},"ril100":"RHBP"},"arrival":{"platform":"1","scheduledTime":"2023-10-18T12:45:00.000Z","time":"2023-10-18T12:45:00.000Z","reihung":false},"departure":{"platform":"1","scheduledTime":"2023-10-18T12:45:00.000Z","time":"2023-10-18T12:45:00.000Z","reihung":false}},{"station":{"evaNumber":"8003842","name":"Mannheim-Friedrichsfeld Süd","coordinates":{"lng":8.572239,"lat":49.438217},"ril100":"RMFS"},"arrival":{"platform":"1","scheduledTime":"2023-10-18T12:49:00.000Z","time":"2023-10-18T12:49:00.000Z","reihung":false},"departure":{"platform":"1","scheduledTime":"2023-10-18T12:49:00.000Z","time":"2023-10-18T12:49:00.000Z","reihung":false}},{"station":{"evaNumber":"8003847","name":"Mannheim-Seckenheim","coordinates":{"lng":8.538098,"lat":49.451413},"ril100":"RMSE"},"arrival":{"platform":"1","scheduledTime":"2023-10-18T12:52:00.000Z","time":"2023-10-18T12:52:00.000Z","reihung":false},"departure":{"platform":"1","scheduledTime":"2023-10-18T12:53:00.000Z","time":"2023-10-18T12:53:00.000Z","reihung":false}},{"station":{"evaNumber":"8003841","name":"Mannheim ARENA/Maimarkt","coordinates":{"lng":8.515922,"lat":49.45998},"ril100":"RMSM"},"arrival":{"platform":"1","scheduledTime":"2023-10-18T12:55:00.000Z","time":"2023-10-18T12:55:00.000Z","reihung":false},"departure":{"platform":"1","scheduledTime":"2023-10-18T12:55:00.000Z","time":"2023-10-18T12:55:00.000Z","reihung":false}},{"station":{"evaNumber":"8000244","name":"Mannheim Hbf","coordinates":{"lng":8.469268,"lat":49.479181},"ril100":"RM"},"arrival":{"platform":"1","scheduledTime":"2023-10-18T13:01:00.000Z","time":"2023-10-18T13:01:00.000Z","reihung":false}}],"finalDestination":"Schifferstadt","jid":"1|254211|0|80|18102023","messages":[{"type":"A","code":"FB","prio":260,"icoX":5,"txtN":"Fahrradmitnahme begrenzt möglich"},{"type":"A","code":"EH","prio":560,"icoX":6,"txtN":"Fahrzeuggebundene Einstiegshilfe vorhanden"}],"type":"JNY"},{"arrival":{"platform":"3","scheduledTime":"2023-10-18T17:46:00.000Z","time":"2023-10-18T17:46:00.000Z","reihung":false},"departure":{"platform":"3","scheduledTime":"2023-10-18T13:16:00.000Z","time":"2023-10-18T13:16:00.000Z","reihung":false},"duration":16200000,"train":{"name":"ICE 72","line":"20","admin":"80","number":"72","type":"ICE","operator":{"name":"DB Fernverkehr AG","icoX":7}},"changeDuration":17,"segmentStart":{"name":"Mannheim Hbf","evaNumber":"8000244"},"segmentDestination":{"name":"Lutherstadt Wittenberg Hbf","evaNumber":"8010222"},"stops":[{"station":{"evaNumber":"8000244","name":"Mannheim Hbf","coordinates":{"lng":8.469268,"lat":49.479181},"ril100":"RM"},"departure":{"platform":"3","scheduledTime":"2023-10-18T13:16:00.000Z","time":"2023-10-18T13:16:00.000Z","reihung":false},"auslastung":{"first":2,"second":1}},{"station":{"evaNumber":"8000105","name":"Frankfurt(Main)Hbf","coordinates":{"lng":8.663003,"lat":50.106817},"ril100":"FF"},"arrival":{"platform":"8","scheduledTime":"2023-10-18T13:52:00.000Z","time":"2023-10-18T13:52:00.000Z","reihung":false},"departure":{"platform":"8","scheduledTime":"2023-10-18T13:58:00.000Z","time":"2023-10-18T13:58:00.000Z","reihung":false},"auslastung":{"first":2,"second":2}},{"station":{"evaNumber":"8000150","name":"Hanau Hbf","coordinates":{"lng":8.92921,"lat":50.120903},"ril100":"FH"},"arrival":{"platform":"7","scheduledTime":"2023-10-18T14:12:00.000Z","time":"2023-10-18T14:12:00.000Z","reihung":false},"departure":{"platform":"7","scheduledTime":"2023-10-18T14:14:00.000Z","time":"2023-10-18T14:14:00.000Z","reihung":false},"auslastung":{"first":2,"second":2}},{"station":{"evaNumber":"8000115","name":"Fulda","coordinates":{"lng":9.684178,"lat":50.554794},"ril100":"FFU"},"arrival":{"platform":"6","scheduledTime":"2023-10-18T14:58:00.000Z","time":"2023-10-18T14:58:00.000Z","reihung":false},"departure":{"platform":"6","scheduledTime":"2023-10-18T15:08:00.000Z","time":"2023-10-18T15:08:00.000Z","reihung":false},"auslastung":{"first":2,"second":2}},{"station":{"evaNumber":"8010097","name":"Eisenach","coordinates":{"lng":10.33212,"lat":50.976928},"ril100":"UEI"},"arrival":{"platform":"4","scheduledTime":"2023-10-18T16:00:00.000Z","time":"2023-10-18T16:00:00.000Z","reihung":false},"departure":{"platform":"4","scheduledTime":"2023-10-18T16:01:00.000Z","time":"2023-10-18T16:01:00.000Z","reihung":false},"auslastung":{"first":2,"second":2}},{"station":{"evaNumber":"8010101","name":"Erfurt Hbf","coordinates":{"lng":11.038502,"lat":50.97255},"ril100":"UE  P"},"arrival":{"platform":"10","scheduledTime":"2023-10-18T16:26:00.000Z","time":"2023-10-18T16:26:00.000Z","reihung":false},"departure":{"platform":"10","scheduledTime":"2023-10-18T16:28:00.000Z","time":"2023-10-18T16:28:00.000Z","reihung":false},"auslastung":{"first":2,"second":2}},{"station":{"evaNumber":"8010205","name":"Leipzig Hbf","coordinates":{"lng":12.381167,"lat":51.345081},"ril100":"LL"},"arrival":{"platform":"13","scheduledTime":"2023-10-18T17:10:00.000Z","time":"2023-10-18T17:10:00.000Z","reihung":false},"departure":{"platform":"13","scheduledTime":"2023-10-18T17:16:00.000Z","time":"2023-10-18T17:16:00.000Z","reihung":false},"auslastung":{"first":1,"second":1}},{"station":{"evaNumber":"8010222","name":"Lutherstadt Wittenberg Hbf","coordinates":{"lng":12.661999,"lat":51.867579},"ril100":"LW"},"arrival":{"platform":"3","scheduledTime":"2023-10-18T17:46:00.000Z","time":"2023-10-18T17:46:00.000Z","reihung":false}}],"finalDestination":"Berlin Hbf (tief)","jid":"1|209311|0|80|18102023","auslastung":{"first":2,"second":2},"messages":[{"type":"A","code":"CK","prio":200,"icoX":6,"txtN":"Sicher & kontaktlos ohne Ticketkontrolle reisen mit Komfort Check-in"},{"type":"A","code":"FR","prio":260,"icoX":8,"txtN":"Fahrradmitnahme reservierungspflichtig"},{"type":"A","code":"FB","prio":260,"icoX":5,"txtN":"Fahrradmitnahme begrenzt möglich"},{"type":"A","code":"BR","prio":450,"icoX":9,"txtN":"Bordrestaurant"},{"type":"A","code":"EH","prio":560,"icoX":6,"txtN":"Fahrzeuggebundene Einstiegshilfe vorhanden"}],"type":"JNY"},{"arrival":{"platform":"4","scheduledTime":"2023-10-18T18:47:00.000Z","time":"2023-10-18T18:47:00.000Z","reihung":false},"departure":{"platform":"3","scheduledTime":"2023-10-18T18:03:00.000Z","time":"2023-10-18T18:03:00.000Z","reihung":false},"duration":2640000,"train":{"name":"RB 51","line":"51","admin":"8004A9","number":"16483","type":"RB","operator":{"name":"DB Regio AG Südost","icoX":11}},"changeDuration":8,"segmentStart":{"name":"Lutherstadt Wittenberg Hbf","evaNumber":"8010222"},"segmentDestination":{"name":"Falkenberg(Elster)","evaNumber":"8010103"},"stops":[{"station":{"evaNumber":"8010222","name":"Lutherstadt Wittenberg Hbf","coordinates":{"lng":12.661999,"lat":51.867579},"ril100":"LW"},"departure":{"platform":"3","scheduledTime":"2023-10-18T18:03:00.000Z","time":"2023-10-18T18:03:00.000Z","reihung":false}},{"station":{"evaNumber":"8013275","name":"Lutherstadt Wittenberg-Labetz","coordinates":{"lng":12.694405,"lat":51.871435},"ril100":"LWND"},"arrival":{"platform":"1","scheduledTime":"2023-10-18T18:06:00.000Z","time":"2023-10-18T18:06:00.000Z","reihung":false},"departure":{"platform":"1","scheduledTime":"2023-10-18T18:06:00.000Z","time":"2023-10-18T18:06:00.000Z","reihung":false}},{"station":{"evaNumber":"8012393","name":"Mühlanger","coordinates":{"lng":12.747531,"lat":51.855857},"ril100":"LMUA"},"arrival":{"platform":"1","scheduledTime":"2023-10-18T18:09:00.000Z","time":"2023-10-18T18:09:00.000Z","reihung":false},"departure":{"platform":"1","scheduledTime":"2023-10-18T18:10:00.000Z","time":"2023-10-18T18:10:00.000Z","reihung":false}},{"station":{"evaNumber":"8011486","name":"Elster(Elbe)","coordinates":{"lng":12.827292,"lat":51.832422},"ril100":"LELT"},"arrival":{"platform":"1","scheduledTime":"2023-10-18T18:14:00.000Z","time":"2023-10-18T18:14:00.000Z","reihung":false},"departure":{"platform":"1","scheduledTime":"2023-10-18T18:15:00.000Z","time":"2023-10-18T18:15:00.000Z","reihung":false}},{"station":{"evaNumber":"8011960","name":"Jessen(Elster)","coordinates":{"lng":12.954571,"lat":51.792843},"ril100":"LJN"},"arrival":{"platform":"1","scheduledTime":"2023-10-18T18:22:00.000Z","time":"2023-10-18T18:22:00.000Z","reihung":false},"departure":{"platform":"1","scheduledTime":"2023-10-18T18:23:00.000Z","time":"2023-10-18T18:23:00.000Z","reihung":false}},{"station":{"evaNumber":"8011048","name":"Annaburg","coordinates":{"lng":13.033019,"lat":51.728588}},"arrival":{"platform":"2","scheduledTime":"2023-10-18T18:30:00.000Z","time":"2023-10-18T18:30:00.000Z","reihung":false},"departure":{"platform":"2","scheduledTime":"2023-10-18T18:31:00.000Z","time":"2023-10-18T18:31:00.000Z","reihung":false}},{"station":{"evaNumber":"8011537","name":"Fermerswalde","coordinates":{"lng":13.173665,"lat":51.643091},"ril100":"LFMW"},"arrival":{"platform":"1","scheduledTime":"2023-10-18T18:40:00.000Z","time":"2023-10-18T18:40:00.000Z","reihung":false},"departure":{"platform":"1","scheduledTime":"2023-10-18T18:40:00.000Z","time":"2023-10-18T18:40:00.000Z","reihung":false}},{"station":{"evaNumber":"8010103","name":"Falkenberg(Elster)","coordinates":{"lng":13.248877,"lat":51.583079},"ril100":"LF"},"arrival":{"platform":"4","scheduledTime":"2023-10-18T18:47:00.000Z","time":"2023-10-18T18:47:00.000Z","reihung":false}}],"finalDestination":"Falkenberg(Elster)","jid":"1|242349|0|80|18102023","messages":[{"type":"A","code":"FB","prio":260,"icoX":5,"txtN":"Fahrradmitnahme begrenzt möglich"},{"type":"A","code":"EH","prio":560,"icoX":6,"txtN":"Fahrzeuggebundene Einstiegshilfe vorhanden"},{"type":"A","code":"LS","prio":605,"icoX":6,"txtN":"Laptop-Steckdosen"},{"type":"A","code":"WV","prio":710,"icoX":6,"txtN":"WLAN verfügbar"}],"type":"JNY"},{"arrival":{"platform":"5","scheduledTime":"2023-10-18T19:55:00.000Z","time":"2023-10-18T19:55:00.000Z","reihung":false},"departure":{"platform":"7","scheduledTime":"2023-10-18T18:55:00.000Z","time":"2023-10-18T18:55:00.000Z","reihung":false},"duration":3600000,"train":{"name":"RB 43","line":"43","admin":"800166","number":"18198","type":"RB","operator":{"name":"DB Regio AG Nordost","icoX":12}},"segmentStart":{"name":"Falkenberg(Elster)","evaNumber":"8010103"},"segmentDestination":{"name":"Cottbus Hbf","evaNumber":"8010073"},"stops":[{"station":{"evaNumber":"8010103","name":"Falkenberg(Elster)","coordinates":{"lng":13.248877,"lat":51.583079},"ril100":"LF"},"departure":{"platform":"7","scheduledTime":"2023-10-18T18:55:00.000Z","time":"2023-10-18T18:55:00.000Z","reihung":false}},{"station":{"evaNumber":"8013160","name":"Uebigau","coordinates":{"lng":13.296547,"lat":51.585408},"ril100":"LUEB"},"arrival":{"platform":"2","scheduledTime":"2023-10-18T18:59:00.000Z","time":"2023-10-18T18:59:00.000Z","reihung":false},"departure":{"platform":"2","scheduledTime":"2023-10-18T19:00:00.000Z","time":"2023-10-18T19:00:00.000Z","reihung":false}},{"station":{"evaNumber":"8011179","name":"Beutersitz","coordinates":{"lng":13.360865,"lat":51.590271},"ril100":"BBE"},"arrival":{"platform":"1","scheduledTime":"2023-10-18T19:03:00.000Z","time":"2023-10-18T19:03:00.000Z","reihung":false},"departure":{"platform":"1","scheduledTime":"2023-10-18T19:04:00.000Z","time":"2023-10-18T19:04:00.000Z","reihung":false}},{"station":{"evaNumber":"8012903","name":"Schönborn(Doberl)","coordinates":{"lng":13.468061,"lat":51.601993}},"arrival":{"platform":"1","scheduledTime":"2023-10-18T19:09:00.000Z","time":"2023-10-18T19:09:00.000Z","reihung":false},"departure":{"platform":"1","scheduledTime":"2023-10-18T19:09:00.000Z","time":"2023-10-18T19:09:00.000Z","reihung":false}},{"station":{"evaNumber":"8010079","name":"Doberlug-Kirchhain","coordinates":{"lng":13.564273,"lat":51.620798},"ril100":"BDKO"},"arrival":{"platform":"4","scheduledTime":"2023-10-18T19:14:00.000Z","time":"2023-10-18T19:14:00.000Z","reihung":false},"departure":{"platform":"4","scheduledTime":"2023-10-18T19:15:00.000Z","time":"2023-10-18T19:15:00.000Z","reihung":false}},{"station":{"evaNumber":"8011542","name":"Finsterwalde(Niederlausitz)","coordinates":{"lng":13.710411,"lat":51.636997},"ril100":"BFW"},"arrival":{"platform":"1","scheduledTime":"2023-10-18T19:21:00.000Z","time":"2023-10-18T19:21:00.000Z","reihung":false},"departure":{"platform":"1","scheduledTime":"2023-10-18T19:22:00.000Z","time":"2023-10-18T19:22:00.000Z","reihung":false}},{"station":{"evaNumber":"8011667","name":"Gollmitz(Niederlausitz)","coordinates":{"lng":13.883965,"lat":51.703409},"ril100":"BGM"},"arrival":{"platform":"2","scheduledTime":"2023-10-18T19:31:00.000Z","time":"2023-10-18T19:31:00.000Z","reihung":false},"departure":{"platform":"2","scheduledTime":"2023-10-18T19:32:00.000Z","time":"2023-10-18T19:32:00.000Z","reihung":false}},{"station":{"evaNumber":"8010069","name":"Calau(Nl)","coordinates":{"lng":13.979673,"lat":51.738107}},"arrival":{"platform":"3","scheduledTime":"2023-10-18T19:37:00.000Z","time":"2023-10-18T19:37:00.000Z","reihung":false},"departure":{"platform":"3","scheduledTime":"2023-10-18T19:38:00.000Z","time":"2023-10-18T19:38:00.000Z","reihung":false}},{"station":{"evaNumber":"8012084","name":"Kolkwitz Süd","coordinates":{"lng":14.242194,"lat":51.746926},"ril100":"BKOS"},"arrival":{"platform":"2","scheduledTime":"2023-10-18T19:49:00.000Z","time":"2023-10-18T19:49:00.000Z","reihung":false},"departure":{"platform":"2","scheduledTime":"2023-10-18T19:50:00.000Z","time":"2023-10-18T19:50:00.000Z","reihung":false}},{"station":{"evaNumber":"8010073","name":"Cottbus Hbf","coordinates":{"lng":14.323673,"lat":51.751133},"ril100":"BCS"},"arrival":{"platform":"5","scheduledTime":"2023-10-18T19:55:00.000Z","time":"2023-10-18T19:55:00.000Z","reihung":false}}],"finalDestination":"Frankfurt(Oder)","jid":"1|214744|0|80|18102023","messages":[{"type":"A","code":"FB","prio":260,"icoX":5,"txtN":"Fahrradmitnahme begrenzt möglich"},{"type":"A","code":"EH","prio":560,"icoX":6,"txtN":"Fahrzeuggebundene Einstiegshilfe vorhanden"}],"type":"JNY"}],"segmentTypes":["S","ICE","RB","RB"]},{"checksum":"5cf0ba5b_3","cid":"C-1","date":"2023-10-17T22:00:00.000Z","duration":28260000,"changes":2,"isRideable":true,"arrival":{"platform":"3","scheduledTime":"2023-10-18T20:33:00.000Z","time":"2023-10-18T20:33:00.000Z","reihung":false},"departure":{"platform":"5","scheduledTime":"2023-10-18T12:42:00.000Z","time":"2023-10-18T12:42:00.000Z","reihung":false},"segments":[{"arrival":{"platform":"1","scheduledTime":"2023-10-18T13:01:00.000Z","time":"2023-10-18T13:01:00.000Z","reihung":false},"departure":{"platform":"5","scheduledTime":"2023-10-18T12:42:00.000Z","time":"2023-10-18T12:42:00.000Z","reihung":false},"duration":1140000,"train":{"name":"S 3","line":"3","admin":"801539","number":"38336","type":"S","operator":{"name":"DB Regio AG Mitte","icoX":2}},"changeDuration":15,"segmentStart":{"name":"Heidelberg Hbf","evaNumber":"8000156"},"segmentDestination":{"name":"Mannheim Hbf","evaNumber":"8000244"},"stops":[{"station":{"evaNumber":"8000156","name":"Heidelberg Hbf","coordinates":{"lng":8.67548,"lat":49.403582},"ril100":"RH"},"departure":{"platform":"5","scheduledTime":"2023-10-18T12:42:00.000Z","time":"2023-10-18T12:42:00.000Z","reihung":false}},{"station":{"evaNumber":"8002687","name":"Heidelberg-Pfaffengrund/Wieblingen","coordinates":{"lng":8.641474,"lat":49.411969},"ril100":"RHBP"},"arrival":{"platform":"1","scheduledTime":"2023-10-18T12:45:00.000Z","time":"2023-10-18T12:45:00.000Z","reihung":false},"departure":{"platform":"1","scheduledTime":"2023-10-18T12:45:00.000Z","time":"2023-10-18T12:45:00.000Z","reihung":false}},{"station":{"evaNumber":"8003842","name":"Mannheim-Friedrichsfeld Süd","coordinates":{"lng":8.572239,"lat":49.438217},"ril100":"RMFS"},"arrival":{"platform":"1","scheduledTime":"2023-10-18T12:49:00.000Z","time":"2023-10-18T12:49:00.000Z","reihung":false},"departure":{"platform":"1","scheduledTime":"2023-10-18T12:49:00.000Z","time":"2023-10-18T12:49:00.000Z","reihung":false}},{"station":{"evaNumber":"8003847","name":"Mannheim-Seckenheim","coordinates":{"lng":8.538098,"lat":49.451413},"ril100":"RMSE"},"arrival":{"platform":"1","scheduledTime":"2023-10-18T12:52:00.000Z","time":"2023-10-18T12:52:00.000Z","reihung":false},"departure":{"platform":"1","scheduledTime":"2023-10-18T12:53:00.000Z","time":"2023-10-18T12:53:00.000Z","reihung":false}},{"station":{"evaNumber":"8003841","name":"Mannheim ARENA/Maimarkt","coordinates":{"lng":8.515922,"lat":49.45998},"ril100":"RMSM"},"arrival":{"platform":"1","scheduledTime":"2023-10-18T12:55:00.000Z","time":"2023-10-18T12:55:00.000Z","reihung":false},"departure":{"platform":"1","scheduledTime":"2023-10-18T12:55:00.000Z","time":"2023-10-18T12:55:00.000Z","reihung":false}},{"station":{"evaNumber":"8000244","name":"Mannheim Hbf","coordinates":{"lng":8.469268,"lat":49.479181},"ril100":"RM"},"arrival":{"platform":"1","scheduledTime":"2023-10-18T13:01:00.000Z","time":"2023-10-18T13:01:00.000Z","reihung":false}}],"finalDestination":"Schifferstadt","jid":"1|254211|0|80|18102023","messages":[{"type":"A","code":"FB","prio":260,"icoX":5,"txtN":"Fahrradmitnahme begrenzt möglich"},{"type":"A","code":"EH","prio":560,"icoX":6,"txtN":"Fahrzeuggebundene Einstiegshilfe vorhanden"}],"type":"JNY"},{"arrival":{"platform":"7","scheduledTime":"2023-10-18T18:32:00.000Z","time":"2023-10-18T18:32:00.000Z","reihung":false},"departure":{"platform":"3","scheduledTime":"2023-10-18T13:16:00.000Z","time":"2023-10-18T13:16:00.000Z","reihung":false},"duration":18960000,"train":{"name":"ICE 72","line":"20","admin":"80","number":"72","type":"ICE","operator":{"name":"DB Fernverkehr AG","icoX":7}},"changeDuration":14,"segmentStart":{"name":"Mannheim Hbf","evaNumber":"8000244"},"segmentDestination":{"name":"Berlin Hbf (tief)","evaNumber":"8098160"},"stops":[{"station":{"evaNumber":"8000244","name":"Mannheim Hbf","coordinates":{"lng":8.469268,"lat":49.479181},"ril100":"RM"},"departure":{"platform":"3","scheduledTime":"2023-10-18T13:16:00.000Z","time":"2023-10-18T13:16:00.000Z","reihung":false},"auslastung":{"first":2,"second":1}},{"station":{"evaNumber":"8000105","name":"Frankfurt(Main)Hbf","coordinates":{"lng":8.663003,"lat":50.106817},"ril100":"FF"},"arrival":{"platform":"8","scheduledTime":"2023-10-18T13:52:00.000Z","time":"2023-10-18T13:52:00.000Z","reihung":false},"departure":{"platform":"8","scheduledTime":"2023-10-18T13:58:00.000Z","time":"2023-10-18T13:58:00.000Z","reihung":false},"auslastung":{"first":2,"second":2}},{"station":{"evaNumber":"8000150","name":"Hanau Hbf","coordinates":{"lng":8.92921,"lat":50.120903},"ril100":"FH"},"arrival":{"platform":"7","scheduledTime":"2023-10-18T14:12:00.000Z","time":"2023-10-18T14:12:00.000Z","reihung":false},"departure":{"platform":"7","scheduledTime":"2023-10-18T14:14:00.000Z","time":"2023-10-18T14:14:00.000Z","reihung":false},"auslastung":{"first":2,"second":2}},{"station":{"evaNumber":"8000115","name":"Fulda","coordinates":{"lng":9.684178,"lat":50.554794},"ril100":"FFU"},"arrival":{"platform":"6","scheduledTime":"2023-10-18T14:58:00.000Z","time":"2023-10-18T14:58:00.000Z","reihung":false},"departure":{"platform":"6","scheduledTime":"2023-10-18T15:08:00.000Z","time":"2023-10-18T15:08:00.000Z","reihung":false},"auslastung":{"first":2,"second":2}},{"station":{"evaNumber":"8010097","name":"Eisenach","coordinates":{"lng":10.33212,"lat":50.976928},"ril100":"UEI"},"arrival":{"platform":"4","scheduledTime":"2023-10-18T16:00:00.000Z","time":"2023-10-18T16:00:00.000Z","reihung":false},"departure":{"platform":"4","scheduledTime":"2023-10-18T16:01:00.000Z","time":"2023-10-18T16:01:00.000Z","reihung":false},"auslastung":{"first":2,"second":2}},{"station":{"evaNumber":"8010101","name":"Erfurt Hbf","coordinates":{"lng":11.038502,"lat":50.97255},"ril100":"UE  P"},"arrival":{"platform":"10","scheduledTime":"2023-10-18T16:26:00.000Z","time":"2023-10-18T16:26:00.000Z","reihung":false},"departure":{"platform":"10","scheduledTime":"2023-10-18T16:28:00.000Z","time":"2023-10-18T16:28:00.000Z","reihung":false},"auslastung":{"first":2,"second":2}},{"station":{"evaNumber":"8010205","name":"Leipzig Hbf","coordinates":{"lng":12.381167,"lat":51.345081},"ril100":"LL"},"arrival":{"platform":"13","scheduledTime":"2023-10-18T17:10:00.000Z","time":"2023-10-18T17:10:00.000Z","reihung":false},"departure":{"platform":"13","scheduledTime":"2023-10-18T17:16:00.000Z","time":"2023-10-18T17:16:00.000Z","reihung":false},"auslastung":{"first":1,"second":1}},{"station":{"evaNumber":"8010222","name":"Lutherstadt Wittenberg Hbf","coordinates":{"lng":12.661999,"lat":51.867579},"ril100":"LW"},"arrival":{"platform":"3","scheduledTime":"2023-10-18T17:46:00.000Z","time":"2023-10-18T17:46:00.000Z","reihung":false},"departure":{"platform":"3","scheduledTime":"2023-10-18T17:48:00.000Z","time":"2023-10-18T17:48:00.000Z","reihung":false},"auslastung":{"first":1,"second":1}},{"station":{"evaNumber":"8011113","name":"Berlin Südkreuz","coordinates":{"lng":13.365863,"lat":52.47623},"ril100":"BPAF"},"arrival":{"platform":"8","scheduledTime":"2023-10-18T18:25:00.000Z","time":"2023-10-18T18:25:00.000Z","reihung":false}},{"station":{"evaNumber":"8098160","name":"Berlin Hbf (tief)","coordinates":{"lng":13.368892,"lat":52.52585},"ril100":"BL"},"arrival":{"platform":"7","scheduledTime":"2023-10-18T18:32:00.000Z","time":"2023-10-18T18:32:00.000Z","reihung":false}}],"finalDestination":"Berlin Hbf (tief)","jid":"1|209311|0|80|18102023","auslastung":{"first":2,"second":2},"messages":[{"type":"A","code":"CK","prio":200,"icoX":6,"txtN":"Sicher & kontaktlos ohne Ticketkontrolle reisen mit Komfort Check-in"},{"type":"A","code":"FR","prio":260,"icoX":8,"txtN":"Fahrradmitnahme reservierungspflichtig"},{"type":"A","code":"FB","prio":260,"icoX":5,"txtN":"Fahrradmitnahme begrenzt möglich"},{"type":"A","code":"BR","prio":450,"icoX":9,"txtN":"Bordrestaurant"},{"type":"A","code":"EH","prio":560,"icoX":6,"txtN":"Fahrzeuggebundene Einstiegshilfe vorhanden"}],"type":"JNY"},{"type":"WALK","train":{"name":"Fußweg","type":"Fußweg"},"arrival":{"scheduledTime":"2023-10-18T18:41:00.000Z","time":"2023-10-18T18:41:00.000Z","reihung":false},"departure":{"scheduledTime":"2023-10-18T18:32:00.000Z","time":"2023-10-18T18:32:00.000Z","reihung":false},"duration":540000,"segmentStart":{"evaNumber":"8098160","name":"Berlin Hbf (tief)","coordinates":{"lng":13.368892,"lat":52.52585},"ril100":"BL"},"segmentDestination":{"evaNumber":"8011160","name":"Berlin Hbf","coordinates":{"lng":13.369629,"lat":52.524924},"ril100":"BLS"}},{"arrival":{"platform":"3","scheduledTime":"2023-10-18T20:33:00.000Z","time":"2023-10-18T20:33:00.000Z","reihung":false},"departure":{"platform":"12","scheduledTime":"2023-10-18T18:46:00.000Z","time":"2023-10-18T18:46:00.000Z","reihung":false},"duration":6420000,"train":{"name":"RE 7","line":"7","admin":"800165","number":"3734","type":"RE","operator":{"name":"DB Regio AG Nordost","icoX":12}},"segmentStart":{"name":"Berlin Hbf","evaNumber":"8011160"},"segmentDestination":{"name":"Cottbus Hbf","evaNumber":"8010073"},"stops":[{"station":{"evaNumber":"8011160","name":"Berlin Hbf","coordinates":{"lng":13.369629,"lat":52.524924},"ril100":"BLS"},"departure":{"platform":"12","scheduledTime":"2023-10-18T18:46:00.000Z","time":"2023-10-18T18:46:00.000Z","reihung":false}},{"station":{"evaNumber":"8011306","name":"Berlin Friedrichstraße","coordinates":{"lng":13.386925,"lat":52.520331},"ril100":"BFRI"},"arrival":{"platform":"2","scheduledTime":"2023-10-18T18:48:00.000Z","time":"2023-10-18T18:48:00.000Z","reihung":false},"departure":{"platform":"2","scheduledTime":"2023-10-18T18:49:00.000Z","time":"2023-10-18T18:49:00.000Z","reihung":false}},{"station":{"evaNumber":"8011155","name":"Berlin Alexanderplatz","coordinates":{"lng":13.411088,"lat":52.521526},"ril100":"BALE"},"arrival":{"platform":"1","scheduledTime":"2023-10-18T18:52:00.000Z","time":"2023-10-18T18:52:00.000Z","reihung":false},"departure":{"platform":"1","scheduledTime":"2023-10-18T18:53:00.000Z","time":"2023-10-18T18:53:00.000Z","reihung":false}},{"station":{"evaNumber":"8010255","name":"Berlin Ostbahnhof","coordinates":{"lng":13.4349,"lat":52.510424},"ril100":"BHF"},"arrival":{"platform":"1","scheduledTime":"2023-10-18T18:56:00.000Z","time":"2023-10-18T18:56:00.000Z","reihung":false},"departure":{"platform":"1","scheduledTime":"2023-10-18T18:58:00.000Z","time":"2023-10-18T18:58:00.000Z","reihung":false}},{"station":{"evaNumber":"8011162","name":"Berlin Ostkreuz","coordinates":{"lng":13.470497,"lat":52.504689},"ril100":"BOKN"},"arrival":{"platform":"1","scheduledTime":"2023-10-18T19:01:00.000Z","time":"2023-10-18T19:01:00.000Z","reihung":false},"departure":{"platform":"1","scheduledTime":"2023-10-18T19:03:00.000Z","time":"2023-10-18T19:03:00.000Z","reihung":false}},{"station":{"evaNumber":"8010193","name":"Königs Wusterhausen","coordinates":{"lng":13.631476,"lat":52.296589},"ril100":"BKW"},"arrival":{"platform":"1","scheduledTime":"2023-10-18T19:20:00.000Z","time":"2023-10-18T19:20:00.000Z","reihung":false},"departure":{"platform":"1","scheduledTime":"2023-10-18T19:21:00.000Z","time":"2023-10-18T19:21:00.000Z","reihung":false}},{"station":{"evaNumber":"8013376","name":"Zeesen","coordinates":{"lng":13.635063,"lat":52.26474}},"arrival":{"platform":"1","scheduledTime":"2023-10-18T19:24:00.000Z","time":"2023-10-18T19:24:00.000Z","reihung":false},"departure":{"platform":"1","scheduledTime":"2023-10-18T19:25:00.000Z","time":"2023-10-18T19:25:00.000Z","reihung":false}},{"station":{"evaNumber":"8011173","name":"Bestensee","coordinates":{"lng":13.635045,"lat":52.241566}},"arrival":{"platform":"1","scheduledTime":"2023-10-18T19:27:00.000Z","time":"2023-10-18T19:27:00.000Z","reihung":false},"departure":{"platform":"1","scheduledTime":"2023-10-18T19:28:00.000Z","time":"2023-10-18T19:28:00.000Z","reihung":false}},{"station":{"evaNumber":"8013109","name":"Groß Köris","coordinates":{"lng":13.650488,"lat":52.159953},"ril100":"BTPI"},"arrival":{"platform":"1","scheduledTime":"2023-10-18T19:33:00.000Z","time":"2023-10-18T19:33:00.000Z","reihung":false},"departure":{"platform":"1","scheduledTime":"2023-10-18T19:33:00.000Z","time":"2023-10-18T19:33:00.000Z","reihung":false}},{"station":{"evaNumber":"8011805","name":"Halbe","coordinates":{"lng":13.701781,"lat":52.108364},"ril100":"BHB"},"arrival":{"platform":"2","scheduledTime":"2023-10-18T19:37:00.000Z","time":"2023-10-18T19:37:00.000Z","reihung":false},"departure":{"platform":"2","scheduledTime":"2023-10-18T19:38:00.000Z","time":"2023-10-18T19:38:00.000Z","reihung":false}},{"station":{"evaNumber":"8012549","name":"Oderin","coordinates":{"lng":13.72696,"lat":52.074906},"ril100":"BOD"},"arrival":{"platform":"1","scheduledTime":"2023-10-18T19:41:00.000Z","time":"2023-10-18T19:41:00.000Z","reihung":false},"departure":{"platform":"1","scheduledTime":"2023-10-18T19:41:00.000Z","time":"2023-10-18T19:41:00.000Z","reihung":false}},{"station":{"evaNumber":"8011250","name":"Brand Tropical Islands","coordinates":{"lng":13.721584,"lat":52.029825},"ril100":"BBRA"},"arrival":{"platform":"1","scheduledTime":"2023-10-18T19:45:00.000Z","time":"2023-10-18T19:45:00.000Z","reihung":false},"departure":{"platform":"1","scheduledTime":"2023-10-18T19:45:00.000Z","time":"2023-10-18T19:45:00.000Z","reihung":false}},{"station":{"evaNumber":"8012923","name":"Schönwalde(Spreewald)","coordinates":{"lng":13.776868,"lat":51.991405}},"arrival":{"platform":"1","scheduledTime":"2023-10-18T19:49:00.000Z","time":"2023-10-18T19:49:00.000Z","reihung":false},"departure":{"platform":"1","scheduledTime":"2023-10-18T19:49:00.000Z","time":"2023-10-18T19:49:00.000Z","reihung":false}},{"station":{"evaNumber":"8012257","name":"Lubolz","coordinates":{"lng":13.821221,"lat":51.96246},"ril100":"BLU"},"arrival":{"platform":"1","scheduledTime":"2023-10-18T19:52:00.000Z","time":"2023-10-18T19:52:00.000Z","reihung":false},"departure":{"platform":"1","scheduledTime":"2023-10-18T19:53:00.000Z","time":"2023-10-18T19:53:00.000Z","reihung":false}},{"station":{"evaNumber":"8010217","name":"Lübben(Spreewald)","coordinates":{"lng":13.876855,"lat":51.939529},"ril100":"BLB"},"arrival":{"platform":"2","scheduledTime":"2023-10-18T19:56:00.000Z","time":"2023-10-18T19:56:00.000Z","reihung":false},"departure":{"platform":"2","scheduledTime":"2023-10-18T19:57:00.000Z","time":"2023-10-18T19:57:00.000Z","reihung":false}},{"station":{"evaNumber":"8010220","name":"Lübbenau(Spreewald)","coordinates":{"lng":13.961048,"lat":51.862033},"ril100":"BLN"},"arrival":{"platform":"2","scheduledTime":"2023-10-18T20:03:00.000Z","time":"2023-10-18T20:03:00.000Z","reihung":false},"departure":{"platform":"2","scheduledTime":"2023-10-18T20:05:00.000Z","time":"2023-10-18T20:05:00.000Z","reihung":false}},{"station":{"evaNumber":"8012698","name":"Raddusch","coordinates":{"lng":14.032413,"lat":51.815909},"ril100":"BRAD"},"arrival":{"platform":"1","scheduledTime":"2023-10-18T20:09:00.000Z","time":"2023-10-18T20:09:00.000Z","reihung":false},"departure":{"platform":"1","scheduledTime":"2023-10-18T20:10:00.000Z","time":"2023-10-18T20:10:00.000Z","reihung":false}},{"station":{"evaNumber":"8013188","name":"Vetschau","coordinates":{"lng":14.083022,"lat":51.789103}},"arrival":{"platform":"2","scheduledTime":"2023-10-18T20:13:00.000Z","time":"2023-10-18T20:13:00.000Z","reihung":false},"departure":{"platform":"2","scheduledTime":"2023-10-18T20:18:00.000Z","time":"2023-10-18T20:18:00.000Z","reihung":false}},{"station":{"evaNumber":"8012605","name":"Kunersdorf","coordinates":{"lng":14.18861,"lat":51.768608}},"arrival":{"platform":"2","scheduledTime":"2023-10-18T20:23:00.000Z","time":"2023-10-18T20:23:00.000Z","reihung":false},"departure":{"platform":"2","scheduledTime":"2023-10-18T20:24:00.000Z","time":"2023-10-18T20:24:00.000Z","reihung":false}},{"station":{"evaNumber":"8012083","name":"Kolkwitz","coordinates":{"lng":14.249655,"lat":51.757821},"ril100":"BKOW"},"arrival":{"platform":"1","scheduledTime":"2023-10-18T20:27:00.000Z","time":"2023-10-18T20:27:00.000Z","reihung":false},"departure":{"platform":"1","scheduledTime":"2023-10-18T20:27:00.000Z","time":"2023-10-18T20:27:00.000Z","reihung":false}},{"station":{"evaNumber":"8010073","name":"Cottbus Hbf","coordinates":{"lng":14.323673,"lat":51.751133},"ril100":"BCS"},"arrival":{"platform":"3","scheduledTime":"2023-10-18T20:33:00.000Z","time":"2023-10-18T20:33:00.000Z","reihung":false}}],"finalDestination":"Cottbus Hbf","jid":"1|219589|0|80|18102023","messages":[{"type":"A","code":"FB","prio":260,"icoX":5,"txtN":"Fahrradmitnahme begrenzt möglich"},{"type":"A","code":"EH","prio":560,"icoX":6,"txtN":"Fahrzeuggebundene Einstiegshilfe vorhanden"},{"type":"A","code":"WV","prio":710,"icoX":6,"txtN":"WLAN verfügbar"}],"type":"JNY"}],"segmentTypes":["S","ICE","Fußweg","RE"]},{"checksum":"2c3bcc05_3","cid":"C-2","date":"2023-10-17T22:00:00.000Z","duration":25740000,"changes":4,"isRideable":true,"arrival":{"platform":"5","scheduledTime":"2023-10-18T19:55:00.000Z","time":"2023-10-18T19:55:00.000Z","reihung":false},"departure":{"platform":"3","scheduledTime":"2023-10-18T12:46:00.000Z","time":"2023-10-18T12:46:00.000Z","reihung":false},"segments":[{"arrival":{"platform":"5","scheduledTime":"2023-10-18T13:22:00.000Z","time":"2023-10-18T13:22:00.000Z","reihung":false},"departure":{"platform":"3","scheduledTime":"2023-10-18T12:46:00.000Z","time":"2023-10-18T12:46:00.000Z","reihung":false},"duration":2160000,"train":{"name":"EC 2518","line":"62","admin":"80","number":"2518","type":"EC","operator":{"name":"DB Fernverkehr AG","icoX":7}},"changeDuration":8,"segmentStart":{"name":"Heidelberg Hbf","evaNumber":"8000156"},"segmentDestination":{"name":"Darmstadt Hbf","evaNumber":"8000068"},"stops":[{"station":{"evaNumber":"8000156","name":"Heidelberg Hbf","coordinates":{"lng":8.67548,"lat":49.403582},"ril100":"RH"},"departure":{"platform":"3","scheduledTime":"2023-10-18T12:46:00.000Z","time":"2023-10-18T12:46:00.000Z","reihung":false},"auslastung":{"first":1,"second":1}},{"station":{"evaNumber":"8000377","name":"Weinheim(Bergstr)Hbf","coordinates":{"lng":8.66561,"lat":49.553738},"ril100":"RWE"},"arrival":{"platform":"2","scheduledTime":"2023-10-18T12:58:00.000Z","time":"2023-10-18T12:58:00.000Z","reihung":false},"departure":{"platform":"2","scheduledTime":"2023-10-18T13:00:00.000Z","time":"2023-10-18T13:00:00.000Z","reihung":false},"auslastung":{"first":1,"second":1}},{"station":{"evaNumber":"8000031","name":"Bensheim","coordinates":{"lng":8.616646,"lat":49.68142},"ril100":"FBH"},"arrival":{"platform":"1","scheduledTime":"2023-10-18T13:08:00.000Z","time":"2023-10-18T13:08:00.000Z","reihung":false},"departure":{"platform":"1","scheduledTime":"2023-10-18T13:09:00.000Z","time":"2023-10-18T13:09:00.000Z","reihung":false},"auslastung":{"first":1,"second":1}},{"station":{"evaNumber":"8000068","name":"Darmstadt Hbf","coordinates":{"lng":8.629707,"lat":49.872549},"ril100":"FD"},"arrival":{"platform":"5","scheduledTime":"2023-10-18T13:22:00.000Z","time":"2023-10-18T13:22:00.000Z","reihung":false}}],"finalDestination":"Frankfurt(Main)Hbf","jid":"1|203745|0|80|18102023","auslastung":{"first":1,"second":1},"messages":[{"type":"A","code":"EZ","prio":400,"icoX":6,"txtN":"Ersatzzug"}],"type":"JNY"},{"arrival":{"platform":"10","scheduledTime":"2023-10-18T13:48:00.000Z","time":"2023-10-18T13:48:00.000Z","reihung":false},"departure":{"platform":"7","scheduledTime":"2023-10-18T13:30:00.000Z","time":"2023-10-18T13:30:00.000Z","reihung":false},"duration":1080000,"wings":[{"train":{"name":"RB 68","line":"68","admin":"800574","number":"15320","type":"RB","operator":{"name":"DB Regio AG Mitte","icoX":2}},"segmentStart":{"name":"Darmstadt Hbf","evaNumber":"8000068"},"segmentDestination":{"name":"Frankfurt(Main)Hbf","evaNumber":"8000105"},"stops":[{"station":{"evaNumber":"8000068","name":"Darmstadt Hbf","coordinates":{"lng":8.629707,"lat":49.872549},"ril100":"FD"},"departure":{"platform":"7","scheduledTime":"2023-10-18T13:30:00.000Z","time":"2023-10-18T13:30:00.000Z","reihung":false}},{"station":{"evaNumber":"8003523","name":"Langen(Hess)","coordinates":{"lng":8.656828,"lat":49.993535},"ril100":"FLG"},"arrival":{"platform":"1","scheduledTime":"2023-10-18T13:38:00.000Z","time":"2023-10-18T13:38:00.000Z","reihung":false}},{"station":{"evaNumber":"8000105","name":"Frankfurt(Main)Hbf","coordinates":{"lng":8.663003,"lat":50.106817},"ril100":"FF"},"arrival":{"platform":"10","scheduledTime":"2023-10-18T13:48:00.000Z","time":"2023-10-18T13:48:00.000Z","reihung":false}}],"finalDestination":"Frankfurt(Main)Hbf","jid":"1|351686|0|80|18102023"}],"train":{"name":"RB 67","line":"67","admin":"800574","number":"15420","type":"RB","operator":{"name":"DB Regio AG Mitte","icoX":2}},"changeDuration":10,"segmentStart":{"name":"Darmstadt Hbf","evaNumber":"8000068"},"segmentDestination":{"name":"Frankfurt(Main)Hbf","evaNumber":"8000105"},"stops":[{"station":{"evaNumber":"8000068","name":"Darmstadt Hbf","coordinates":{"lng":8.629707,"lat":49.872549},"ril100":"FD"},"departure":{"platform":"7","scheduledTime":"2023-10-18T13:30:00.000Z","time":"2023-10-18T13:30:00.000Z","reihung":false}},{"station":{"evaNumber":"8003523","name":"Langen(Hess)","coordinates":{"lng":8.656828,"lat":49.993535},"ril100":"FLG"},"arrival":{"platform":"1","scheduledTime":"2023-10-18T13:38:00.000Z","time":"2023-10-18T13:38:00.000Z","reihung":false},"departure":{"platform":"1","scheduledTime":"2023-10-18T13:39:00.000Z","time":"2023-10-18T13:39:00.000Z","reihung":false}},{"station":{"evaNumber":"8000105","name":"Frankfurt(Main)Hbf","coordinates":{"lng":8.663003,"lat":50.106817},"ril100":"FF"},"arrival":{"platform":"10","scheduledTime":"2023-10-18T13:48:00.000Z","time":"2023-10-18T13:48:00.000Z","reihung":false}}],"finalDestination":"Frankfurt(Main)Hbf","jid":"1|251830|0|80|18102023","messages":[{"type":"A","code":"FB","prio":260,"icoX":5,"txtN":"Fahrradmitnahme begrenzt möglich"},{"type":"A","code":"EH","prio":560,"icoX":6,"txtN":"Fahrzeuggebundene Einstiegshilfe vorhanden"},{"type":"A","code":"KL","prio":610,"icoX":6,"txtN":"Klimaanlage"},{"type":"M","code":"","icoX":19,"txtS":"RB 15420, RB 15320: Darmstadt Hbf->Frankfurt(Main)Hbf: Bauarbeiten.","txtN":"Aufgrund von Bauarbeiten kommt es vom 10. bis 27. Oktober 2023 auf den Linien RE60 und RB67/68 zu geänderten Fahrtzeiten sowie zu Zug- und Teilausfällen. Es wird ein Ersatzverkehr (EV) mit Bussen für Sie eingerichtet Die Mitnahme von Fahrrädern im Bus ist ausgeschlossen. Bitte informieren Sie sich frühzeitig über Ihre geplanten Verbindungen und wählen Sie gegebenenfalls eine frühere Zugverbindung, um Ihre Anschlüsse an Ihren Umsteigebahnhöfen erreichen zu können. Die Fahrplanänderungen zu dieser Baumaßnahme sind in die Online - Fahrplanauskünfte eingearbeitet.","url":"https://him.static-bahn.de/1696265834247_10_23_V01_ZvF_53273_22_10_2023.pdf","sIdx":1}],"type":"JNY"},{"arrival":{"platform":"3","scheduledTime":"2023-10-18T17:46:00.000Z","time":"2023-10-18T17:46:00.000Z","reihung":false},"departure":{"platform":"8","scheduledTime":"2023-10-18T13:58:00.000Z","time":"2023-10-18T13:58:00.000Z","reihung":false},"duration":13680000,"train":{"name":"ICE 72","line":"20","admin":"80","number":"72","type":"ICE","operator":{"name":"DB Fernverkehr AG","icoX":7}},"changeDuration":17,"segmentStart":{"name":"Frankfurt(Main)Hbf","evaNumber":"8000105"},"segmentDestination":{"name":"Lutherstadt Wittenberg Hbf","evaNumber":"8010222"},"stops":[{"station":{"evaNumber":"8000105","name":"Frankfurt(Main)Hbf","coordinates":{"lng":8.663003,"lat":50.106817},"ril100":"FF"},"departure":{"platform":"8","scheduledTime":"2023-10-18T13:58:00.000Z","time":"2023-10-18T13:58:00.000Z","reihung":false},"auslastung":{"first":2,"second":2}},{"station":{"evaNumber":"8000150","name":"Hanau Hbf","coordinates":{"lng":8.92921,"lat":50.120903},"ril100":"FH"},"arrival":{"platform":"7","scheduledTime":"2023-10-18T14:12:00.000Z","time":"2023-10-18T14:12:00.000Z","reihung":false},"departure":{"platform":"7","scheduledTime":"2023-10-18T14:14:00.000Z","time":"2023-10-18T14:14:00.000Z","reihung":false},"auslastung":{"first":2,"second":2}},{"station":{"evaNumber":"8000115","name":"Fulda","coordinates":{"lng":9.684178,"lat":50.554794},"ril100":"FFU"},"arrival":{"platform":"6","scheduledTime":"2023-10-18T14:58:00.000Z","time":"2023-10-18T14:58:00.000Z","reihung":false},"departure":{"platform":"6","scheduledTime":"2023-10-18T15:08:00.000Z","time":"2023-10-18T15:08:00.000Z","reihung":false},"auslastung":{"first":2,"second":2}},{"station":{"evaNumber":"8010097","name":"Eisenach","coordinates":{"lng":10.33212,"lat":50.976928},"ril100":"UEI"},"arrival":{"platform":"4","scheduledTime":"2023-10-18T16:00:00.000Z","time":"2023-10-18T16:00:00.000Z","reihung":false},"departure":{"platform":"4","scheduledTime":"2023-10-18T16:01:00.000Z","time":"2023-10-18T16:01:00.000Z","reihung":false},"auslastung":{"first":2,"second":2}},{"station":{"evaNumber":"8010101","name":"Erfurt Hbf","coordinates":{"lng":11.038502,"lat":50.97255},"ril100":"UE  P"},"arrival":{"platform":"10","scheduledTime":"2023-10-18T16:26:00.000Z","time":"2023-10-18T16:26:00.000Z","reihung":false},"departure":{"platform":"10","scheduledTime":"2023-10-18T16:28:00.000Z","time":"2023-10-18T16:28:00.000Z","reihung":false},"auslastung":{"first":2,"second":2}},{"station":{"evaNumber":"8010205","name":"Leipzig Hbf","coordinates":{"lng":12.381167,"lat":51.345081},"ril100":"LL"},"arrival":{"platform":"13","scheduledTime":"2023-10-18T17:10:00.000Z","time":"2023-10-18T17:10:00.000Z","reihung":false},"departure":{"platform":"13","scheduledTime":"2023-10-18T17:16:00.000Z","time":"2023-10-18T17:16:00.000Z","reihung":false},"auslastung":{"first":1,"second":1}},{"station":{"evaNumber":"8010222","name":"Lutherstadt Wittenberg Hbf","coordinates":{"lng":12.661999,"lat":51.867579},"ril100":"LW"},"arrival":{"platform":"3","scheduledTime":"2023-10-18T17:46:00.000Z","time":"2023-10-18T17:46:00.000Z","reihung":false}}],"finalDestination":"Berlin Hbf (tief)","jid":"1|209311|0|80|18102023","auslastung":{"first":2,"second":2},"messages":[{"type":"A","code":"CK","prio":200,"icoX":6,"txtN":"Sicher & kontaktlos ohne Ticketkontrolle reisen mit Komfort Check-in"},{"type":"A","code":"FR","prio":260,"icoX":8,"txtN":"Fahrradmitnahme reservierungspflichtig"},{"type":"A","code":"FB","prio":260,"icoX":5,"txtN":"Fahrradmitnahme begrenzt möglich"},{"type":"A","code":"BR","prio":450,"icoX":9,"txtN":"Bordrestaurant"},{"type":"A","code":"EH","prio":560,"icoX":6,"txtN":"Fahrzeuggebundene Einstiegshilfe vorhanden"}],"type":"JNY"},{"arrival":{"platform":"4","scheduledTime":"2023-10-18T18:47:00.000Z","time":"2023-10-18T18:47:00.000Z","reihung":false},"departure":{"platform":"3","scheduledTime":"2023-10-18T18:03:00.000Z","time":"2023-10-18T18:03:00.000Z","reihung":false},"duration":2640000,"train":{"name":"RB 51","line":"51","admin":"8004A9","number":"16483","type":"RB","operator":{"name":"DB Regio AG Südost","icoX":11}},"changeDuration":8,"segmentStart":{"name":"Lutherstadt Wittenberg Hbf","evaNumber":"8010222"},"segmentDestination":{"name":"Falkenberg(Elster)","evaNumber":"8010103"},"stops":[{"station":{"evaNumber":"8010222","name":"Lutherstadt Wittenberg Hbf","coordinates":{"lng":12.661999,"lat":51.867579},"ril100":"LW"},"departure":{"platform":"3","scheduledTime":"2023-10-18T18:03:00.000Z","time":"2023-10-18T18:03:00.000Z","reihung":false}},{"station":{"evaNumber":"8013275","name":"Lutherstadt Wittenberg-Labetz","coordinates":{"lng":12.694405,"lat":51.871435},"ril100":"LWND"},"arrival":{"platform":"1","scheduledTime":"2023-10-18T18:06:00.000Z","time":"2023-10-18T18:06:00.000Z","reihung":false},"departure":{"platform":"1","scheduledTime":"2023-10-18T18:06:00.000Z","time":"2023-10-18T18:06:00.000Z","reihung":false}},{"station":{"evaNumber":"8012393","name":"Mühlanger","coordinates":{"lng":12.747531,"lat":51.855857},"ril100":"LMUA"},"arrival":{"platform":"1","scheduledTime":"2023-10-18T18:09:00.000Z","time":"2023-10-18T18:09:00.000Z","reihung":false},"departure":{"platform":"1","scheduledTime":"2023-10-18T18:10:00.000Z","time":"2023-10-18T18:10:00.000Z","reihung":false}},{"station":{"evaNumber":"8011486","name":"Elster(Elbe)","coordinates":{"lng":12.827292,"lat":51.832422},"ril100":"LELT"},"arrival":{"platform":"1","scheduledTime":"2023-10-18T18:14:00.000Z","time":"2023-10-18T18:14:00.000Z","reihung":false},"departure":{"platform":"1","scheduledTime":"2023-10-18T18:15:00.000Z","time":"2023-10-18T18:15:00.000Z","reihung":false}},{"station":{"evaNumber":"8011960","name":"Jessen(Elster)","coordinates":{"lng":12.954571,"lat":51.792843},"ril100":"LJN"},"arrival":{"platform":"1","scheduledTime":"2023-10-18T18:22:00.000Z","time":"2023-10-18T18:22:00.000Z","reihung":false},"departure":{"platform":"1","scheduledTime":"2023-10-18T18:23:00.000Z","time":"2023-10-18T18:23:00.000Z","reihung":false}},{"station":{"evaNumber":"8011048","name":"Annaburg","coordinates":{"lng":13.033019,"lat":51.728588}},"arrival":{"platform":"2","scheduledTime":"2023-10-18T18:30:00.000Z","time":"2023-10-18T18:30:00.000Z","reihung":false},"departure":{"platform":"2","scheduledTime":"2023-10-18T18:31:00.000Z","time":"2023-10-18T18:31:00.000Z","reihung":false}},{"station":{"evaNumber":"8011537","name":"Fermerswalde","coordinates":{"lng":13.173665,"lat":51.643091},"ril100":"LFMW"},"arrival":{"platform":"1","scheduledTime":"2023-10-18T18:40:00.000Z","time":"2023-10-18T18:40:00.000Z","reihung":false},"departure":{"platform":"1","scheduledTime":"2023-10-18T18:40:00.000Z","time":"2023-10-18T18:40:00.000Z","reihung":false}},{"station":{"evaNumber":"8010103","name":"Falkenberg(Elster)","coordinates":{"lng":13.248877,"lat":51.583079},"ril100":"LF"},"arrival":{"platform":"4","scheduledTime":"2023-10-18T18:47:00.000Z","time":"2023-10-18T18:47:00.000Z","reihung":false}}],"finalDestination":"Falkenberg(Elster)","jid":"1|242349|0|80|18102023","messages":[{"type":"A","code":"FB","prio":260,"icoX":5,"txtN":"Fahrradmitnahme begrenzt möglich"},{"type":"A","code":"EH","prio":560,"icoX":6,"txtN":"Fahrzeuggebundene Einstiegshilfe vorhanden"},{"type":"A","code":"LS","prio":605,"icoX":6,"txtN":"Laptop-Steckdosen"},{"type":"A","code":"WV","prio":710,"icoX":6,"txtN":"WLAN verfügbar"}],"type":"JNY"},{"arrival":{"platform":"5","scheduledTime":"2023-10-18T19:55:00.000Z","time":"2023-10-18T19:55:00.000Z","reihung":false},"departure":{"platform":"7","scheduledTime":"2023-10-18T18:55:00.000Z","time":"2023-10-18T18:55:00.000Z","reihung":false},"duration":3600000,"train":{"name":"RB 43","line":"43","admin":"800166","number":"18198","type":"RB","operator":{"name":"DB Regio AG Nordost","icoX":12}},"segmentStart":{"name":"Falkenberg(Elster)","evaNumber":"8010103"},"segmentDestination":{"name":"Cottbus Hbf","evaNumber":"8010073"},"stops":[{"station":{"evaNumber":"8010103","name":"Falkenberg(Elster)","coordinates":{"lng":13.248877,"lat":51.583079},"ril100":"LF"},"departure":{"platform":"7","scheduledTime":"2023-10-18T18:55:00.000Z","time":"2023-10-18T18:55:00.000Z","reihung":false}},{"station":{"evaNumber":"8013160","name":"Uebigau","coordinates":{"lng":13.296547,"lat":51.585408},"ril100":"LUEB"},"arrival":{"platform":"2","scheduledTime":"2023-10-18T18:59:00.000Z","time":"2023-10-18T18:59:00.000Z","reihung":false},"departure":{"platform":"2","scheduledTime":"2023-10-18T19:00:00.000Z","time":"2023-10-18T19:00:00.000Z","reihung":false}},{"station":{"evaNumber":"8011179","name":"Beutersitz","coordinates":{"lng":13.360865,"lat":51.590271},"ril100":"BBE"},"arrival":{"platform":"1","scheduledTime":"2023-10-18T19:03:00.000Z","time":"2023-10-18T19:03:00.000Z","reihung":false},"departure":{"platform":"1","scheduledTime":"2023-10-18T19:04:00.000Z","time":"2023-10-18T19:04:00.000Z","reihung":false}},{"station":{"evaNumber":"8012903","name":"Schönborn(Doberl)","coordinates":{"lng":13.468061,"lat":51.601993}},"arrival":{"platform":"1","scheduledTime":"2023-10-18T19:09:00.000Z","time":"2023-10-18T19:09:00.000Z","reihung":false},"departure":{"platform":"1","scheduledTime":"2023-10-18T19:09:00.000Z","time":"2023-10-18T19:09:00.000Z","reihung":false}},{"station":{"evaNumber":"8010079","name":"Doberlug-Kirchhain","coordinates":{"lng":13.564273,"lat":51.620798},"ril100":"BDKO"},"arrival":{"platform":"4","scheduledTime":"2023-10-18T19:14:00.000Z","time":"2023-10-18T19:14:00.000Z","reihung":false},"departure":{"platform":"4","scheduledTime":"2023-10-18T19:15:00.000Z","time":"2023-10-18T19:15:00.000Z","reihung":false}},{"station":{"evaNumber":"8011542","name":"Finsterwalde(Niederlausitz)","coordinates":{"lng":13.710411,"lat":51.636997},"ril100":"BFW"},"arrival":{"platform":"1","scheduledTime":"2023-10-18T19:21:00.000Z","time":"2023-10-18T19:21:00.000Z","reihung":false},"departure":{"platform":"1","scheduledTime":"2023-10-18T19:22:00.000Z","time":"2023-10-18T19:22:00.000Z","reihung":false}},{"station":{"evaNumber":"8011667","name":"Gollmitz(Niederlausitz)","coordinates":{"lng":13.883965,"lat":51.703409},"ril100":"BGM"},"arrival":{"platform":"2","scheduledTime":"2023-10-18T19:31:00.000Z","time":"2023-10-18T19:31:00.000Z","reihung":false},"departure":{"platform":"2","scheduledTime":"2023-10-18T19:32:00.000Z","time":"2023-10-18T19:32:00.000Z","reihung":false}},{"station":{"evaNumber":"8010069","name":"Calau(Nl)","coordinates":{"lng":13.979673,"lat":51.738107}},"arrival":{"platform":"3","scheduledTime":"2023-10-18T19:37:00.000Z","time":"2023-10-18T19:37:00.000Z","reihung":false},"departure":{"platform":"3","scheduledTime":"2023-10-18T19:38:00.000Z","time":"2023-10-18T19:38:00.000Z","reihung":false}},{"station":{"evaNumber":"8012084","name":"Kolkwitz Süd","coordinates":{"lng":14.242194,"lat":51.746926},"ril100":"BKOS"},"arrival":{"platform":"2","scheduledTime":"2023-10-18T19:49:00.000Z","time":"2023-10-18T19:49:00.000Z","reihung":false},"departure":{"platform":"2","scheduledTime":"2023-10-18T19:50:00.000Z","time":"2023-10-18T19:50:00.000Z","reihung":false}},{"station":{"evaNumber":"8010073","name":"Cottbus Hbf","coordinates":{"lng":14.323673,"lat":51.751133},"ril100":"BCS"},"arrival":{"platform":"5","scheduledTime":"2023-10-18T19:55:00.000Z","time":"2023-10-18T19:55:00.000Z","reihung":false}}],"finalDestination":"Frankfurt(Oder)","jid":"1|214744|0|80|18102023","messages":[{"type":"A","code":"FB","prio":260,"icoX":5,"txtN":"Fahrradmitnahme begrenzt möglich"},{"type":"A","code":"EH","prio":560,"icoX":6,"txtN":"Fahrzeuggebundene Einstiegshilfe vorhanden"}],"type":"JNY"}],"segmentTypes":["EC","RB","ICE","RB","RB"]},{"checksum":"19e0bbb2_3","cid":"C-3","date":"2023-10-17T22:00:00.000Z","duration":28020000,"changes":3,"isRideable":true,"arrival":{"platform":"3","scheduledTime":"2023-10-18T20:33:00.000Z","time":"2023-10-18T20:33:00.000Z","reihung":false},"departure":{"platform":"3","scheduledTime":"2023-10-18T12:46:00.000Z","time":"2023-10-18T12:46:00.000Z","reihung":false},"segments":[{"arrival":{"platform":"5","scheduledTime":"2023-10-18T13:22:00.000Z","time":"2023-10-18T13:22:00.000Z","reihung":false},"departure":{"platform":"3","scheduledTime":"2023-10-18T12:46:00.000Z","time":"2023-10-18T12:46:00.000Z","reihung":false},"duration":2160000,"train":{"name":"EC 2518","line":"62","admin":"80","number":"2518","type":"EC","operator":{"name":"DB Fernverkehr AG","icoX":7}},"changeDuration":8,"segmentStart":{"name":"Heidelberg Hbf","evaNumber":"8000156"},"segmentDestination":{"name":"Darmstadt Hbf","evaNumber":"8000068"},"stops":[{"station":{"evaNumber":"8000156","name":"Heidelberg Hbf","coordinates":{"lng":8.67548,"lat":49.403582},"ril100":"RH"},"departure":{"platform":"3","scheduledTime":"2023-10-18T12:46:00.000Z","time":"2023-10-18T12:46:00.000Z","reihung":false},"auslastung":{"first":1,"second":1}},{"station":{"evaNumber":"8000377","name":"Weinheim(Bergstr)Hbf","coordinates":{"lng":8.66561,"lat":49.553738},"ril100":"RWE"},"arrival":{"platform":"2","scheduledTime":"2023-10-18T12:58:00.000Z","time":"2023-10-18T12:58:00.000Z","reihung":false},"departure":{"platform":"2","scheduledTime":"2023-10-18T13:00:00.000Z","time":"2023-10-18T13:00:00.000Z","reihung":false},"auslastung":{"first":1,"second":1}},{"station":{"evaNumber":"8000031","name":"Bensheim","coordinates":{"lng":8.616646,"lat":49.68142},"ril100":"FBH"},"arrival":{"platform":"1","scheduledTime":"2023-10-18T13:08:00.000Z","time":"2023-10-18T13:08:00.000Z","reihung":false},"departure":{"platform":"1","scheduledTime":"2023-10-18T13:09:00.000Z","time":"2023-10-18T13:09:00.000Z","reihung":false},"auslastung":{"first":1,"second":1}},{"station":{"evaNumber":"8000068","name":"Darmstadt Hbf","coordinates":{"lng":8.629707,"lat":49.872549},"ril100":"FD"},"arrival":{"platform":"5","scheduledTime":"2023-10-18T13:22:00.000Z","time":"2023-10-18T13:22:00.000Z","reihung":false}}],"finalDestination":"Frankfurt(Main)Hbf","jid":"1|203745|0|80|18102023","auslastung":{"first":1,"second":1},"messages":[{"type":"A","code":"EZ","prio":400,"icoX":6,"txtN":"Ersatzzug"}],"type":"JNY"},{"arrival":{"platform":"10","scheduledTime":"2023-10-18T13:48:00.000Z","time":"2023-10-18T13:48:00.000Z","reihung":false},"departure":{"platform":"7","scheduledTime":"2023-10-18T13:30:00.000Z","time":"2023-10-18T13:30:00.000Z","reihung":false},"duration":1080000,"wings":[{"train":{"name":"RB 68","line":"68","admin":"800574","number":"15320","type":"RB","operator":{"name":"DB Regio AG Mitte","icoX":2}},"segmentStart":{"name":"Darmstadt Hbf","evaNumber":"8000068"},"segmentDestination":{"name":"Frankfurt(Main)Hbf","evaNumber":"8000105"},"stops":[{"station":{"evaNumber":"8000068","name":"Darmstadt Hbf","coordinates":{"lng":8.629707,"lat":49.872549},"ril100":"FD"},"departure":{"platform":"7","scheduledTime":"2023-10-18T13:30:00.000Z","time":"2023-10-18T13:30:00.000Z","reihung":false}},{"station":{"evaNumber":"8003523","name":"Langen(Hess)","coordinates":{"lng":8.656828,"lat":49.993535},"ril100":"FLG"},"arrival":{"platform":"1","scheduledTime":"2023-10-18T13:38:00.000Z","time":"2023-10-18T13:38:00.000Z","reihung":false}},{"station":{"evaNumber":"8000105","name":"Frankfurt(Main)Hbf","coordinates":{"lng":8.663003,"lat":50.106817},"ril100":"FF"},"arrival":{"platform":"10","scheduledTime":"2023-10-18T13:48:00.000Z","time":"2023-10-18T13:48:00.000Z","reihung":false}}],"finalDestination":"Frankfurt(Main)Hbf","jid":"1|351686|0|80|18102023"}],"train":{"name":"RB 67","line":"67","admin":"800574","number":"15420","type":"RB","operator":{"name":"DB Regio AG Mitte","icoX":2}},"changeDuration":10,"segmentStart":{"name":"Darmstadt Hbf","evaNumber":"8000068"},"segmentDestination":{"name":"Frankfurt(Main)Hbf","evaNumber":"8000105"},"stops":[{"station":{"evaNumber":"8000068","name":"Darmstadt Hbf","coordinates":{"lng":8.629707,"lat":49.872549},"ril100":"FD"},"departure":{"platform":"7","scheduledTime":"2023-10-18T13:30:00.000Z","time":"2023-10-18T13:30:00.000Z","reihung":false}},{"station":{"evaNumber":"8003523","name":"Langen(Hess)","coordinates":{"lng":8.656828,"lat":49.993535},"ril100":"FLG"},"arrival":{"platform":"1","scheduledTime":"2023-10-18T13:38:00.000Z","time":"2023-10-18T13:38:00.000Z","reihung":false},"departure":{"platform":"1","scheduledTime":"2023-10-18T13:39:00.000Z","time":"2023-10-18T13:39:00.000Z","reihung":false}},{"station":{"evaNumber":"8000105","name":"Frankfurt(Main)Hbf","coordinates":{"lng":8.663003,"lat":50.106817},"ril100":"FF"},"arrival":{"platform":"10","scheduledTime":"2023-10-18T13:48:00.000Z","time":"2023-10-18T13:48:00.000Z","reihung":false}}],"finalDestination":"Frankfurt(Main)Hbf","jid":"1|251830|0|80|18102023","messages":[{"type":"A","code":"FB","prio":260,"icoX":5,"txtN":"Fahrradmitnahme begrenzt möglich"},{"type":"A","code":"EH","prio":560,"icoX":6,"txtN":"Fahrzeuggebundene Einstiegshilfe vorhanden"},{"type":"A","code":"KL","prio":610,"icoX":6,"txtN":"Klimaanlage"},{"type":"M","code":"","icoX":19,"txtS":"RB 15420, RB 15320: Darmstadt Hbf->Frankfurt(Main)Hbf: Bauarbeiten.","txtN":"Aufgrund von Bauarbeiten kommt es vom 10. bis 27. Oktober 2023 auf den Linien RE60 und RB67/68 zu geänderten Fahrtzeiten sowie zu Zug- und Teilausfällen. Es wird ein Ersatzverkehr (EV) mit Bussen für Sie eingerichtet Die Mitnahme von Fahrrädern im Bus ist ausgeschlossen. Bitte informieren Sie sich frühzeitig über Ihre geplanten Verbindungen und wählen Sie gegebenenfalls eine frühere Zugverbindung, um Ihre Anschlüsse an Ihren Umsteigebahnhöfen erreichen zu können. Die Fahrplanänderungen zu dieser Baumaßnahme sind in die Online - Fahrplanauskünfte eingearbeitet.","url":"https://him.static-bahn.de/1696265834247_10_23_V01_ZvF_53273_22_10_2023.pdf","sIdx":1}],"type":"JNY"},{"arrival":{"platform":"7","scheduledTime":"2023-10-18T18:32:00.000Z","time":"2023-10-18T18:32:00.000Z","reihung":false},"departure":{"platform":"8","scheduledTime":"2023-10-18T13:58:00.000Z","time":"2023-10-18T13:58:00.000Z","reihung":false},"duration":16440000,"train":{"name":"ICE 72","line":"20","admin":"80","number":"72","type":"ICE","operator":{"name":"DB Fernverkehr AG","icoX":7}},"changeDuration":14,"segmentStart":{"name":"Frankfurt(Main)Hbf","evaNumber":"8000105"},"segmentDestination":{"name":"Berlin Hbf (tief)","evaNumber":"8098160"},"stops":[{"station":{"evaNumber":"8000105","name":"Frankfurt(Main)Hbf","coordinates":{"lng":8.663003,"lat":50.106817},"ril100":"FF"},"departure":{"platform":"8","scheduledTime":"2023-10-18T13:58:00.000Z","time":"2023-10-18T13:58:00.000Z","reihung":false},"auslastung":{"first":2,"second":2}},{"station":{"evaNumber":"8000150","name":"Hanau Hbf","coordinates":{"lng":8.92921,"lat":50.120903},"ril100":"FH"},"arrival":{"platform":"7","scheduledTime":"2023-10-18T14:12:00.000Z","time":"2023-10-18T14:12:00.000Z","reihung":false},"departure":{"platform":"7","scheduledTime":"2023-10-18T14:14:00.000Z","time":"2023-10-18T14:14:00.000Z","reihung":false},"auslastung":{"first":2,"second":2}},{"station":{"evaNumber":"8000115","name":"Fulda","coordinates":{"lng":9.684178,"lat":50.554794},"ril100":"FFU"},"arrival":{"platform":"6","scheduledTime":"2023-10-18T14:58:00.000Z","time":"2023-10-18T14:58:00.000Z","reihung":false},"departure":{"platform":"6","scheduledTime":"2023-10-18T15:08:00.000Z","time":"2023-10-18T15:08:00.000Z","reihung":false},"auslastung":{"first":2,"second":2}},{"station":{"evaNumber":"8010097","name":"Eisenach","coordinates":{"lng":10.33212,"lat":50.976928},"ril100":"UEI"},"arrival":{"platform":"4","scheduledTime":"2023-10-18T16:00:00.000Z","time":"2023-10-18T16:00:00.000Z","reihung":false},"departure":{"platform":"4","scheduledTime":"2023-10-18T16:01:00.000Z","time":"2023-10-18T16:01:00.000Z","reihung":false},"auslastung":{"first":2,"second":2}},{"station":{"evaNumber":"8010101","name":"Erfurt Hbf","coordinates":{"lng":11.038502,"lat":50.97255},"ril100":"UE  P"},"arrival":{"platform":"10","scheduledTime":"2023-10-18T16:26:00.000Z","time":"2023-10-18T16:26:00.000Z","reihung":false},"departure":{"platform":"10","scheduledTime":"2023-10-18T16:28:00.000Z","time":"2023-10-18T16:28:00.000Z","reihung":false},"auslastung":{"first":2,"second":2}},{"station":{"evaNumber":"8010205","name":"Leipzig Hbf","coordinates":{"lng":12.381167,"lat":51.345081},"ril100":"LL"},"arrival":{"platform":"13","scheduledTime":"2023-10-18T17:10:00.000Z","time":"2023-10-18T17:10:00.000Z","reihung":false},"departure":{"platform":"13","scheduledTime":"2023-10-18T17:16:00.000Z","time":"2023-10-18T17:16:00.000Z","reihung":false},"auslastung":{"first":1,"second":1}},{"station":{"evaNumber":"8010222","name":"Lutherstadt Wittenberg Hbf","coordinates":{"lng":12.661999,"lat":51.867579},"ril100":"LW"},"arrival":{"platform":"3","scheduledTime":"2023-10-18T17:46:00.000Z","time":"2023-10-18T17:46:00.000Z","reihung":false},"departure":{"platform":"3","scheduledTime":"2023-10-18T17:48:00.000Z","time":"2023-10-18T17:48:00.000Z","reihung":false},"auslastung":{"first":1,"second":1}},{"station":{"evaNumber":"8011113","name":"Berlin Südkreuz","coordinates":{"lng":13.365863,"lat":52.47623},"ril100":"BPAF"},"arrival":{"platform":"8","scheduledTime":"2023-10-18T18:25:00.000Z","time":"2023-10-18T18:25:00.000Z","reihung":false}},{"station":{"evaNumber":"8098160","name":"Berlin Hbf (tief)","coordinates":{"lng":13.368892,"lat":52.52585},"ril100":"BL"},"arrival":{"platform":"7","scheduledTime":"2023-10-18T18:32:00.000Z","time":"2023-10-18T18:32:00.000Z","reihung":false}}],"finalDestination":"Berlin Hbf (tief)","jid":"1|209311|0|80|18102023","auslastung":{"first":2,"second":2},"messages":[{"type":"A","code":"CK","prio":200,"icoX":6,"txtN":"Sicher & kontaktlos ohne Ticketkontrolle reisen mit Komfort Check-in"},{"type":"A","code":"FR","prio":260,"icoX":8,"txtN":"Fahrradmitnahme reservierungspflichtig"},{"type":"A","code":"FB","prio":260,"icoX":5,"txtN":"Fahrradmitnahme begrenzt möglich"},{"type":"A","code":"BR","prio":450,"icoX":9,"txtN":"Bordrestaurant"},{"type":"A","code":"EH","prio":560,"icoX":6,"txtN":"Fahrzeuggebundene Einstiegshilfe vorhanden"}],"type":"JNY"},{"type":"WALK","train":{"name":"Fußweg","type":"Fußweg"},"arrival":{"scheduledTime":"2023-10-18T18:41:00.000Z","time":"2023-10-18T18:41:00.000Z","reihung":false},"departure":{"scheduledTime":"2023-10-18T18:32:00.000Z","time":"2023-10-18T18:32:00.000Z","reihung":false},"duration":540000,"segmentStart":{"evaNumber":"8098160","name":"Berlin Hbf (tief)","coordinates":{"lng":13.368892,"lat":52.52585},"ril100":"BL"},"segmentDestination":{"evaNumber":"8011160","name":"Berlin Hbf","coordinates":{"lng":13.369629,"lat":52.524924},"ril100":"BLS"}},{"arrival":{"platform":"3","scheduledTime":"2023-10-18T20:33:00.000Z","time":"2023-10-18T20:33:00.000Z","reihung":false},"departure":{"platform":"12","scheduledTime":"2023-10-18T18:46:00.000Z","time":"2023-10-18T18:46:00.000Z","reihung":false},"duration":6420000,"train":{"name":"RE 7","line":"7","admin":"800165","number":"3734","type":"RE","operator":{"name":"DB Regio AG Nordost","icoX":12}},"segmentStart":{"name":"Berlin Hbf","evaNumber":"8011160"},"segmentDestination":{"name":"Cottbus Hbf","evaNumber":"8010073"},"stops":[{"station":{"evaNumber":"8011160","name":"Berlin Hbf","coordinates":{"lng":13.369629,"lat":52.524924},"ril100":"BLS"},"departure":{"platform":"12","scheduledTime":"2023-10-18T18:46:00.000Z","time":"2023-10-18T18:46:00.000Z","reihung":false}},{"station":{"evaNumber":"8011306","name":"Berlin Friedrichstraße","coordinates":{"lng":13.386925,"lat":52.520331},"ril100":"BFRI"},"arrival":{"platform":"2","scheduledTime":"2023-10-18T18:48:00.000Z","time":"2023-10-18T18:48:00.000Z","reihung":false},"departure":{"platform":"2","scheduledTime":"2023-10-18T18:49:00.000Z","time":"2023-10-18T18:49:00.000Z","reihung":false}},{"station":{"evaNumber":"8011155","name":"Berlin Alexanderplatz","coordinates":{"lng":13.411088,"lat":52.521526},"ril100":"BALE"},"arrival":{"platform":"1","scheduledTime":"2023-10-18T18:52:00.000Z","time":"2023-10-18T18:52:00.000Z","reihung":false},"departure":{"platform":"1","scheduledTime":"2023-10-18T18:53:00.000Z","time":"2023-10-18T18:53:00.000Z","reihung":false}},{"station":{"evaNumber":"8010255","name":"Berlin Ostbahnhof","coordinates":{"lng":13.4349,"lat":52.510424},"ril100":"BHF"},"arrival":{"platform":"1","scheduledTime":"2023-10-18T18:56:00.000Z","time":"2023-10-18T18:56:00.000Z","reihung":false},"departure":{"platform":"1","scheduledTime":"2023-10-18T18:58:00.000Z","time":"2023-10-18T18:58:00.000Z","reihung":false}},{"station":{"evaNumber":"8011162","name":"Berlin Ostkreuz","coordinates":{"lng":13.470497,"lat":52.504689},"ril100":"BOKN"},"arrival":{"platform":"1","scheduledTime":"2023-10-18T19:01:00.000Z","time":"2023-10-18T19:01:00.000Z","reihung":false},"departure":{"platform":"1","scheduledTime":"2023-10-18T19:03:00.000Z","time":"2023-10-18T19:03:00.000Z","reihung":false}},{"station":{"evaNumber":"8010193","name":"Königs Wusterhausen","coordinates":{"lng":13.631476,"lat":52.296589},"ril100":"BKW"},"arrival":{"platform":"1","scheduledTime":"2023-10-18T19:20:00.000Z","time":"2023-10-18T19:20:00.000Z","reihung":false},"departure":{"platform":"1","scheduledTime":"2023-10-18T19:21:00.000Z","time":"2023-10-18T19:21:00.000Z","reihung":false}},{"station":{"evaNumber":"8013376","name":"Zeesen","coordinates":{"lng":13.635063,"lat":52.26474}},"arrival":{"platform":"1","scheduledTime":"2023-10-18T19:24:00.000Z","time":"2023-10-18T19:24:00.000Z","reihung":false},"departure":{"platform":"1","scheduledTime":"2023-10-18T19:25:00.000Z","time":"2023-10-18T19:25:00.000Z","reihung":false}},{"station":{"evaNumber":"8011173","name":"Bestensee","coordinates":{"lng":13.635045,"lat":52.241566}},"arrival":{"platform":"1","scheduledTime":"2023-10-18T19:27:00.000Z","time":"2023-10-18T19:27:00.000Z","reihung":false},"departure":{"platform":"1","scheduledTime":"2023-10-18T19:28:00.000Z","time":"2023-10-18T19:28:00.000Z","reihung":false}},{"station":{"evaNumber":"8013109","name":"Groß Köris","coordinates":{"lng":13.650488,"lat":52.159953},"ril100":"BTPI"},"arrival":{"platform":"1","scheduledTime":"2023-10-18T19:33:00.000Z","time":"2023-10-18T19:33:00.000Z","reihung":false},"departure":{"platform":"1","scheduledTime":"2023-10-18T19:33:00.000Z","time":"2023-10-18T19:33:00.000Z","reihung":false}},{"station":{"evaNumber":"8011805","name":"Halbe","coordinates":{"lng":13.701781,"lat":52.108364},"ril100":"BHB"},"arrival":{"platform":"2","scheduledTime":"2023-10-18T19:37:00.000Z","time":"2023-10-18T19:37:00.000Z","reihung":false},"departure":{"platform":"2","scheduledTime":"2023-10-18T19:38:00.000Z","time":"2023-10-18T19:38:00.000Z","reihung":false}},{"station":{"evaNumber":"8012549","name":"Oderin","coordinates":{"lng":13.72696,"lat":52.074906},"ril100":"BOD"},"arrival":{"platform":"1","scheduledTime":"2023-10-18T19:41:00.000Z","time":"2023-10-18T19:41:00.000Z","reihung":false},"departure":{"platform":"1","scheduledTime":"2023-10-18T19:41:00.000Z","time":"2023-10-18T19:41:00.000Z","reihung":false}},{"station":{"evaNumber":"8011250","name":"Brand Tropical Islands","coordinates":{"lng":13.721584,"lat":52.029825},"ril100":"BBRA"},"arrival":{"platform":"1","scheduledTime":"2023-10-18T19:45:00.000Z","time":"2023-10-18T19:45:00.000Z","reihung":false},"departure":{"platform":"1","scheduledTime":"2023-10-18T19:45:00.000Z","time":"2023-10-18T19:45:00.000Z","reihung":false}},{"station":{"evaNumber":"8012923","name":"Schönwalde(Spreewald)","coordinates":{"lng":13.776868,"lat":51.991405}},"arrival":{"platform":"1","scheduledTime":"2023-10-18T19:49:00.000Z","time":"2023-10-18T19:49:00.000Z","reihung":false},"departure":{"platform":"1","scheduledTime":"2023-10-18T19:49:00.000Z","time":"2023-10-18T19:49:00.000Z","reihung":false}},{"station":{"evaNumber":"8012257","name":"Lubolz","coordinates":{"lng":13.821221,"lat":51.96246},"ril100":"BLU"},"arrival":{"platform":"1","scheduledTime":"2023-10-18T19:52:00.000Z","time":"2023-10-18T19:52:00.000Z","reihung":false},"departure":{"platform":"1","scheduledTime":"2023-10-18T19:53:00.000Z","time":"2023-10-18T19:53:00.000Z","reihung":false}},{"station":{"evaNumber":"8010217","name":"Lübben(Spreewald)","coordinates":{"lng":13.876855,"lat":51.939529},"ril100":"BLB"},"arrival":{"platform":"2","scheduledTime":"2023-10-18T19:56:00.000Z","time":"2023-10-18T19:56:00.000Z","reihung":false},"departure":{"platform":"2","scheduledTime":"2023-10-18T19:57:00.000Z","time":"2023-10-18T19:57:00.000Z","reihung":false}},{"station":{"evaNumber":"8010220","name":"Lübbenau(Spreewald)","coordinates":{"lng":13.961048,"lat":51.862033},"ril100":"BLN"},"arrival":{"platform":"2","scheduledTime":"2023-10-18T20:03:00.000Z","time":"2023-10-18T20:03:00.000Z","reihung":false},"departure":{"platform":"2","scheduledTime":"2023-10-18T20:05:00.000Z","time":"2023-10-18T20:05:00.000Z","reihung":false}},{"station":{"evaNumber":"8012698","name":"Raddusch","coordinates":{"lng":14.032413,"lat":51.815909},"ril100":"BRAD"},"arrival":{"platform":"1","scheduledTime":"2023-10-18T20:09:00.000Z","time":"2023-10-18T20:09:00.000Z","reihung":false},"departure":{"platform":"1","scheduledTime":"2023-10-18T20:10:00.000Z","time":"2023-10-18T20:10:00.000Z","reihung":false}},{"station":{"evaNumber":"8013188","name":"Vetschau","coordinates":{"lng":14.083022,"lat":51.789103}},"arrival":{"platform":"2","scheduledTime":"2023-10-18T20:13:00.000Z","time":"2023-10-18T20:13:00.000Z","reihung":false},"departure":{"platform":"2","scheduledTime":"2023-10-18T20:18:00.000Z","time":"2023-10-18T20:18:00.000Z","reihung":false}},{"station":{"evaNumber":"8012605","name":"Kunersdorf","coordinates":{"lng":14.18861,"lat":51.768608}},"arrival":{"platform":"2","scheduledTime":"2023-10-18T20:23:00.000Z","time":"2023-10-18T20:23:00.000Z","reihung":false},"departure":{"platform":"2","scheduledTime":"2023-10-18T20:24:00.000Z","time":"2023-10-18T20:24:00.000Z","reihung":false}},{"station":{"evaNumber":"8012083","name":"Kolkwitz","coordinates":{"lng":14.249655,"lat":51.757821},"ril100":"BKOW"},"arrival":{"platform":"1","scheduledTime":"2023-10-18T20:27:00.000Z","time":"2023-10-18T20:27:00.000Z","reihung":false},"departure":{"platform":"1","scheduledTime":"2023-10-18T20:27:00.000Z","time":"2023-10-18T20:27:00.000Z","reihung":false}},{"station":{"evaNumber":"8010073","name":"Cottbus Hbf","coordinates":{"lng":14.323673,"lat":51.751133},"ril100":"BCS"},"arrival":{"platform":"3","scheduledTime":"2023-10-18T20:33:00.000Z","time":"2023-10-18T20:33:00.000Z","reihung":false}}],"finalDestination":"Cottbus Hbf","jid":"1|219589|0|80|18102023","messages":[{"type":"A","code":"FB","prio":260,"icoX":5,"txtN":"Fahrradmitnahme begrenzt möglich"},{"type":"A","code":"EH","prio":560,"icoX":6,"txtN":"Fahrzeuggebundene Einstiegshilfe vorhanden"},{"type":"A","code":"WV","prio":710,"icoX":6,"txtN":"WLAN verfügbar"}],"type":"JNY"}],"segmentTypes":["EC","RB","ICE","Fußweg","RE"]},{"checksum":"049ce8dc_3","cid":"C-4","date":"2023-10-17T22:00:00.000Z","duration":25740000,"changes":2,"isRideable":true,"arrival":{"platform":"5","scheduledTime":"2023-10-18T20:55:00.000Z","time":"2023-10-18T20:55:00.000Z","reihung":false},"departure":{"platform":"3","scheduledTime":"2023-10-18T13:46:00.000Z","time":"2023-10-18T13:46:00.000Z","reihung":false},"segments":[{"arrival":{"platform":"12","scheduledTime":"2023-10-18T14:40:00.000Z","time":"2023-10-18T14:40:00.000Z","reihung":false},"departure":{"platform":"3","scheduledTime":"2023-10-18T13:46:00.000Z","time":"2023-10-18T13:46:00.000Z","reihung":false},"duration":3240000,"train":{"name":"ICE 1574","line":"26","admin":"80","number":"1574","type":"ICE","operator":{"name":"DB Fernverkehr AG","icoX":7}},"changeDuration":39,"segmentStart":{"name":"Heidelberg Hbf","evaNumber":"8000156"},"segmentDestination":{"name":"Frankfurt(Main)Hbf","evaNumber":"8000105"},"stops":[{"station":{"evaNumber":"8000156","name":"Heidelberg Hbf","coordinates":{"lng":8.67548,"lat":49.403582},"ril100":"RH"},"departure":{"platform":"3","scheduledTime":"2023-10-18T13:46:00.000Z","time":"2023-10-18T13:46:00.000Z","reihung":false},"auslastung":{"first":1,"second":1}},{"station":{"evaNumber":"8000377","name":"Weinheim(Bergstr)Hbf","coordinates":{"lng":8.66561,"lat":49.553738},"ril100":"RWE"},"arrival":{"platform":"2","scheduledTime":"2023-10-18T13:58:00.000Z","time":"2023-10-18T13:58:00.000Z","reihung":false},"departure":{"platform":"2","scheduledTime":"2023-10-18T14:00:00.000Z","time":"2023-10-18T14:00:00.000Z","reihung":false},"auslastung":{"first":1,"second":1}},{"station":{"evaNumber":"8000031","name":"Bensheim","coordinates":{"lng":8.616646,"lat":49.68142},"ril100":"FBH"},"arrival":{"platform":"1","scheduledTime":"2023-10-18T14:08:00.000Z","time":"2023-10-18T14:08:00.000Z","reihung":false},"departure":{"platform":"1","scheduledTime":"2023-10-18T14:09:00.000Z","time":"2023-10-18T14:09:00.000Z","reihung":false},"auslastung":{"first":1,"second":1}},{"station":{"evaNumber":"8000068","name":"Darmstadt Hbf","coordinates":{"lng":8.629707,"lat":49.872549},"ril100":"FD"},"arrival":{"platform":"5","scheduledTime":"2023-10-18T14:22:00.000Z","time":"2023-10-18T14:22:00.000Z","reihung":false},"departure":{"platform":"5","scheduledTime":"2023-10-18T14:24:00.000Z","time":"2023-10-18T14:24:00.000Z","reihung":false},"auslastung":{"first":1,"second":1}},{"station":{"evaNumber":"8000105","name":"Frankfurt(Main)Hbf","coordinates":{"lng":8.663003,"lat":50.106817},"ril100":"FF"},"arrival":{"platform":"12","scheduledTime":"2023-10-18T14:40:00.000Z","time":"2023-10-18T14:40:00.000Z","reihung":false}}],"finalDestination":"Hamburg-Altona","jid":"1|198181|0|80|18102023","auslastung":{"first":1,"second":1},"messages":[{"type":"A","code":"CK","prio":200,"icoX":6,"txtN":"Sicher & kontaktlos ohne Ticketkontrolle reisen mit Komfort Check-in"},{"type":"A","code":"FR","prio":260,"icoX":8,"txtN":"Fahrradmitnahme reservierungspflichtig"},{"type":"A","code":"FB","prio":260,"icoX":5,"txtN":"Fahrradmitnahme begrenzt möglich"},{"type":"A","code":"BR","prio":450,"icoX":9,"txtN":"Bordrestaurant"}],"type":"JNY"},{"arrival":{"platform":"14","scheduledTime":"2023-10-18T18:24:00.000Z","time":"2023-10-18T18:24:00.000Z","reihung":false},"departure":{"platform":"6","scheduledTime":"2023-10-18T15:19:00.000Z","time":"2023-10-18T15:19:00.000Z","reihung":false},"duration":11100000,"train":{"name":"ICE 1655","line":"50","admin":"80","number":"1655","type":"ICE","operator":{"name":"DB Fernverkehr AG","icoX":7}},"changeDuration":48,"segmentStart":{"name":"Frankfurt(Main)Hbf","evaNumber":"8000105"},"segmentDestination":{"name":"Leipzig Hbf","evaNumber":"8010205"},"stops":[{"station":{"evaNumber":"8000105","name":"Frankfurt(Main)Hbf","coordinates":{"lng":8.663003,"lat":50.106817},"ril100":"FF"},"departure":{"platform":"6","scheduledTime":"2023-10-18T15:19:00.000Z","time":"2023-10-18T15:19:00.000Z","reihung":false},"auslastung":{"first":2,"second":2}},{"station":{"evaNumber":"8000115","name":"Fulda","coordinates":{"lng":9.684178,"lat":50.554794},"ril100":"FFU"},"arrival":{"platform":"7","scheduledTime":"2023-10-18T16:13:00.000Z","time":"2023-10-18T16:13:00.000Z","reihung":false},"departure":{"platform":"7","scheduledTime":"2023-10-18T16:15:00.000Z","time":"2023-10-18T16:15:00.000Z","reihung":false},"auslastung":{"first":2,"second":2}},{"station":{"evaNumber":"8000020","name":"Bad Hersfeld","coordinates":{"lng":9.716611,"lat":50.86992},"ril100":"FBHF"},"arrival":{"platform":"3","scheduledTime":"2023-10-18T16:39:00.000Z","time":"2023-10-18T16:39:00.000Z","reihung":false},"departure":{"platform":"3","scheduledTime":"2023-10-18T16:40:00.000Z","time":"2023-10-18T16:40:00.000Z","reihung":false},"auslastung":{"first":2,"second":2}},{"station":{"evaNumber":"8010097","name":"Eisenach","coordinates":{"lng":10.33212,"lat":50.976928},"ril100":"UEI"},"arrival":{"platform":"4","scheduledTime":"2023-10-18T17:07:00.000Z","time":"2023-10-18T17:07:00.000Z","reihung":false},"departure":{"platform":"4","scheduledTime":"2023-10-18T17:08:00.000Z","time":"2023-10-18T17:08:00.000Z","reihung":false},"auslastung":{"first":2,"second":2}},{"station":{"evaNumber":"8010136","name":"Gotha","coordinates":{"lng":10.712688,"lat":50.939029},"ril100":"UGO"},"arrival":{"platform":"3","scheduledTime":"2023-10-18T17:21:00.000Z","time":"2023-10-18T17:21:00.000Z","reihung":false},"departure":{"platform":"3","scheduledTime":"2023-10-18T17:22:00.000Z","time":"2023-10-18T17:22:00.000Z","reihung":false},"auslastung":{"first":2,"second":2}},{"station":{"evaNumber":"8010101","name":"Erfurt Hbf","coordinates":{"lng":11.038502,"lat":50.97255},"ril100":"UE  P"},"arrival":{"platform":"10","scheduledTime":"2023-10-18T17:38:00.000Z","time":"2023-10-18T17:38:00.000Z","reihung":false},"departure":{"platform":"10","scheduledTime":"2023-10-18T17:40:00.000Z","time":"2023-10-18T17:40:00.000Z","reihung":false},"auslastung":{"first":2,"second":2}},{"station":{"evaNumber":"8010205","name":"Leipzig Hbf","coordinates":{"lng":12.381167,"lat":51.345081},"ril100":"LL"},"arrival":{"platform":"14","scheduledTime":"2023-10-18T18:24:00.000Z","time":"2023-10-18T18:24:00.000Z","reihung":false}}],"finalDestination":"Dresden Hbf","jid":"1|198681|0|80|18102023","auslastung":{"first":2,"second":2},"messages":[{"type":"A","code":"CK","prio":200,"icoX":6,"txtN":"Sicher & kontaktlos ohne Ticketkontrolle reisen mit Komfort Check-in"},{"type":"A","code":"FR","prio":260,"icoX":8,"txtN":"Fahrradmitnahme reservierungspflichtig"},{"type":"A","code":"FB","prio":260,"icoX":5,"txtN":"Fahrradmitnahme begrenzt möglich"},{"type":"A","code":"BR","prio":450,"icoX":9,"txtN":"Bordrestaurant"}],"type":"JNY"},{"arrival":{"platform":"5","scheduledTime":"2023-10-18T20:55:00.000Z","time":"2023-10-18T20:55:00.000Z","reihung":false},"departure":{"platform":"9","scheduledTime":"2023-10-18T19:12:00.000Z","time":"2023-10-18T19:12:00.000Z","reihung":false},"duration":6180000,"train":{"name":"RE 10","line":"10","admin":"800166","number":"18396","type":"RE","operator":{"name":"DB Regio AG Nordost","icoX":12}},"segmentStart":{"name":"Leipzig Hbf","evaNumber":"8010205"},"segmentDestination":{"name":"Cottbus Hbf","evaNumber":"8010073"},"stops":[{"station":{"evaNumber":"8010205","name":"Leipzig Hbf","coordinates":{"lng":12.381167,"lat":51.345081},"ril100":"LL"},"departure":{"platform":"9","scheduledTime":"2023-10-18T19:12:00.000Z","time":"2023-10-18T19:12:00.000Z","reihung":false}},{"station":{"evaNumber":"8013093","name":"Taucha(Leipzig)","coordinates":{"lng":12.485711,"lat":51.379483},"ril100":"LTC"},"arrival":{"platform":"1","scheduledTime":"2023-10-18T19:20:00.000Z","time":"2023-10-18T19:20:00.000Z","reihung":false},"departure":{"platform":"1","scheduledTime":"2023-10-18T19:21:00.000Z","time":"2023-10-18T19:21:00.000Z","reihung":false}},{"station":{"evaNumber":"8010095","name":"Eilenburg","coordinates":{"lng":12.63682,"lat":51.451864},"ril100":"LEG"},"arrival":{"platform":"3","scheduledTime":"2023-10-18T19:30:00.000Z","time":"2023-10-18T19:30:00.000Z","reihung":false},"departure":{"platform":"3","scheduledTime":"2023-10-18T19:31:00.000Z","time":"2023-10-18T19:31:00.000Z","reihung":false}},{"station":{"evaNumber":"8010351","name":"Torgau","coordinates":{"lng":12.991121,"lat":51.562961},"ril100":"LTG"},"arrival":{"platform":"1","scheduledTime":"2023-10-18T19:48:00.000Z","time":"2023-10-18T19:48:00.000Z","reihung":false},"departure":{"platform":"1","scheduledTime":"2023-10-18T19:49:00.000Z","time":"2023-10-18T19:49:00.000Z","reihung":false}},{"station":{"evaNumber":"8011131","name":"Beilrode","coordinates":{"lng":13.064931,"lat":51.570998},"ril100":"LBEI"},"arrival":{"platform":"2","scheduledTime":"2023-10-18T19:53:00.000Z","time":"2023-10-18T19:53:00.000Z","reihung":false},"departure":{"platform":"2","scheduledTime":"2023-10-18T19:53:00.000Z","time":"2023-10-18T19:53:00.000Z","reihung":false}},{"station":{"evaNumber":"8010103","name":"Falkenberg(Elster)","coordinates":{"lng":13.248877,"lat":51.583079},"ril100":"LF"},"arrival":{"platform":"7","scheduledTime":"2023-10-18T20:00:00.000Z","time":"2023-10-18T20:00:00.000Z","reihung":false},"departure":{"platform":"7","scheduledTime":"2023-10-18T20:03:00.000Z","time":"2023-10-18T20:03:00.000Z","reihung":false}},{"station":{"evaNumber":"8010079","name":"Doberlug-Kirchhain","coordinates":{"lng":13.564273,"lat":51.620798},"ril100":"BDKO"},"arrival":{"platform":"4","scheduledTime":"2023-10-18T20:15:00.000Z","time":"2023-10-18T20:15:00.000Z","reihung":false},"departure":{"platform":"4","scheduledTime":"2023-10-18T20:16:00.000Z","time":"2023-10-18T20:16:00.000Z","reihung":false}},{"station":{"evaNumber":"8011542","name":"Finsterwalde(Niederlausitz)","coordinates":{"lng":13.710411,"lat":51.636997},"ril100":"BFW"},"arrival":{"platform":"1","scheduledTime":"2023-10-18T20:24:00.000Z","time":"2023-10-18T20:24:00.000Z","reihung":false},"departure":{"platform":"1","scheduledTime":"2023-10-18T20:25:00.000Z","time":"2023-10-18T20:25:00.000Z","reihung":false}},{"station":{"evaNumber":"8010069","name":"Calau(Nl)","coordinates":{"lng":13.979673,"lat":51.738107}},"arrival":{"platform":"3","scheduledTime":"2023-10-18T20:38:00.000Z","time":"2023-10-18T20:38:00.000Z","reihung":false},"departure":{"platform":"3","scheduledTime":"2023-10-18T20:39:00.000Z","time":"2023-10-18T20:39:00.000Z","reihung":false}},{"station":{"evaNumber":"8010073","name":"Cottbus Hbf","coordinates":{"lng":14.323673,"lat":51.751133},"ril100":"BCS"},"arrival":{"platform":"5","scheduledTime":"2023-10-18T20:55:00.000Z","time":"2023-10-18T20:55:00.000Z","reihung":false}}],"finalDestination":"Frankfurt(Oder)","jid":"1|215344|0|80|18102023","messages":[{"type":"A","code":"FB","prio":260,"icoX":5,"txtN":"Fahrradmitnahme begrenzt möglich"},{"type":"A","code":"ZL","prio":400,"icoX":6,"txtN":"Verschiedene Zugteile: Zielanzeiger beachten"},{"type":"A","code":"EH","prio":560,"icoX":6,"txtN":"Fahrzeuggebundene Einstiegshilfe vorhanden"}],"type":"JNY"}],"segmentTypes":["ICE","ICE","RE"]},{"checksum":"19dbf79a_3","cid":"C-5","date":"2023-10-17T22:00:00.000Z","duration":24300000,"changes":3,"isRideable":true,"arrival":{"platform":"5","scheduledTime":"2023-10-18T20:55:00.000Z","time":"2023-10-18T20:55:00.000Z","reihung":false},"departure":{"platform":"2","scheduledTime":"2023-10-18T14:10:00.000Z","time":"2023-10-18T14:10:00.000Z","reihung":false},"segments":[{"arrival":{"platform":"8","scheduledTime":"2023-10-18T14:24:00.000Z","time":"2023-10-18T14:24:00.000Z","reihung":false},"departure":{"platform":"2","scheduledTime":"2023-10-18T14:10:00.000Z","time":"2023-10-18T14:10:00.000Z","reihung":false},"duration":840000,"train":{"name":"RE 10b","line":"10b","admin":"SBSRE","number":"19274","type":"RE","operator":{"name":"SWEG Bahn Stuttgart GmbH","icoX":20}},"changeDuration":8,"segmentStart":{"name":"Heidelberg Hbf","evaNumber":"8000156"},"segmentDestination":{"name":"Mannheim Hbf","evaNumber":"8000244"},"stops":[{"station":{"evaNumber":"8000156","name":"Heidelberg Hbf","coordinates":{"lng":8.67548,"lat":49.403582},"ril100":"RH"},"departure":{"platform":"2","scheduledTime":"2023-10-18T14:10:00.000Z","time":"2023-10-18T14:10:00.000Z","reihung":false}},{"station":{"evaNumber":"8000244","name":"Mannheim Hbf","coordinates":{"lng":8.469268,"lat":49.479181},"ril100":"RM"},"arrival":{"platform":"8","scheduledTime":"2023-10-18T14:24:00.000Z","time":"2023-10-18T14:24:00.000Z","reihung":false}}],"finalDestination":"Mannheim Hbf","jid":"1|1118910|0|80|18102023","messages":[{"type":"A","code":"FB","prio":260,"icoX":5,"txtN":"Fahrradmitnahme begrenzt möglich"},{"type":"A","code":"EH","prio":560,"icoX":6,"txtN":"Fahrzeuggebundene Einstiegshilfe vorhanden"},{"type":"A","code":"EA","prio":560,"icoX":6,"txtN":"Behindertengerechte Ausstattung"},{"type":"A","code":"KL","prio":610,"icoX":6,"txtN":"Klimaanlage"},{"type":"M","code":"","icoX":21,"txtS":"RE 19274: Heidelberg Hbf->Mannheim Hbf: Information.","txtN":"1. Klasse fehlt.","sIdx":0}],"type":"JNY"},{"arrival":{"platform":"8","scheduledTime":"2023-10-18T15:08:00.000Z","time":"2023-10-18T15:08:00.000Z","reihung":false},"departure":{"platform":"2","scheduledTime":"2023-10-18T14:32:00.000Z","time":"2023-10-18T14:32:00.000Z","reihung":false},"duration":2160000,"train":{"name":"ICE 276","line":"12","admin":"80","number":"276","type":"ICE","operator":{"name":"DB Fernverkehr AG","icoX":7}},"changeDuration":11,"segmentStart":{"name":"Mannheim Hbf","evaNumber":"8000244"},"segmentDestination":{"name":"Frankfurt(Main)Hbf","evaNumber":"8000105"},"stops":[{"station":{"evaNumber":"8000244","name":"Mannheim Hbf","coordinates":{"lng":8.469268,"lat":49.479181},"ril100":"RM"},"departure":{"platform":"2","scheduledTime":"2023-10-18T14:32:00.000Z","time":"2023-10-18T14:32:00.000Z","reihung":false},"auslastung":{"first":2,"second":1}},{"station":{"evaNumber":"8000105","name":"Frankfurt(Main)Hbf","coordinates":{"lng":8.663003,"lat":50.106817},"ril100":"FF"},"arrival":{"platform":"8","scheduledTime":"2023-10-18T15:08:00.000Z","time":"2023-10-18T15:08:00.000Z","reihung":false}}],"finalDestination":"Hamburg-Altona","jid":"1|204246|0|80|18102023","auslastung":{"first":2,"second":1},"messages":[{"type":"A","code":"CK","prio":200,"icoX":6,"txtN":"Sicher & kontaktlos ohne Ticketkontrolle reisen mit Komfort Check-in"},{"type":"A","code":"FR","prio":260,"icoX":8,"txtN":"Fahrradmitnahme reservierungspflichtig"},{"type":"A","code":"FB","prio":260,"icoX":5,"txtN":"Fahrradmitnahme begrenzt möglich"},{"type":"A","code":"BR","prio":450,"icoX":9,"txtN":"Bordrestaurant"},{"type":"A","code":"EH","prio":560,"icoX":6,"txtN":"Fahrzeuggebundene Einstiegshilfe vorhanden"}],"type":"JNY"},{"arrival":{"platform":"14","scheduledTime":"2023-10-18T18:24:00.000Z","time":"2023-10-18T18:24:00.000Z","reihung":false},"departure":{"platform":"6","scheduledTime":"2023-10-18T15:19:00.000Z","time":"2023-10-18T15:19:00.000Z","reihung":false},"duration":11100000,"train":{"name":"ICE 1655","line":"50","admin":"80","number":"1655","type":"ICE","operator":{"name":"DB Fernverkehr AG","icoX":7}},"changeDuration":48,"segmentStart":{"name":"Frankfurt(Main)Hbf","evaNumber":"8000105"},"segmentDestination":{"name":"Leipzig Hbf","evaNumber":"8010205"},"stops":[{"station":{"evaNumber":"8000105","name":"Frankfurt(Main)Hbf","coordinates":{"lng":8.663003,"lat":50.106817},"ril100":"FF"},"departure":{"platform":"6","scheduledTime":"2023-10-18T15:19:00.000Z","time":"2023-10-18T15:19:00.000Z","reihung":false},"auslastung":{"first":2,"second":2}},{"station":{"evaNumber":"8000115","name":"Fulda","coordinates":{"lng":9.684178,"lat":50.554794},"ril100":"FFU"},"arrival":{"platform":"7","scheduledTime":"2023-10-18T16:13:00.000Z","time":"2023-10-18T16:13:00.000Z","reihung":false},"departure":{"platform":"7","scheduledTime":"2023-10-18T16:15:00.000Z","time":"2023-10-18T16:15:00.000Z","reihung":false},"auslastung":{"first":2,"second":2}},{"station":{"evaNumber":"8000020","name":"Bad Hersfeld","coordinates":{"lng":9.716611,"lat":50.86992},"ril100":"FBHF"},"arrival":{"platform":"3","scheduledTime":"2023-10-18T16:39:00.000Z","time":"2023-10-18T16:39:00.000Z","reihung":false},"departure":{"platform":"3","scheduledTime":"2023-10-18T16:40:00.000Z","time":"2023-10-18T16:40:00.000Z","reihung":false},"auslastung":{"first":2,"second":2}},{"station":{"evaNumber":"8010097","name":"Eisenach","coordinates":{"lng":10.33212,"lat":50.976928},"ril100":"UEI"},"arrival":{"platform":"4","scheduledTime":"2023-10-18T17:07:00.000Z","time":"2023-10-18T17:07:00.000Z","reihung":false},"departure":{"platform":"4","scheduledTime":"2023-10-18T17:08:00.000Z","time":"2023-10-18T17:08:00.000Z","reihung":false},"auslastung":{"first":2,"second":2}},{"station":{"evaNumber":"8010136","name":"Gotha","coordinates":{"lng":10.712688,"lat":50.939029},"ril100":"UGO"},"arrival":{"platform":"3","scheduledTime":"2023-10-18T17:21:00.000Z","time":"2023-10-18T17:21:00.000Z","reihung":false},"departure":{"platform":"3","scheduledTime":"2023-10-18T17:22:00.000Z","time":"2023-10-18T17:22:00.000Z","reihung":false},"auslastung":{"first":2,"second":2}},{"station":{"evaNumber":"8010101","name":"Erfurt Hbf","coordinates":{"lng":11.038502,"lat":50.97255},"ril100":"UE  P"},"arrival":{"platform":"10","scheduledTime":"2023-10-18T17:38:00.000Z","time":"2023-10-18T17:38:00.000Z","reihung":false},"departure":{"platform":"10","scheduledTime":"2023-10-18T17:40:00.000Z","time":"2023-10-18T17:40:00.000Z","reihung":false},"auslastung":{"first":2,"second":2}},{"station":{"evaNumber":"8010205","name":"Leipzig Hbf","coordinates":{"lng":12.381167,"lat":51.345081},"ril100":"LL"},"arrival":{"platform":"14","scheduledTime":"2023-10-18T18:24:00.000Z","time":"2023-10-18T18:24:00.000Z","reihung":false}}],"finalDestination":"Dresden Hbf","jid":"1|198681|0|80|18102023","auslastung":{"first":2,"second":2},"messages":[{"type":"A","code":"CK","prio":200,"icoX":6,"txtN":"Sicher & kontaktlos ohne Ticketkontrolle reisen mit Komfort Check-in"},{"type":"A","code":"FR","prio":260,"icoX":8,"txtN":"Fahrradmitnahme reservierungspflichtig"},{"type":"A","code":"FB","prio":260,"icoX":5,"txtN":"Fahrradmitnahme begrenzt möglich"},{"type":"A","code":"BR","prio":450,"icoX":9,"txtN":"Bordrestaurant"}],"type":"JNY"},{"arrival":{"platform":"5","scheduledTime":"2023-10-18T20:55:00.000Z","time":"2023-10-18T20:55:00.000Z","reihung":false},"departure":{"platform":"9","scheduledTime":"2023-10-18T19:12:00.000Z","time":"2023-10-18T19:12:00.000Z","reihung":false},"duration":6180000,"train":{"name":"RE 10","line":"10","admin":"800166","number":"18396","type":"RE","operator":{"name":"DB Regio AG Nordost","icoX":12}},"segmentStart":{"name":"Leipzig Hbf","evaNumber":"8010205"},"segmentDestination":{"name":"Cottbus Hbf","evaNumber":"8010073"},"stops":[{"station":{"evaNumber":"8010205","name":"Leipzig Hbf","coordinates":{"lng":12.381167,"lat":51.345081},"ril100":"LL"},"departure":{"platform":"9","scheduledTime":"2023-10-18T19:12:00.000Z","time":"2023-10-18T19:12:00.000Z","reihung":false}},{"station":{"evaNumber":"8013093","name":"Taucha(Leipzig)","coordinates":{"lng":12.485711,"lat":51.379483},"ril100":"LTC"},"arrival":{"platform":"1","scheduledTime":"2023-10-18T19:20:00.000Z","time":"2023-10-18T19:20:00.000Z","reihung":false},"departure":{"platform":"1","scheduledTime":"2023-10-18T19:21:00.000Z","time":"2023-10-18T19:21:00.000Z","reihung":false}},{"station":{"evaNumber":"8010095","name":"Eilenburg","coordinates":{"lng":12.63682,"lat":51.451864},"ril100":"LEG"},"arrival":{"platform":"3","scheduledTime":"2023-10-18T19:30:00.000Z","time":"2023-10-18T19:30:00.000Z","reihung":false},"departure":{"platform":"3","scheduledTime":"2023-10-18T19:31:00.000Z","time":"2023-10-18T19:31:00.000Z","reihung":false}},{"station":{"evaNumber":"8010351","name":"Torgau","coordinates":{"lng":12.991121,"lat":51.562961},"ril100":"LTG"},"arrival":{"platform":"1","scheduledTime":"2023-10-18T19:48:00.000Z","time":"2023-10-18T19:48:00.000Z","reihung":false},"departure":{"platform":"1","scheduledTime":"2023-10-18T19:49:00.000Z","time":"2023-10-18T19:49:00.000Z","reihung":false}},{"station":{"evaNumber":"8011131","name":"Beilrode","coordinates":{"lng":13.064931,"lat":51.570998},"ril100":"LBEI"},"arrival":{"platform":"2","scheduledTime":"2023-10-18T19:53:00.000Z","time":"2023-10-18T19:53:00.000Z","reihung":false},"departure":{"platform":"2","scheduledTime":"2023-10-18T19:53:00.000Z","time":"2023-10-18T19:53:00.000Z","reihung":false}},{"station":{"evaNumber":"8010103","name":"Falkenberg(Elster)","coordinates":{"lng":13.248877,"lat":51.583079},"ril100":"LF"},"arrival":{"platform":"7","scheduledTime":"2023-10-18T20:00:00.000Z","time":"2023-10-18T20:00:00.000Z","reihung":false},"departure":{"platform":"7","scheduledTime":"2023-10-18T20:03:00.000Z","time":"2023-10-18T20:03:00.000Z","reihung":false}},{"station":{"evaNumber":"8010079","name":"Doberlug-Kirchhain","coordinates":{"lng":13.564273,"lat":51.620798},"ril100":"BDKO"},"arrival":{"platform":"4","scheduledTime":"2023-10-18T20:15:00.000Z","time":"2023-10-18T20:15:00.000Z","reihung":false},"departure":{"platform":"4","scheduledTime":"2023-10-18T20:16:00.000Z","time":"2023-10-18T20:16:00.000Z","reihung":false}},{"station":{"evaNumber":"8011542","name":"Finsterwalde(Niederlausitz)","coordinates":{"lng":13.710411,"lat":51.636997},"ril100":"BFW"},"arrival":{"platform":"1","scheduledTime":"2023-10-18T20:24:00.000Z","time":"2023-10-18T20:24:00.000Z","reihung":false},"departure":{"platform":"1","scheduledTime":"2023-10-18T20:25:00.000Z","time":"2023-10-18T20:25:00.000Z","reihung":false}},{"station":{"evaNumber":"8010069","name":"Calau(Nl)","coordinates":{"lng":13.979673,"lat":51.738107}},"arrival":{"platform":"3","scheduledTime":"2023-10-18T20:38:00.000Z","time":"2023-10-18T20:38:00.000Z","reihung":false},"departure":{"platform":"3","scheduledTime":"2023-10-18T20:39:00.000Z","time":"2023-10-18T20:39:00.000Z","reihung":false}},{"station":{"evaNumber":"8010073","name":"Cottbus Hbf","coordinates":{"lng":14.323673,"lat":51.751133},"ril100":"BCS"},"arrival":{"platform":"5","scheduledTime":"2023-10-18T20:55:00.000Z","time":"2023-10-18T20:55:00.000Z","reihung":false}}],"finalDestination":"Frankfurt(Oder)","jid":"1|215344|0|80|18102023","messages":[{"type":"A","code":"FB","prio":260,"icoX":5,"txtN":"Fahrradmitnahme begrenzt möglich"},{"type":"A","code":"ZL","prio":400,"icoX":6,"txtN":"Verschiedene Zugteile: Zielanzeiger beachten"},{"type":"A","code":"EH","prio":560,"icoX":6,"txtN":"Fahrzeuggebundene Einstiegshilfe vorhanden"}],"type":"JNY"}],"segmentTypes":["RE","ICE","ICE","RE"]}]}