{"context":{"earlier":"3|OB|MT#14#451584#451584#451933#451933#0#0#66101#451576#1#0#27#0#0#-2147483648#1#2|PDH#bbe10b32f5270e429a5a473728022d1b|RD#18102023|RT#141653|US#0|RS#INIT","later":"3|OF|MT#14#451644#451644#451994#451994#0#0#565#451588#7#0#8219#0#0#-2147483648#1#2|PDH#bbe10b32f5270e429a5a473728022d1b|RD#18102023|RT#141653|US#0|RS#INIT"},"routes":[{"checksum":"0df9233a_3","cid":"C-0","date":"2023-10-17T22:00:00.000Z","duration":20940000,"changes":1,"isRideable":true,"arrival":{"platform":"5","scheduledTime":"2023-10-18T18:13:00.000Z","time":"2023-10-18T18:13:00.000Z","reihung":false},"departure":{"platform":"14","scheduledTime":"2023-10-18T12:24:00.000Z","time":"2023-10-18T12:24:00.000Z","reihung":false},"segments":[{"arrival":{"platform":"4","scheduledTime":"2023-10-18T17:27:00.000Z","time":"2023-10-18T17:27:00.000Z","reihung":false},"departure":{"platform":"14","scheduledTime":"2023-10-18T12:24:00.000Z","time":"2023-10-18T12:24:00.000Z","reihung":false},"duration":18180000,"train":{"name":"ICE 375","line":"12","admin":"80","number":"375","type":"ICE","operator":{"name":"DB Fernverkehr AG","icoX":1}},"changeDuration":16,"segmentStart":{"name":"Hamburg Hbf","evaNumber":"8002549"},"segmentDestination":{"name":"Mannheim Hbf","evaNumber":"8000244"},"stops":[{"station":{"evaNumber":"8002549","name":"Hamburg Hbf","coordinates":{"lng":10.00636,"lat":53.553533},"ril100":"AH"},"departure":{"platform":"14","scheduledTime":"2023-10-18T12:24:00.000Z","time":"2023-10-18T12:24:00.000Z","reihung":false}},{"station":{"evaNumber":"8000147","name":"Hamburg-Harburg","coordinates":{"lng":9.991591,"lat":53.456198},"ril100":"AHAR"},"arrival":{"platform":"4","scheduledTime":"2023-10-18T12:33:00.000Z","time":"2023-10-18T12:33:00.000Z","reihung":false},"departure":{"platform":"4","scheduledTime":"2023-10-18T12:35:00.000Z","time":"2023-10-18T12:35:00.000Z","reihung":false},"auslastung":{"first":1,"second":1}},{"station":{"evaNumber":"8000152","name":"Hannover Hbf","coordinates":{"lng":9.741763,"lat":52.377079},"ril100":"HH"},"arrival":{"platform":"3","scheduledTime":"2023-10-18T13:38:00.000Z","time":"2023-10-18T13:38:00.000Z","reihung":false},"departure":{"platform":"3","scheduledTime":"2023-10-18T13:41:00.000Z","time":"2023-10-18T13:41:00.000Z","reihung":false},"auslastung":{"first":1,"second":1}},{"station":{"evaNumber":"8000128","name":"Göttingen","coordinates":{"lng":9.926257,"lat":51.536758},"ril100":"HG"},"arrival":{"platform":"10","scheduledTime":"2023-10-18T14:15:00.000Z","time":"2023-10-18T14:15:00.000Z","reihung":false},"departure":{"platform":"10","scheduledTime":"2023-10-18T14:16:00.000Z","time":"2023-10-18T14:16:00.000Z","reihung":false},"auslastung":{"first":1,"second":1}},{"station":{"evaNumber":"8003200","name":"Kassel-Wilhelmshöhe","coordinates":{"lng":9.446845,"lat":51.312998},"ril100":"FKW"},"arrival":{"platform":"2","scheduledTime":"2023-10-18T14:35:00.000Z","time":"2023-10-18T14:35:00.000Z","reihung":false},"departure":{"platform":"2","scheduledTime":"2023-10-18T14:37:00.000Z","time":"2023-10-18T14:37:00.000Z","reihung":false},"auslastung":{"first":1,"second":1}},{"station":{"evaNumber":"8000115","name":"Fulda","coordinates":{"lng":9.684178,"lat":50.554794},"ril100":"FFU"},"arrival":{"platform":"4","scheduledTime":"2023-10-18T15:46:00.000Z","time":"2023-10-18T15:46:00.000Z","reihung":false},"departure":{"platform":"4","scheduledTime":"2023-10-18T15:48:00.000Z","time":"2023-10-18T15:48:00.000Z","reihung":false},"auslastung":{"first":2,"second":1}},{"station":{"evaNumber":"8000150","name":"Hanau Hbf","coordinates":{"lng":8.92921,"lat":50.120903},"ril100":"FH"},"arrival":{"platform":"6","scheduledTime":"2023-10-18T16:26:00.000Z","time":"2023-10-18T16:26:00.000Z","reihung":false},"departure":{"platform":"6","scheduledTime":"2023-10-18T16:28:00.000Z","time":"2023-10-18T16:28:00.000Z","reihung":false},"auslastung":{"first":2,"second":1}},{"station":{"evaNumber":"8000105","name":"Frankfurt(Main)Hbf","coordinates":{"lng":8.663003,"lat":50.106817},"ril100":"FF"},"arrival":{"platform":"9","scheduledTime":"2023-10-18T16:44:00.000Z","time":"2023-10-18T16:44:00.000Z","reihung":false},"departure":{"platform":"9","scheduledTime":"2023-10-18T16:50:00.000Z","time":"2023-10-18T16:50:00.000Z","reihung":false},"auslastung":{"first":1,"second":2}},{"station":{"evaNumber":"8000244","name":"Mannheim Hbf","coordinates":{"lng":8.469268,"lat":49.479181},"ril100":"RM"},"arrival":{"platform":"4","scheduledTime":"2023-10-18T17:27:00.000Z","time":"2023-10-18T17:27:00.000Z","reihung":false}}],"finalDestination":"Basel SBB","jid":"1|204555|0|80|18102023","auslastung":{"first":2,"second":2},"messages":[{"type":"A","code":"CK","prio":200,"icoX":3,"txtN":"Sicher & kontaktlos ohne Ticketkontrolle reisen mit Komfort Check-in"},{"type":"A","code":"FR","prio":260,"icoX":4,"txtN":"Fahrradmitnahme reservierungspflichtig"},{"type":"A","code":"FB","prio":260,"icoX":5,"txtN":"Fahrradmitnahme begrenzt möglich"},{"type":"A","code":"BR","prio":450,"icoX":6,"txtN":"Bordrestaurant"},{"type":"A","code":"EH","prio":560,"icoX":3,"txtN":"Fahrzeuggebundene Einstiegshilfe vorhanden"}],"type":"JNY"},{"arrival":{"platform":"5","scheduledTime":"2023-10-18T18:13:00.000Z","time":"2023-10-18T18:13:00.000Z","reihung":false},"departure":{"platform":"8","scheduledTime":"2023-10-18T17:43:00.000Z","time":"2023-10-18T17:43:00.000Z","reihung":false},"duration":1800000,"train":{"name":"S 6","line":"6","admin":"801518","number":"38678","type":"S","operator":{"name":"DB Regio AG Mitte","icoX":8}},"segmentStart":{"name":"Mannheim Hbf","evaNumber":"8000244"},"segmentDestination":{"name":"Worms Hbf","evaNumber":"8000257"},"stops":[{"station":{"evaNumber":"8000244","name":"Mannheim Hbf","coordinates":{"lng":8.469268,"lat":49.479181},"ril100":"RM"},"departure":{"platform":"8","scheduledTime":"2023-10-18T17:43:00.000Z","time":"2023-10-18T17:43:00.000Z","reihung":false}},{"station":{"evaNumber":"8003759","name":"Ludwigshafen(Rhein) Mitte","coordinates":{"lng":8.452215,"lat":49.478938},"ril100":"RLSM"},"arrival":{"platform":"1","scheduledTime":"2023-10-18T17:45:00.000Z","time":"2023-10-18T17:45:00.000Z","reihung":false},"departure":{"platform":"1","scheduledTime":"2023-10-18T17:46:00.000Z","time":"2023-10-18T17:46:00.000Z","reihung":false}},{"station":{"evaNumber":"8000236","name":"Ludwigshafen(Rh)Hbf","coordinates":{"lng":8.433769,"lat":49.477257},"ril100":"RL"},"arrival":{"platform":"1","scheduledTime":"2023-10-18T17:48:00.000Z","time":"2023-10-18T17:48:00.000Z","reihung":false},"departure":{"platform":"1","scheduledTime":"2023-10-18T17:50:00.000Z","time":"2023-10-18T17:50:00.000Z","reihung":false}},{"station":{"evaNumber":"8003766","name":"Ludwigshafen-Oggersheim","coordinates":{"lng":8.381587,"lat":49.49324},"ril100":"RLO"},"arrival":{"platform":"2","scheduledTime":"2023-10-18T17:54:00.000Z","time":"2023-10-18T17:54:00.000Z","reihung":false},"departure":{"platform":"2","scheduledTime":"2023-10-18T17:54:00.000Z","time":"2023-10-18T17:54:00.000Z","reihung":false}},{"station":{"evaNumber":"8002025","name":"Frankenthal Süd","coordinates":{"lng":8.349559,"lat":49.522698},"ril100":"RFTS"},"arrival":{"platform":"1","scheduledTime":"2023-10-18T17:57:00.000Z","time":"2023-10-18T17:57:00.000Z","reihung":false},"departure":{"platform":"1","scheduledTime":"2023-10-18T17:58:00.000Z","time":"2023-10-18T17:58:00.000Z","reihung":false}},{"station":{"evaNumber":"8000332","name":"Frankenthal Hbf","coordinates":{"lng":8.349657,"lat":49.535633},"ril100":"RFT"},"arrival":{"platform":"1","scheduledTime":"2023-10-18T17:59:00.000Z","time":"2023-10-18T17:59:00.000Z","reihung":false},"departure":{"platform":"1","scheduledTime":"2023-10-18T18:02:00.000Z","time":"2023-10-18T18:02:00.000Z","reihung":false}},{"station":{"evaNumber":"8001032","name":"Bobenheim","coordinates":{"lng":8.35035,"lat":49.588139},"ril100":"RBOB"},"arrival":{"platform":"1","scheduledTime":"2023-10-18T18:07:00.000Z","time":"2023-10-18T18:07:00.000Z","reihung":false},"departure":{"platform":"1","scheduledTime":"2023-10-18T18:07:00.000Z","time":"2023-10-18T18:07:00.000Z","reihung":false}},{"station":{"evaNumber":"8000257","name":"Worms Hbf","coordinates":{"lng":8.356633,"lat":49.634973},"ril100":"FWOR"},"arrival":{"platform":"5","scheduledTime":"2023-10-18T18:13:00.000Z","time":"2023-10-18T18:13:00.000Z","reihung":false}}],"finalDestination":"Mainz Hbf","jid":"1|254834|0|80|18102023","messages":[{"type":"A","code":"FB","prio":260,"icoX":5,"txtN":"Fahrradmitnahme begrenzt möglich"},{"type":"A","code":"EH","prio":560,"icoX":3,"txtN":"Fahrzeuggebundene Einstiegshilfe vorhanden"},{"type":"A","code":"LS","prio":605,"icoX":3,"txtN":"Laptop-Steckdosen"},{"type":"A","code":"KL","prio":610,"icoX":3,"txtN":"Klimaanlage"}],"type":"JNY"}],"segmentTypes":["ICE","S"]},{"checksum":"f55d5744_3","cid":"C-1","date":"2023-10-17T22:00:00.000Z","duration":21000000,"changes":2,"isRideable":true,"arrival":{"platform":"9","scheduledTime":"2023-10-18T18:14:00.000Z","time":"2023-10-18T18:14:00.000Z","reihung":false},"departure":{"platform":"14","scheduledTime":"2023-10-18T12:24:00.000Z","time":"2023-10-18T12:24:00.000Z","reihung":false},"segments":[{"arrival":{"platform":"9","scheduledTime":"2023-10-18T16:44:00.000Z","time":"2023-10-18T16:44:00.000Z","reihung":false},"departure":{"platform":"14","scheduledTime":"2023-10-18T12:24:00.000Z","time":"2023-10-18T12:24:00.000Z","reihung":false},"duration":15600000,"train":{"name":"ICE 375","line":"12","admin":"80","number":"375","type":"ICE","operator":{"name":"DB Fernverkehr AG","icoX":1}},"changeDuration":28,"segmentStart":{"name":"Hamburg Hbf","evaNumber":"8002549"},"segmentDestination":{"name":"Frankfurt(Main)Hbf","evaNumber":"8000105"},"stops":[{"station":{"evaNumber":"8002549","name":"Hamburg Hbf","coordinates":{"lng":10.00636,"lat":53.553533},"ril100":"AH"},"departure":{"platform":"14","scheduledTime":"2023-10-18T12:24:00.000Z","time":"2023-10-18T12:24:00.000Z","reihung":false}},{"station":{"evaNumber":"8000147","name":"Hamburg-Harburg","coordinates":{"lng":9.991591,"lat":53.456198},"ril100":"AHAR"},"arrival":{"platform":"4","scheduledTime":"2023-10-18T12:33:00.000Z","time":"2023-10-18T12:33:00.000Z","reihung":false},"departure":{"platform":"4","scheduledTime":"2023-10-18T12:35:00.000Z","time":"2023-10-18T12:35:00.000Z","reihung":false},"auslastung":{"first":1,"second":1}},{"station":{"evaNumber":"8000152","name":"Hannover Hbf","coordinates":{"lng":9.741763,"lat":52.377079},"ril100":"HH"},"arrival":{"platform":"3","scheduledTime":"2023-10-18T13:38:00.000Z","time":"2023-10-18T13:38:00.000Z","reihung":false},"departure":{"platform":"3","scheduledTime":"2023-10-18T13:41:00.000Z","time":"2023-10-18T13:41:00.000Z","reihung":false},"auslastung":{"first":1,"second":1}},{"station":{"evaNumber":"8000128","name":"Göttingen","coordinates":{"lng":9.926257,"lat":51.536758},"ril100":"HG"},"arrival":{"platform":"10","scheduledTime":"2023-10-18T14:15:00.000Z","time":"2023-10-18T14:15:00.000Z","reihung":false},"departure":{"platform":"10","scheduledTime":"2023-10-18T14:16:00.000Z","time":"2023-10-18T14:16:00.000Z","reihung":false},"auslastung":{"first":1,"second":1}},{"station":{"evaNumber":"8003200","name":"Kassel-Wilhelmshöhe","coordinates":{"lng":9.446845,"lat":51.312998},"ril100":"FKW"},"arrival":{"platform":"2","scheduledTime":"2023-10-18T14:35:00.000Z","time":"2023-10-18T14:35:00.000Z","reihung":false},"departure":{"platform":"2","scheduledTime":"2023-10-18T14:37:00.000Z","time":"2023-10-18T14:37:00.000Z","reihung":false},"auslastung":{"first":1,"second":1}},{"station":{"evaNumber":"8000115","name":"Fulda","coordinates":{"lng":9.684178,"lat":50.554794},"ril100":"FFU"},"arrival":{"platform":"4","scheduledTime":"2023-10-18T15:46:00.000Z","time":"2023-10-18T15:46:00.000Z","reihung":false},"departure":{"platform":"4","scheduledTime":"2023-10-18T15:48:00.000Z","time":"2023-10-18T15:48:00.000Z","reihung":false},"auslastung":{"first":2,"second":1}},{"station":{"evaNumber":"8000150","name":"Hanau Hbf","coordinates":{"lng":8.92921,"lat":50.120903},"ril100":"FH"},"arrival":{"platform":"6","scheduledTime":"2023-10-18T16:26:00.000Z","time":"2023-10-18T16:26:00.000Z","reihung":false},"departure":{"platform":"6","scheduledTime":"2023-10-18T16:28:00.000Z","time":"2023-10-18T16:28:00.000Z","reihung":false},"auslastung":{"first":2,"second":1}},{"station":{"evaNumber":"8000105","name":"Frankfurt(Main)Hbf","coordinates":{"lng":8.663003,"lat":50.106817},"ril100":"FF"},"arrival":{"platform":"9","scheduledTime":"2023-10-18T16:44:00.000Z","time":"2023-10-18T16:44:00.000Z","reihung":false}}],"finalDestination":"Basel SBB","jid":"1|204555|0|80|18102023","auslastung":{"first":2,"second":1},"messages":[{"type":"A","code":"CK","prio":200,"icoX":3,"txtN":"Sicher & kontaktlos ohne Ticketkontrolle reisen mit Komfort Check-in"},{"type":"A","code":"FR","prio":260,"icoX":4,"txtN":"Fahrradmitnahme reservierungspflichtig"},{"type":"A","code":"FB","prio":260,"icoX":5,"txtN":"Fahrradmitnahme begrenzt möglich"},{"type":"A","code":"BR","prio":450,"icoX":6,"txtN":"Bordrestaurant"},{"type":"A","code":"EH","prio":560,"icoX":3,"txtN":"Fahrzeuggebundene Einstiegshilfe vorhanden"},{"type":"M","code":"","icoX":11,"txtS":"ICE 375: Frankfurt(Main)Hbf: Information.","txtN":"Keine Be-/Entladung von Fahrrädern in Frankfurt(Main)Hbf möglich.","sIdx":0}],"type":"JNY"},{"arrival":{"platform":"3","scheduledTime":"2023-10-18T17:59:00.000Z","time":"2023-10-18T17:59:00.000Z","reihung":false},"departure":{"platform":"17","scheduledTime":"2023-10-18T17:12:00.000Z","time":"2023-10-18T17:12:00.000Z","reihung":false},"duration":2820000,"train":{"name":"RE 70","line":"70","admin":"800574","number":"4581","type":"RE","operator":{"name":"DB Regio AG Mitte","icoX":8}},"changeDuration":6,"segmentStart":{"name":"Frankfurt(Main)Hbf","evaNumber":"8000105"},"segmentDestination":{"name":"Biblis","evaNumber":"8000503"},"stops":[{"station":{"evaNumber":"8000105","name":"Frankfurt(Main)Hbf","coordinates":{"lng":8.663003,"lat":50.106817},"ril100":"FF"},"departure":{"platform":"17","scheduledTime":"2023-10-18T17:12:00.000Z","time":"2023-10-18T17:12:00.000Z","reihung":false}},{"station":{"evaNumber":"8002050","name":"Frankfurt-Niederrad","coordinates":{"lng":8.637393,"lat":50.080865},"ril100":"FNI"},"arrival":{"platform":"2","scheduledTime":"2023-10-18T17:18:00.000Z","time":"2023-10-18T17:18:00.000Z","reihung":false},"departure":{"platform":"2","scheduledTime":"2023-10-18T17:18:00.000Z","time":"2023-10-18T17:18:00.000Z","reihung":false}},{"station":{"evaNumber":"8006175","name":"Walldorf(Hess)","coordinates":{"lng":8.580806,"lat":50.001328},"ril100":"FWF"},"arrival":{"platform":"12","scheduledTime":"2023-10-18T17:25:00.000Z","time":"2023-10-18T17:25:00.000Z","reihung":false},"departure":{"platform":"12","scheduledTime":"2023-10-18T17:25:00.000Z","time":"2023-10-18T17:25:00.000Z","reihung":false}},{"station":{"evaNumber":"8004065","name":"Mörfelden","coordinates":{"lng":8.565381,"lat":49.978963},"ril100":"FMF"},"arrival":{"platform":"3","scheduledTime":"2023-10-18T17:28:00.000Z","time":"2023-10-18T17:28:00.000Z","reihung":false},"departure":{"platform":"3","scheduledTime":"2023-10-18T17:32:00.000Z","time":"2023-10-18T17:32:00.000Z","reihung":false}},{"station":{"evaNumber":"8002386","name":"Groß Gerau-Dornberg","coordinates":{"lng":8.494797,"lat":49.912272},"ril100":"FDG"},"arrival":{"platform":"3","scheduledTime":"2023-10-18T17:37:00.000Z","time":"2023-10-18T17:37:00.000Z","reihung":false},"departure":{"platform":"3","scheduledTime":"2023-10-18T17:38:00.000Z","time":"2023-10-18T17:38:00.000Z","reihung":false}},{"station":{"evaNumber":"8000126","name":"Riedstadt-Goddelau","coordinates":{"lng":8.489763,"lat":49.833985},"ril100":"FGE"},"arrival":{"platform":"5","scheduledTime":"2023-10-18T17:43:00.000Z","time":"2023-10-18T17:43:00.000Z","reihung":false},"departure":{"platform":"5","scheduledTime":"2023-10-18T17:43:00.000Z","time":"2023-10-18T17:43:00.000Z","reihung":false}},{"station":{"evaNumber":"8005740","name":"Stockstadt(Rhein)","coordinates":{"lng":8.472639,"lat":49.809687},"ril100":"FSTR"},"arrival":{"platform":"1","scheduledTime":"2023-10-18T17:46:00.000Z","time":"2023-10-18T17:46:00.000Z","reihung":false},"departure":{"platform":"1","scheduledTime":"2023-10-18T17:46:00.000Z","time":"2023-10-18T17:46:00.000Z","reihung":false}},{"station":{"evaNumber":"8000951","name":"Biebesheim","coordinates":{"lng":8.474014,"lat":49.781947},"ril100":"FBBM"},"arrival":{"platform":"3","scheduledTime":"2023-10-18T17:49:00.000Z","time":"2023-10-18T17:49:00.000Z","reihung":false},"departure":{"platform":"3","scheduledTime":"2023-10-18T17:49:00.000Z","time":"2023-10-18T17:49:00.000Z","reihung":false}},{"station":{"evaNumber":"8002249","name":"Gernsheim","coordinates":{"lng":8.489826,"lat":49.754952},"ril100":"FGHM"},"arrival":{"platform":"1","scheduledTime":"2023-10-18T17:52:00.000Z","time":"2023-10-18T17:52:00.000Z","reihung":false},"departure":{"platform":"1","scheduledTime":"2023-10-18T17:52:00.000Z","time":"2023-10-18T17:52:00.000Z","reihung":false}},{"station":{"evaNumber":"8002391","name":"Groß Rohrheim","coordinates":{"lng":8.476972,"lat":49.714231},"ril100":"FGRO"},"arrival":{"platform":"1","scheduledTime":"2023-10-18T17:56:00.000Z","time":"2023-10-18T17:56:00.000Z","reihung":false},"departure":{"platform":"1","scheduledTime":"2023-10-18T17:56:00.000Z","time":"2023-10-18T17:56:00.000Z","reihung":false}},{"station":{"evaNumber":"8000503","name":"Biblis","coordinates":{"lng":8.450426,"lat":49.688863},"ril100":"FBL"},"arrival":{"platform":"3","scheduledTime":"2023-10-18T17:59:00.000Z","time":"2023-10-18T17:59:00.000Z","reihung":false}}],"finalDestination":"Mannheim Hbf","jid":"1|256529|0|80|18102023","messages":[{"type":"A","code":"FB","prio":260,"icoX":5,"txtN":"Fahrradmitnahme begrenzt möglich"},{"type":"A","code":"EH","prio":560,"icoX":3,"txtN":"Fahrzeuggebundene Einstiegshilfe vorhanden"},{"type":"A","code":"KL","prio":610,"icoX":3,"txtN":"Klimaanlage"}],"type":"JNY"},{"arrival":{"platform":"9","scheduledTime":"2023-10-18T18:14:00.000Z","time":"2023-10-18T18:14:00.000Z","reihung":false},"departure":{"platform":"5","scheduledTime":"2023-10-18T18:05:00.000Z","time":"2023-10-18T18:05:00.000Z","reihung":false},"duration":540000,"train":{"name":"RB 62","line":"62","admin":"8015A6","number":"13681","type":"RB","operator":{"name":"DB Regio AG Mitte","icoX":8}},"segmentStart":{"name":"Biblis","evaNumber":"8000503"},"segmentDestination":{"name":"Worms Hbf","evaNumber":"8000257"},"stops":[{"station":{"evaNumber":"8000503","name":"Biblis","coordinates":{"lng":8.450426,"lat":49.688863},"ril100":"FBL"},"departure":{"platform":"5","scheduledTime":"2023-10-18T18:05:00.000Z","time":"2023-10-18T18:05:00.000Z","reihung":false}},{"station":{"evaNumber":"8002934","name":"Hofheim (Ried)","coordinates":{"lng":8.40895,"lat":49.659496},"ril100":"FHOR"},"arrival":{"platform":"2","scheduledTime":"2023-10-18T18:08:00.000Z","time":"2023-10-18T18:08:00.000Z","reihung":false},"departure":{"platform":"2","scheduledTime":"2023-10-18T18:09:00.000Z","time":"2023-10-18T18:09:00.000Z","reihung":false}},{"station":{"evaNumber":"8000257","name":"Worms Hbf","coordinates":{"lng":8.356633,"lat":49.634973},"ril100":"FWOR"},"arrival":{"platform":"9","scheduledTime":"2023-10-18T18:14:00.000Z","time":"2023-10-18T18:14:00.000Z","reihung":false}}],"finalDestination":"Worms Hbf","jid":"1|250827|5|80|18102023","messages":[{"type":"A","code":"FB","prio":260,"icoX":5,"txtN":"Fahrradmitnahme begrenzt möglich"},{"type":"A","code":"EH","prio":560,"icoX":3,"txtN":"Fahrzeuggebundene Einstiegshilfe vorhanden"},{"type":"A","code":"KL","prio":610,"icoX":3,"txtN":"Klimaanlage"}],"type":"JNY"}],"segmentTypes":["ICE","RE","RB"]},{"checksum":"c50094d6_3","cid":"C-2","date":"2023-10-17T22:00:00.000Z","duration":22320000,"changes":2,"isRideable":true,"arrival":{"platform":"2","scheduledTime":"2023-10-18T18:39:00.000Z","time":"2023-10-18T18:39:00.000Z","reihung":false},"departure":{"platform":"11","scheduledTime":"2023-10-18T12:27:00.000Z","time":"2023-10-18T12:27:00.000Z","reihung":false},"segments":[{"arrival":{"platform":"13","scheduledTime":"2023-10-18T17:09:00.000Z","time":"2023-10-18T17:09:00.000Z","reihung":false},"departure":{"platform":"11","scheduledTime":"2023-10-18T12:27:00.000Z","time":"2023-10-18T12:27:00.000Z","reihung":false},"duration":16920000,"train":{"name":"IC 2375","line":"26","admin":"80","number":"2375","type":"IC","operator":{"name":"DB Fernverkehr AG","icoX":1}},"changeDuration":16,"segmentStart":{"name":"Hamburg Hbf","evaNumber":"8002549"},"segmentDestination":{"name":"Frankfurt(Main)Hbf","evaNumber":"8000105"},"stops":[{"station":{"evaNumber":"8002549","name":"Hamburg Hbf","coordinates":{"lng":10.00636,"lat":53.553533},"ril100":"AH"},"departure":{"platform":"11","scheduledTime":"2023-10-18T12:27:00.000Z","time":"2023-10-18T12:27:00.000Z","reihung":false}},{"station":{"evaNumber":"8000147","name":"Hamburg-Harburg","coordinates":{"lng":9.991591,"lat":53.456198},"ril100":"AHAR"},"arrival":{"platform":"4","scheduledTime":"2023-10-18T12:37:00.000Z","time":"2023-10-18T12:37:00.000Z","reihung":false},"departure":{"platform":"4","scheduledTime":"2023-10-18T12:39:00.000Z","time":"2023-10-18T12:39:00.000Z","reihung":false},"auslastung":{"first":2,"second":1}},{"station":{"evaNumber":"8000238","name":"Lüneburg","coordinates":{"lng":10.419873,"lat":53.249742},"ril100":"ALBG"},"arrival":{"platform":"1","scheduledTime":"2023-10-18T12:56:00.000Z","time":"2023-10-18T12:56:00.000Z","reihung":false},"departure":{"platform":"1","scheduledTime":"2023-10-18T12:58:00.000Z","time":"2023-10-18T12:58:00.000Z","reihung":false},"auslastung":{"first":2,"second":1}},{"station":{"evaNumber":"8000168","name":"Uelzen","coordinates":{"lng":10.553246,"lat":52.96998},"ril100":"HU"},"arrival":{"platform":"101","scheduledTime":"2023-10-18T13:13:00.000Z","time":"2023-10-18T13:13:00.000Z","reihung":false},"departure":{"platform":"101","scheduledTime":"2023-10-18T13:15:00.000Z","time":"2023-10-18T13:15:00.000Z","reihung":false},"auslastung":{"first":3,"second":1}},{"station":{"evaNumber":"8000064","name":"Celle","coordinates":{"lng":10.062651,"lat":52.621019},"ril100":"HC"},"arrival":{"platform":"6","scheduledTime":"2023-10-18T13:37:00.000Z","time":"2023-10-18T13:37:00.000Z","reihung":false},"departure":{"platform":"6","scheduledTime":"2023-10-18T13:38:00.000Z","time":"2023-10-18T13:38:00.000Z","reihung":false},"auslastung":{"first":3,"second":1}},{"station":{"evaNumber":"8000152","name":"Hannover Hbf","coordinates":{"lng":9.741763,"lat":52.377079},"ril100":"HH"},"arrival":{"platform":"4","scheduledTime":"2023-10-18T13:58:00.000Z","time":"2023-10-18T13:58:00.000Z","reihung":false},"departure":{"platform":"4","scheduledTime":"2023-10-18T14:01:00.000Z","time":"2023-10-18T14:01:00.000Z","reihung":false},"auslastung":{"first":2,"second":1}},{"station":{"evaNumber":"8000128","name":"Göttingen","coordinates":{"lng":9.926257,"lat":51.536758},"ril100":"HG"},"arrival":{"platform":"10","scheduledTime":"2023-10-18T14:39:00.000Z","time":"2023-10-18T14:39:00.000Z","reihung":false},"departure":{"platform":"10","scheduledTime":"2023-10-18T14:40:00.000Z","time":"2023-10-18T14:40:00.000Z","reihung":false},"auslastung":{"first":2,"second":1}},{"station":{"evaNumber":"8003200","name":"Kassel-Wilhelmshöhe","coordinates":{"lng":9.446845,"lat":51.312998},"ril100":"FKW"},"arrival":{"platform":"2","scheduledTime":"2023-10-18T15:01:00.000Z","time":"2023-10-18T15:01:00.000Z","reihung":false},"departure":{"platform":"2","scheduledTime":"2023-10-18T15:03:00.000Z","time":"2023-10-18T15:03:00.000Z","reihung":false},"auslastung":{"first":2,"second":1}},{"station":{"evaNumber":"8000368","name":"Wabern(Bz Kassel)","coordinates":{"lng":9.358274,"lat":51.103073},"ril100":"FWAB"},"arrival":{"platform":"4","scheduledTime":"2023-10-18T15:21:00.000Z","time":"2023-10-18T15:21:00.000Z","reihung":false},"departure":{"platform":"4","scheduledTime":"2023-10-18T15:22:00.000Z","time":"2023-10-18T15:22:00.000Z","reihung":false},"auslastung":{"first":2,"second":1}},{"station":{"evaNumber":"8000129","name":"Treysa","coordinates":{"lng":9.185807,"lat":50.910632},"ril100":"FTS"},"arrival":{"platform":"1","scheduledTime":"2023-10-18T15:38:00.000Z","time":"2023-10-18T15:38:00.000Z","reihung":false},"departure":{"platform":"1","scheduledTime":"2023-10-18T15:39:00.000Z","time":"2023-10-18T15:39:00.000Z","reihung":false},"auslastung":{"first":2,"second":1}},{"station":{"evaNumber":"8000337","name":"Marburg(Lahn)","coordinates":{"lng":8.775081,"lat":50.819275},"ril100":"FMBG"},"arrival":{"platform":"4","scheduledTime":"2023-10-18T16:04:00.000Z","time":"2023-10-18T16:04:00.000Z","reihung":false},"departure":{"platform":"4","scheduledTime":"2023-10-18T16:05:00.000Z","time":"2023-10-18T16:05:00.000Z","reihung":false},"auslastung":{"first":2,"second":1}},{"station":{"evaNumber":"8000124","name":"Gießen","coordinates":{"lng":8.662842,"lat":50.579371},"ril100":"FG"},"arrival":{"platform":"3","scheduledTime":"2023-10-18T16:22:00.000Z","time":"2023-10-18T16:22:00.000Z","reihung":false},"departure":{"platform":"3","scheduledTime":"2023-10-18T16:23:00.000Z","time":"2023-10-18T16:23:00.000Z","reihung":false},"auslastung":{"first":2,"second":1}},{"station":{"evaNumber":"8000111","name":"Friedberg(Hess)","coordinates":{"lng":8.761327,"lat":50.332842},"ril100":"FFG"},"arrival":{"platform":"2","scheduledTime":"2023-10-18T16:41:00.000Z","time":"2023-10-18T16:41:00.000Z","reihung":false},"departure":{"platform":"2","scheduledTime":"2023-10-18T16:42:00.000Z","time":"2023-10-18T16:42:00.000Z","reihung":false},"auslastung":{"first":1,"second":1}},{"station":{"evaNumber":"8000105","name":"Frankfurt(Main)Hbf","coordinates":{"lng":8.663003,"lat":50.106817},"ril100":"FF"},"arrival":{"platform":"13","scheduledTime":"2023-10-18T17:09:00.000Z","time":"2023-10-18T17:09:00.000Z","reihung":false}}],"finalDestination":"Karlsruhe Hbf","jid":"1|202961|0|80|18102023","auslastung":{"first":3,"second":1},"messages":[{"type":"A","code":"CK","prio":200,"icoX":3,"txtN":"Sicher & kontaktlos ohne Ticketkontrolle reisen mit Komfort Check-in"},{"type":"A","code":"FR","prio":260,"icoX":4,"txtN":"Fahrradmitnahme reservierungspflichtig"},{"type":"A","code":"FB","prio":260,"icoX":5,"txtN":"Fahrradmitnahme begrenzt möglich"}],"type":"JNY"},{"arrival":{"platform":"3a","scheduledTime":"2023-10-18T17:58:00.000Z","time":"2023-10-18T17:58:00.000Z","reihung":false},"departure":{"platform":"20","scheduledTime":"2023-10-18T17:25:00.000Z","time":"2023-10-18T17:25:00.000Z","reihung":false},"duration":1980000,"train":{"name":"RE 3","line":"3","admin":"V6RE","number":"29532","type":"RE","operator":{"name":"vlexx","icoX":15}},"changeDuration":15,"segmentStart":{"name":"Frankfurt(Main)Hbf","evaNumber":"8000105"},"segmentDestination":{"name":"Mainz Hbf","evaNumber":"8000240"},"stops":[{"station":{"evaNumber":"8000105","name":"Frankfurt(Main)Hbf","coordinates":{"lng":8.663003,"lat":50.106817},"ril100":"FF"},"departure":{"platform":"20","scheduledTime":"2023-10-18T17:25:00.000Z","time":"2023-10-18T17:25:00.000Z","reihung":false}},{"station":{"evaNumber":"8070004","name":"Frankfurt(M) Flughafen Regionalbf","coordinates":{"lng":8.571349,"lat":50.051389},"ril100":"FFLU"},"arrival":{"platform":"Regio 3","scheduledTime":"2023-10-18T17:36:00.000Z","time":"2023-10-18T17:36:00.000Z","reihung":false},"departure":{"platform":"Regio 3","scheduledTime":"2023-10-18T17:37:00.000Z","time":"2023-10-18T17:37:00.000Z","reihung":false}},{"station":{"evaNumber":"8005220","name":"Rüsselsheim","coordinates":{"lng":8.413571,"lat":49.991638},"ril100":"FRUE"},"arrival":{"platform":"1","scheduledTime":"2023-10-18T17:47:00.000Z","time":"2023-10-18T17:47:00.000Z","reihung":false},"departure":{"platform":"1","scheduledTime":"2023-10-18T17:48:00.000Z","time":"2023-10-18T17:48:00.000Z","reihung":false}},{"station":{"evaNumber":"8000240","name":"Mainz Hbf","coordinates":{"lng":8.258453,"lat":50.001239},"ril100":"FMZ"},"arrival":{"platform":"3a","scheduledTime":"2023-10-18T17:58:00.000Z","time":"2023-10-18T17:58:00.000Z","reihung":false}}],"finalDestination":"Saarbrücken Hbf","jid":"1|1262854|0|80|18102023","messages":[{"type":"A","code":"FB","prio":260,"icoX":5,"txtN":"Fahrradmitnahme begrenzt möglich"},{"type":"A","code":"RG","prio":560,"icoX":3,"txtN":"Behindertengerechtes Fahrzeug"},{"type":"A","code":"LS","prio":605,"icoX":3,"txtN":"Laptop-Steckdosen"},{"type":"A","code":"KL","prio":610,"icoX":3,"txtN":"Klimaanlage"}],"type":"JNY"},{"arrival":{"platform":"2","scheduledTime":"2023-10-18T18:39:00.000Z","time":"2023-10-18T18:39:00.000Z","reihung":false},"departure":{"platform":"6a","scheduledTime":"2023-10-18T18:13:00.000Z","time":"2023-10-18T18:13:00.000Z","reihung":false},"duration":1560000,"train":{"name":"RE 4","line":"4","admin":"800640","number":"4485","type":"RE","operator":{"name":"DB Regio AG Mitte SÜWEX","icoX":16}},"segmentStart":{"name":"Mainz Hbf","evaNumber":"8000240"},"segmentDestination":{"name":"Worms Hbf","evaNumber":"8000257"},"stops":[{"station":{"evaNumber":"8000240","name":"Mainz Hbf","coordinates":{"lng":8.258453,"lat":50.001239},"ril100":"FMZ"},"departure":{"platform":"6a","scheduledTime":"2023-10-18T18:13:00.000Z","time":"2023-10-18T18:13:00.000Z","reihung":false}},{"station":{"evaNumber":"8000257","name":"Worms Hbf","coordinates":{"lng":8.356633,"lat":49.634973},"ril100":"FWOR"},"arrival":{"platform":"2","scheduledTime":"2023-10-18T18:39:00.000Z","time":"2023-10-18T18:39:00.000Z","reihung":false}}],"finalDestination":"Ludwigshafen(Rh)Hbf","jid":"1|255964|0|80|18102023","messages":[{"type":"A","code":"FB","prio":260,"icoX":5,"txtN":"Fahrradmitnahme begrenzt möglich"},{"type":"A","code":"RC","prio":320,"icoX":3,"txtN":"Reservierung an DB-Automaten/Reisezentren/vielen DB-Agenturen möglich"},{"type":"A","code":"RO","prio":560,"icoX":17,"txtN":"Rollstuhlstellplatz"},{"type":"A","code":"EH","prio":560,"icoX":3,"txtN":"Fahrzeuggebundene Einstiegshilfe vorhanden"},{"type":"A","code":"LS","prio":605,"icoX":3,"txtN":"Laptop-Steckdosen"},{"type":"A","code":"KL","prio":610,"icoX":3,"txtN":"Klimaanlage"}],"type":"JNY"}],"segmentTypes":["IC","RE","RE"]},{"checksum":"29a6bfd6_3","cid":"C-3","date":"2023-10-17T22:00:00.000Z","duration":24480000,"changes":1,"isRideable":true,"arrival":{"scheduledTime":"2023-10-18T19:15:00.000Z","time":"2023-10-18T19:15:00.000Z","reihung":false},"departure":{"platform":"11","scheduledTime":"2023-10-18T12:27:00.000Z","time":"2023-10-18T12:27:00.000Z","reihung":false},"segments":[{"arrival":{"platform":"2","scheduledTime":"2023-10-18T17:48:00.000Z","time":"2023-10-18T17:48:00.000Z","reihung":false},"departure":{"platform":"11","scheduledTime":"2023-10-18T12:27:00.000Z","time":"2023-10-18T12:27:00.000Z","reihung":false},"duration":19260000,"train":{"name":"IC 2375","line":"26","admin":"80","number":"2375","type":"IC","operator":{"name":"DB Fernverkehr AG","icoX":1}},"changeDuration":25,"segmentStart":{"name":"Hamburg Hbf","evaNumber":"8002549"},"segmentDestination":{"name":"Bensheim","evaNumber":"8000031"},"stops":[{"station":{"evaNumber":"8002549","name":"Hamburg Hbf","coordinates":{"lng":10.00636,"lat":53.553533},"ril100":"AH"},"departure":{"platform":"11","scheduledTime":"2023-10-18T12:27:00.000Z","time":"2023-10-18T12:27:00.000Z","reihung":false}},{"station":{"evaNumber":"8000147","name":"Hamburg-Harburg","coordinates":{"lng":9.991591,"lat":53.456198},"ril100":"AHAR"},"arrival":{"platform":"4","scheduledTime":"2023-10-18T12:37:00.000Z","time":"2023-10-18T12:37:00.000Z","reihung":false},"departure":{"platform":"4","scheduledTime":"2023-10-18T12:39:00.000Z","time":"2023-10-18T12:39:00.000Z","reihung":false},"auslastung":{"first":2,"second":1}},{"station":{"evaNumber":"8000238","name":"Lüneburg","coordinates":{"lng":10.419873,"lat":53.249742},"ril100":"ALBG"},"arrival":{"platform":"1","scheduledTime":"2023-10-18T12:56:00.000Z","time":"2023-10-18T12:56:00.000Z","reihung":false},"departure":{"platform":"1","scheduledTime":"2023-10-18T12:58:00.000Z","time":"2023-10-18T12:58:00.000Z","reihung":false},"auslastung":{"first":2,"second":1}},{"station":{"evaNumber":"8000168","name":"Uelzen","coordinates":{"lng":10.553246,"lat":52.96998},"ril100":"HU"},"arrival":{"platform":"101","scheduledTime":"2023-10-18T13:13:00.000Z","time":"2023-10-18T13:13:00.000Z","reihung":false},"departure":{"platform":"101","scheduledTime":"2023-10-18T13:15:00.000Z","time":"2023-10-18T13:15:00.000Z","reihung":false},"auslastung":{"first":3,"second":1}},{"station":{"evaNumber":"8000064","name":"Celle","coordinates":{"lng":10.062651,"lat":52.621019},"ril100":"HC"},"arrival":{"platform":"6","scheduledTime":"2023-10-18T13:37:00.000Z","time":"2023-10-18T13:37:00.000Z","reihung":false},"departure":{"platform":"6","scheduledTime":"2023-10-18T13:38:00.000Z","time":"2023-10-18T13:38:00.000Z","reihung":false},"auslastung":{"first":3,"second":1}},{"station":{"evaNumber":"8000152","name":"Hannover Hbf","coordinates":{"lng":9.741763,"lat":52.377079},"ril100":"HH"},"arrival":{"platform":"4","scheduledTime":"2023-10-18T13:58:00.000Z","time":"2023-10-18T13:58:00.000Z","reihung":false},"departure":{"platform":"4","scheduledTime":"2023-10-18T14:01:00.000Z","time":"2023-10-18T14:01:00.000Z","reihung":false},"auslastung":{"first":2,"second":1}},{"station":{"evaNumber":"8000128","name":"Göttingen","coordinates":{"lng":9.926257,"lat":51.536758},"ril100":"HG"},"arrival":{"platform":"10","scheduledTime":"2023-10-18T14:39:00.000Z","time":"2023-10-18T14:39:00.000Z","reihung":false},"departure":{"platform":"10","scheduledTime":"2023-10-18T14:40:00.000Z","time":"2023-10-18T14:40:00.000Z","reihung":false},"auslastung":{"first":2,"second":1}},{"station":{"evaNumber":"8003200","name":"Kassel-Wilhelmshöhe","coordinates":{"lng":9.446845,"lat":51.312998},"ril100":"FKW"},"arrival":{"platform":"2","scheduledTime":"2023-10-18T15:01:00.000Z","time":"2023-10-18T15:01:00.000Z","reihung":false},"departure":{"platform":"2","scheduledTime":"2023-10-18T15:03:00.000Z","time":"2023-10-18T15:03:00.000Z","reihung":false},"auslastung":{"first":2,"second":1}},{"station":{"evaNumber":"8000368","name":"Wabern(Bz Kassel)","coordinates":{"lng":9.358274,"lat":51.103073},"ril100":"FWAB"},"arrival":{"platform":"4","scheduledTime":"2023-10-18T15:21:00.000Z","time":"2023-10-18T15:21:00.000Z","reihung":false},"departure":{"platform":"4","scheduledTime":"2023-10-18T15:22:00.000Z","time":"2023-10-18T15:22:00.000Z","reihung":false},"auslastung":{"first":2,"second":1}},{"station":{"evaNumber":"8000129","name":"Treysa","coordinates":{"lng":9.185807,"lat":50.910632},"ril100":"FTS"},"arrival":{"platform":"1","scheduledTime":"2023-10-18T15:38:00.000Z","time":"2023-10-18T15:38:00.000Z","reihung":false},"departure":{"platform":"1","scheduledTime":"2023-10-18T15:39:00.000Z","time":"2023-10-18T15:39:00.000Z","reihung":false},"auslastung":{"first":2,"second":1}},{"station":{"evaNumber":"8000337","name":"Marburg(Lahn)","coordinates":{"lng":8.775081,"lat":50.819275},"ril100":"FMBG"},"arrival":{"platform":"4","scheduledTime":"2023-10-18T16:04:00.000Z","time":"2023-10-18T16:04:00.000Z","reihung":false},"departure":{"platform":"4","scheduledTime":"2023-10-18T16:05:00.000Z","time":"2023-10-18T16:05:00.000Z","reihung":false},"auslastung":{"first":2,"second":1}},{"station":{"evaNumber":"8000124","name":"Gießen","coordinates":{"lng":8.662842,"lat":50.579371},"ril100":"FG"},"arrival":{"platform":"3","scheduledTime":"2023-10-18T16:22:00.000Z","time":"2023-10-18T16:22:00.000Z","reihung":false},"departure":{"platform":"3","scheduledTime":"2023-10-18T16:23:00.000Z","time":"2023-10-18T16:23:00.000Z","reihung":false},"auslastung":{"first":2,"second":1}},{"station":{"evaNumber":"8000111","name":"Friedberg(Hess)","coordinates":{"lng":8.761327,"lat":50.332842},"ril100":"FFG"},"arrival":{"platform":"2","scheduledTime":"2023-10-18T16:41:00.000Z","time":"2023-10-18T16:41:00.000Z","reihung":false},"departure":{"platform":"2","scheduledTime":"2023-10-18T16:42:00.000Z","time":"2023-10-18T16:42:00.000Z","reihung":false},"auslastung":{"first":1,"second":1}},{"station":{"evaNumber":"8000105","name":"Frankfurt(Main)Hbf","coordinates":{"lng":8.663003,"lat":50.106817},"ril100":"FF"},"arrival":{"platform":"13","scheduledTime":"2023-10-18T17:09:00.000Z","time":"2023-10-18T17:09:00.000Z","reihung":false},"departure":{"platform":"13","scheduledTime":"2023-10-18T17:20:00.000Z","time":"2023-10-18T17:20:00.000Z","reihung":false},"auslastung":{"first":2,"second":1}},{"station":{"evaNumber":"8000068","name":"Darmstadt Hbf","coordinates":{"lng":8.629707,"lat":49.872549},"ril100":"FD"},"arrival":{"platform":"10","scheduledTime":"2023-10-18T17:35:00.000Z","time":"2023-10-18T17:35:00.000Z","reihung":false},"departure":{"platform":"10","scheduledTime":"2023-10-18T17:37:00.000Z","time":"2023-10-18T17:37:00.000Z","reihung":false},"auslastung":{"first":2,"second":1}},{"station":{"evaNumber":"8000031","name":"Bensheim","coordinates":{"lng":8.616646,"lat":49.68142},"ril100":"FBH"},"arrival":{"platform":"2","scheduledTime":"2023-10-18T17:48:00.000Z","time":"2023-10-18T17:48:00.000Z","reihung":false}}],"finalDestination":"Karlsruhe Hbf","jid":"1|202961|0|80|18102023","auslastung":{"first":3,"second":1},"messages":[{"type":"A","code":"CK","prio":200,"icoX":3,"txtN":"Sicher & kontaktlos ohne Ticketkontrolle reisen mit Komfort Check-in"},{"type":"A","code":"FR","prio":260,"icoX":4,"txtN":"Fahrradmitnahme reservierungspflichtig"},{"type":"A","code":"FB","prio":260,"icoX":5,"txtN":"Fahrradmitnahme begrenzt möglich"}],"type":"JNY"},{"arrival":{"scheduledTime":"2023-10-18T19:15:00.000Z","time":"2023-10-18T19:15:00.000Z","reihung":false},"departure":{"scheduledTime":"2023-10-18T18:13:00.000Z","time":"2023-10-18T18:13:00.000Z","reihung":false},"duration":3720000,"train":{"name":"Bus EV","line":"EV","admin":"8015A6","number":"1733","type":"Bus","operator":{"name":"DB Regio AG Mitte","icoX":8}},"segmentStart":{"name":"Bensheim","evaNumber":"8000031"},"segmentDestination":{"name":"Worms Hbf","evaNumber":"8000257"},"stops":[{"station":{"evaNumber":"8000031","name":"Bensheim","coordinates":{"lng":8.616646,"lat":49.68142},"ril100":"FBH"},"departure":{"scheduledTime":"2023-10-18T18:13:00.000Z","time":"2023-10-18T18:13:00.000Z","reihung":false}},{"station":{"evaNumber":"8003755","name":"Lorsch","coordinates":{"lng":8.565956,"lat":49.659055},"ril100":"FLO"},"arrival":{"scheduledTime":"2023-10-18T18:25:00.000Z","time":"2023-10-18T18:25:00.000Z","reihung":false},"departure":{"scheduledTime":"2023-10-18T18:25:00.000Z","time":"2023-10-18T18:25:00.000Z","reihung":false}},{"station":{"evaNumber":"8005089","name":"Riedrode","coordinates":{"lng":8.496119,"lat":49.647486},"ril100":"FRIE"},"arrival":{"scheduledTime":"2023-10-18T18:31:00.000Z","time":"2023-10-18T18:31:00.000Z","reihung":false},"departure":{"scheduledTime":"2023-10-18T18:31:00.000Z","time":"2023-10-18T18:31:00.000Z","reihung":false}},{"station":{"evaNumber":"505776","name":"Bahnhof, Bürstadt","coordinates":{"lng":8.45867,"lat":49.645472}},"arrival":{"scheduledTime":"2023-10-18T18:41:00.000Z","time":"2023-10-18T18:41:00.000Z","reihung":false},"departure":{"scheduledTime":"2023-10-18T18:41:00.000Z","time":"2023-10-18T18:41:00.000Z","reihung":false}},{"station":{"evaNumber":"8002934","name":"Hofheim (Ried)","coordinates":{"lng":8.40895,"lat":49.659496},"ril100":"FHOR"},"arrival":{"scheduledTime":"2023-10-18T18:57:00.000Z","time":"2023-10-18T18:57:00.000Z","reihung":false},"departure":{"scheduledTime":"2023-10-18T18:57:00.000Z","time":"2023-10-18T18:57:00.000Z","reihung":false}},{"station":{"evaNumber":"8000257","name":"Worms Hbf","coordinates":{"lng":8.356633,"lat":49.634973},"ril100":"FWOR"},"arrival":{"scheduledTime":"2023-10-18T19:15:00.000Z","time":"2023-10-18T19:15:00.000Z","reihung":false}}],"finalDestination":"Worms Hbf","jid":"1|252679|11|80|18102023","messages":[{"type":"A","code":"SV","prio":17,"icoX":3,"txtN":"Ersatzverkehr"},{"type":"A","code":"NF","prio":260,"icoX":3,"txtN":"keine Fahrradbeförderung möglich"}],"type":"JNY"}],"segmentTypes":["IC","Bus"]},{"checksum":"7e6a26d1_3","cid":"C-4","date":"2023-10-17T22:00:00.000Z","duration":30120000,"changes":3,"isRideable":true,"arrival":{"platform":"3","scheduledTime":"2023-10-18T21:11:00.000Z","time":"2023-10-18T21:11:00.000Z","reihung":false},"departure":{"platform":"14","scheduledTime":"2023-10-18T12:49:00.000Z","time":"2023-10-18T12:49:00.000Z","reihung":false},"segments":[{"arrival":{"platform":"8","scheduledTime":"2023-10-18T16:56:00.000Z","time":"2023-10-18T16:56:00.000Z","reihung":false},"departure":{"platform":"14","scheduledTime":"2023-10-18T12:49:00.000Z","time":"2023-10-18T12:49:00.000Z","reihung":false},"duration":14820000,"train":{"name":"FLX 1343","line":"20","admin":"FLX20","number":"1343","type":"FLX","operator":{"name":"FlixTrain","icoX":19}},"changeDuration":36,"segmentStart":{"name":"Hamburg Hbf","evaNumber":"8002549"},"segmentDestination":{"name":"Köln Hbf","evaNumber":"8000207"},"stops":[{"station":{"evaNumber":"8002549","name":"Hamburg Hbf","coordinates":{"lng":10.00636,"lat":53.553533},"ril100":"AH"},"departure":{"platform":"14","scheduledTime":"2023-10-18T12:49:00.000Z","time":"2023-10-18T12:49:00.000Z","reihung":false}},{"station":{"evaNumber":"8000147","name":"Hamburg-Harburg","coordinates":{"lng":9.991591,"lat":53.456198},"ril100":"AHAR"},"departure":{"platform":"4","scheduledTime":"2023-10-18T13:01:00.000Z","time":"2023-10-18T13:01:00.000Z","reihung":false}},{"station":{"evaNumber":"8000294","name":"Osnabrück Hbf","coordinates":{"lng":8.061256,"lat":52.272534},"ril100":"HO"},"arrival":{"platform":"2","scheduledTime":"2023-10-18T14:42:00.000Z","time":"2023-10-18T14:42:00.000Z","reihung":false},"departure":{"platform":"2","scheduledTime":"2023-10-18T14:44:00.000Z","time":"2023-10-18T14:44:00.000Z","reihung":false}},{"station":{"evaNumber":"8000263","name":"Münster(Westf)Hbf","coordinates":{"lng":7.63586,"lat":51.956527},"ril100":"EMST"},"arrival":{"platform":"9","scheduledTime":"2023-10-18T15:07:00.000Z","time":"2023-10-18T15:07:00.000Z","reihung":false},"departure":{"platform":"9","scheduledTime":"2023-10-18T15:09:00.000Z","time":"2023-10-18T15:09:00.000Z","reihung":false}},{"station":{"evaNumber":"8000118","name":"Gelsenkirchen Hbf","coordinates":{"lng":7.102539,"lat":51.50481},"ril100":"EG"},"arrival":{"platform":"5","scheduledTime":"2023-10-18T15:47:00.000Z","time":"2023-10-18T15:47:00.000Z","reihung":false},"departure":{"platform":"5","scheduledTime":"2023-10-18T15:49:00.000Z","time":"2023-10-18T15:49:00.000Z","reihung":false}},{"station":{"evaNumber":"8000098","name":"Essen Hbf","coordinates":{"lng":7.01386,"lat":51.451378},"ril100":"EE"},"arrival":{"platform":"1","scheduledTime":"2023-10-18T16:01:00.000Z","time":"2023-10-18T16:01:00.000Z","reihung":false},"departure":{"platform":"1","scheduledTime":"2023-10-18T16:03:00.000Z","time":"2023-10-18T16:03:00.000Z","reihung":false}},{"station":{"evaNumber":"8000086","name":"Duisburg Hbf","coordinates":{"lng":6.77606,"lat":51.429615},"ril100":"EDG"},"arrival":{"platform":"3","scheduledTime":"2023-10-18T16:16:00.000Z","time":"2023-10-18T16:16:00.000Z","reihung":false},"departure":{"platform":"3","scheduledTime":"2023-10-18T16:18:00.000Z","time":"2023-10-18T16:18:00.000Z","reihung":false}},{"station":{"evaNumber":"8000085","name":"Düsseldorf Hbf","coordinates":{"lng":6.794011,"lat":51.219708},"ril100":"KD"},"arrival":{"platform":"15","scheduledTime":"2023-10-18T16:31:00.000Z","time":"2023-10-18T16:31:00.000Z","reihung":false},"departure":{"platform":"15","scheduledTime":"2023-10-18T16:33:00.000Z","time":"2023-10-18T16:33:00.000Z","reihung":false}},{"station":{"evaNumber":"8000207","name":"Köln Hbf","coordinates":{"lng":6.959197,"lat":50.942823},"ril100":"KK"},"arrival":{"platform":"8","scheduledTime":"2023-10-18T16:56:00.000Z","time":"2023-10-18T16:56:00.000Z","reihung":false}}],"finalDestination":"Köln Hbf","jid":"1|286631|0|80|18102023","messages":[{"type":"A","code":"DU","prio":110,"icoX":3,"txtN":"DB-Fahrscheine gelten nicht"},{"type":"A","code":"RP","prio":185,"icoX":21,"txtN":"Reservierungspflicht"},{"type":"A","code":"9N","prio":186,"icoX":3,"txtN":"Deutschland-Ticket nicht gültig"},{"type":"A","code":"FN","prio":555,"icoX":3,"txtN":"Einstieg nur mit gültigem FlixTrain- oder FlixBus Ticket"},{"type":"A","code":"FX","prio":560,"icoX":3,"txtN":"Tickets unter www.flixtrain.de"},{"type":"A","code":"FG","prio":603,"icoX":3,"txtN":"Sitzplatzgarantie"},{"type":"A","code":"LS","prio":605,"icoX":3,"txtN":"Laptop-Steckdosen"},{"type":"A","code":"WV","prio":710,"icoX":3,"txtN":"WLAN verfügbar"}],"type":"JNY"},{"arrival":{"platform":"2","scheduledTime":"2023-10-18T18:42:00.000Z","time":"2023-10-18T18:42:00.000Z","reihung":false},"departure":{"platform":"9 D-G","scheduledTime":"2023-10-18T17:32:00.000Z","time":"2023-10-18T17:32:00.000Z","reihung":false},"duration":4200000,"train":{"name":"RE 5","line":"5","admin":"NXRE","number":"28529","type":"RE","operator":{"name":"National Express","icoX":22}},"changeDuration":22,"segmentStart":{"name":"Köln Hbf","evaNumber":"8000207"},"segmentDestination":{"name":"Koblenz Hbf","evaNumber":"8000206"},"stops":[{"station":{"evaNumber":"8000207","name":"Köln Hbf","coordinates":{"lng":6.959197,"lat":50.942823},"ril100":"KK"},"departure":{"platform":"9 D-G","scheduledTime":"2023-10-18T17:32:00.000Z","time":"2023-10-18T17:32:00.000Z","reihung":false}},{"station":{"evaNumber":"8003361","name":"Köln Süd","coordinates":{"lng":6.938486,"lat":50.927002},"ril100":"KKS"},"arrival":{"platform":"1","scheduledTime":"2023-10-18T17:38:00.000Z","time":"2023-10-18T17:38:00.000Z","reihung":false},"departure":{"platform":"1","scheduledTime":"2023-10-18T17:39:00.000Z","time":"2023-10-18T17:39:00.000Z","reihung":false}},{"station":{"evaNumber":"8001215","name":"Brühl","coordinates":{"lng":6.91266,"lat":50.829262},"ril100":"KBR"},"arrival":{"platform":"1","scheduledTime":"2023-10-18T17:45:00.000Z","time":"2023-10-18T17:45:00.000Z","reihung":false},"departure":{"platform":"1","scheduledTime":"2023-10-18T17:46:00.000Z","time":"2023-10-18T17:46:00.000Z","reihung":false}},{"station":{"evaNumber":"8000044","name":"Bonn Hbf","coordinates":{"lng":7.096678,"lat":50.731963},"ril100":"KB"},"arrival":{"platform":"3","scheduledTime":"2023-10-18T17:55:00.000Z","time":"2023-10-18T17:55:00.000Z","reihung":false},"departure":{"platform":"3","scheduledTime":"2023-10-18T17:57:00.000Z","time":"2023-10-18T17:57:00.000Z","reihung":false}},{"station":{"evaNumber":"8001091","name":"Bonn UN Campus","coordinates":{"lng":7.118009,"lat":50.714542},"ril100":"KBUN"},"arrival":{"platform":"2","scheduledTime":"2023-10-18T17:59:00.000Z","time":"2023-10-18T17:59:00.000Z","reihung":false},"departure":{"platform":"2","scheduledTime":"2023-10-18T17:59:00.000Z","time":"2023-10-18T17:59:00.000Z","reihung":false}},{"station":{"evaNumber":"8001082","name":"Bonn-Bad Godesberg","coordinates":{"lng":7.159692,"lat":50.683816},"ril100":"KBBG"},"arrival":{"platform":"1","scheduledTime":"2023-10-18T18:02:00.000Z","time":"2023-10-18T18:02:00.000Z","reihung":false},"departure":{"platform":"1","scheduledTime":"2023-10-18T18:03:00.000Z","time":"2023-10-18T18:03:00.000Z","reihung":false}},{"station":{"evaNumber":"8004604","name":"Oberwinter","coordinates":{"lng":7.207785,"lat":50.611363},"ril100":"KOWI"},"arrival":{"platform":"1","scheduledTime":"2023-10-18T18:10:00.000Z","time":"2023-10-18T18:10:00.000Z","reihung":false},"departure":{"platform":"1","scheduledTime":"2023-10-18T18:11:00.000Z","time":"2023-10-18T18:11:00.000Z","reihung":false}},{"station":{"evaNumber":"8000310","name":"Remagen","coordinates":{"lng":7.2297,"lat":50.577222},"ril100":"KRE"},"arrival":{"platform":"3","scheduledTime":"2023-10-18T18:15:00.000Z","time":"2023-10-18T18:15:00.000Z","reihung":false},"departure":{"platform":"3","scheduledTime":"2023-10-18T18:16:00.000Z","time":"2023-10-18T18:16:00.000Z","reihung":false}},{"station":{"evaNumber":"8005580","name":"Sinzig(Rhein)","coordinates":{"lng":7.258124,"lat":50.546893},"ril100":"KSIZ"},"arrival":{"platform":"1","scheduledTime":"2023-10-18T18:19:00.000Z","time":"2023-10-18T18:19:00.000Z","reihung":false},"departure":{"platform":"1","scheduledTime":"2023-10-18T18:19:00.000Z","time":"2023-10-18T18:19:00.000Z","reihung":false}},{"station":{"evaNumber":"8000694","name":"Bad Breisig","coordinates":{"lng":7.304832,"lat":50.504059},"ril100":"KBRE"},"arrival":{"platform":"2","scheduledTime":"2023-10-18T18:23:00.000Z","time":"2023-10-18T18:23:00.000Z","reihung":false},"departure":{"platform":"2","scheduledTime":"2023-10-18T18:23:00.000Z","time":"2023-10-18T18:23:00.000Z","reihung":false}},{"station":{"evaNumber":"8000331","name":"Andernach","coordinates":{"lng":7.404442,"lat":50.434743},"ril100":"KAND"},"arrival":{"platform":"1","scheduledTime":"2023-10-18T18:29:00.000Z","time":"2023-10-18T18:29:00.000Z","reihung":false},"departure":{"platform":"1","scheduledTime":"2023-10-18T18:30:00.000Z","time":"2023-10-18T18:30:00.000Z","reihung":false}},{"station":{"evaNumber":"8003341","name":"Koblenz Stadtmitte","coordinates":{"lng":7.590051,"lat":50.358137},"ril100":"KKSM"},"arrival":{"platform":"2","scheduledTime":"2023-10-18T18:39:00.000Z","time":"2023-10-18T18:39:00.000Z","reihung":false},"departure":{"platform":"2","scheduledTime":"2023-10-18T18:39:00.000Z","time":"2023-10-18T18:39:00.000Z","reihung":false}},{"station":{"evaNumber":"8000206","name":"Koblenz Hbf","coordinates":{"lng":7.588343,"lat":50.350775},"ril100":"KKO"},"arrival":{"platform":"2","scheduledTime":"2023-10-18T18:42:00.000Z","time":"2023-10-18T18:42:00.000Z","reihung":false}}],"finalDestination":"Koblenz Hbf","jid":"1|292791|3|80|18102023","messages":[{"type":"A","code":"N ","prio":5,"icoX":3,"txtN":"\"RRX Rhein-Ruhr-Express\""},{"type":"A","code":"FB","prio":260,"icoX":5,"txtN":"Fahrradmitnahme begrenzt möglich"},{"type":"A","code":"RG","prio":560,"icoX":3,"txtN":"Behindertengerechtes Fahrzeug"},{"type":"A","code":"RO","prio":560,"icoX":17,"txtN":"Rollstuhlstellplatz"},{"type":"A","code":"LS","prio":605,"icoX":3,"txtN":"Laptop-Steckdosen"},{"type":"A","code":"KL","prio":610,"icoX":3,"txtN":"Klimaanlage"},{"type":"A","code":"WV","prio":710,"icoX":3,"txtN":"WLAN verfügbar"},{"type":"M","code":"","icoX":11,"txtS":"RE 28529: Remagen->Koblenz Hbf: Bauarbeiten. (Quelle: zuginfo.nrw)","txtN":"Von Freitag, den 13. Oktober 2023, 21 Uhr bis Freitag, den 03. November 2023, 05:00 Uhr werden die Arbeiten für das neue Elektronische Stellwerk Köln Hbf sowie nächtliche Kampfmittelsondierungen für den Ausbau fortgesetzt. Die umfangreichen Arbeiten führen zu Beeinträchtigungen im Regionalverkehr in und rund um Köln.","sIdx":1}],"type":"JNY"},{"arrival":{"platform":"101","scheduledTime":"2023-10-18T19:46:00.000Z","time":"2023-10-18T19:46:00.000Z","reihung":false},"departure":{"platform":"1","scheduledTime":"2023-10-18T19:04:00.000Z","time":"2023-10-18T19:04:00.000Z","reihung":false},"duration":2520000,"train":{"name":"RE 2","line":"2","admin":"800640","number":"4269","type":"RE","operator":{"name":"DB Regio AG Mitte SÜWEX","icoX":16}},"changeDuration":13,"segmentStart":{"name":"Koblenz Hbf","evaNumber":"8000206"},"segmentDestination":{"name":"Bingen(Rhein) Hbf","evaNumber":"8000039"},"stops":[{"station":{"evaNumber":"8000206","name":"Koblenz Hbf","coordinates":{"lng":7.588343,"lat":50.350775},"ril100":"KKO"},"departure":{"platform":"1","scheduledTime":"2023-10-18T19:04:00.000Z","time":"2023-10-18T19:04:00.000Z","reihung":false}},{"station":{"evaNumber":"8000045","name":"Boppard Hbf","coordinates":{"lng":7.586051,"lat":50.231398},"ril100":"KBOP"},"arrival":{"platform":"2","scheduledTime":"2023-10-18T19:15:00.000Z","time":"2023-10-18T19:15:00.000Z","reihung":false},"departure":{"platform":"2","scheduledTime":"2023-10-18T19:16:00.000Z","time":"2023-10-18T19:16:00.000Z","reihung":false}},{"station":{"evaNumber":"8004601","name":"Oberwesel","coordinates":{"lng":7.731676,"lat":50.104336},"ril100":"FOBW"},"arrival":{"platform":"1","scheduledTime":"2023-10-18T19:29:00.000Z","time":"2023-10-18T19:29:00.000Z","reihung":false},"departure":{"platform":"1","scheduledTime":"2023-10-18T19:30:00.000Z","time":"2023-10-18T19:30:00.000Z","reihung":false}},{"station":{"evaNumber":"8000683","name":"Bacharach","coordinates":{"lng":7.769503,"lat":50.056342},"ril100":"FBCH"},"arrival":{"platform":"1","scheduledTime":"2023-10-18T19:35:00.000Z","time":"2023-10-18T19:35:00.000Z","reihung":false},"departure":{"platform":"1","scheduledTime":"2023-10-18T19:36:00.000Z","time":"2023-10-18T19:36:00.000Z","reihung":false}},{"station":{"evaNumber":"8000039","name":"Bingen(Rhein) Hbf","coordinates":{"lng":7.884043,"lat":49.968599},"ril100":"FBGK"},"arrival":{"platform":"101","scheduledTime":"2023-10-18T19:46:00.000Z","time":"2023-10-18T19:46:00.000Z","reihung":false}}],"finalDestination":"Mainz Hbf","jid":"1|255799|0|80|18102023","messages":[{"type":"A","code":"FB","prio":260,"icoX":5,"txtN":"Fahrradmitnahme begrenzt möglich"},{"type":"A","code":"RC","prio":320,"icoX":3,"txtN":"Reservierung an DB-Automaten/Reisezentren/vielen DB-Agenturen möglich"},{"type":"A","code":"RO","prio":560,"icoX":17,"txtN":"Rollstuhlstellplatz"},{"type":"A","code":"EH","prio":560,"icoX":3,"txtN":"Fahrzeuggebundene Einstiegshilfe vorhanden"},{"type":"A","code":"LS","prio":605,"icoX":3,"txtN":"Laptop-Steckdosen"},{"type":"A","code":"KL","prio":610,"icoX":3,"txtN":"Klimaanlage"},{"type":"M","code":"","icoX":23,"txtS":"RE 4269: Koblenz Hbf->Bingen(Rhein) Hbf: Bauarbeiten.","txtN":"Vorankündigung! Im Zeitraum vom 21.10.23 bis zum 22.10.23 finden Bauarbeiten zwischen Koblenz Hbf und Bingen(Rhein) Hbf statt. Es kommt zu Teilausfällen und Ersatzverkehr. Bitte informieren Sie sich frühzeitig im Internet und an den Stationen.","sIdx":2}],"type":"JNY"},{"arrival":{"platform":"3","scheduledTime":"2023-10-18T21:11:00.000Z","time":"2023-10-18T21:11:00.000Z","reihung":false},"departure":{"platform":"202","scheduledTime":"2023-10-18T19:59:00.000Z","time":"2023-10-18T19:59:00.000Z","reihung":false},"duration":4320000,"train":{"name":"RB 35","line":"35","admin":"8015A6","number":"13859","type":"RB","operator":{"name":"DB Regio AG Mitte","icoX":8}},"segmentStart":{"name":"Bingen(Rhein) Hbf","evaNumber":"8000039"},"segmentDestination":{"name":"Worms Hbf","evaNumber":"8000257"},"stops":[{"station":{"evaNumber":"8000039","name":"Bingen(Rhein) Hbf","coordinates":{"lng":7.884043,"lat":49.968599},"ril100":"FBGK"},"departure":{"platform":"202","scheduledTime":"2023-10-18T19:59:00.000Z","time":"2023-10-18T19:59:00.000Z","reihung":false}},{"station":{"evaNumber":"8000976","name":"Bingen(Rhein) Stadt","coordinates":{"lng":7.903028,"lat":49.969776},"ril100":"FBGN"},"arrival":{"platform":"1","scheduledTime":"2023-10-18T20:01:00.000Z","time":"2023-10-18T20:01:00.000Z","reihung":false},"departure":{"platform":"1","scheduledTime":"2023-10-18T20:02:00.000Z","time":"2023-10-18T20:02:00.000Z","reihung":false}},{"station":{"evaNumber":"8000121","name":"Gensingen-Horrweiler","coordinates":{"lng":7.938347,"lat":49.898348},"ril100":"FGHO"},"arrival":{"platform":"4","scheduledTime":"2023-10-18T20:11:00.000Z","time":"2023-10-18T20:11:00.000Z","reihung":false},"departure":{"platform":"4","scheduledTime":"2023-10-18T20:11:00.000Z","time":"2023-10-18T20:11:00.000Z","reihung":false}},{"station":{"evaNumber":"8006312","name":"Welgesheim-Zotzenheim","coordinates":{"lng":7.956667,"lat":49.878599}},"arrival":{"platform":"1","scheduledTime":"2023-10-18T20:14:00.000Z","time":"2023-10-18T20:14:00.000Z","reihung":false},"departure":{"platform":"1","scheduledTime":"2023-10-18T20:14:00.000Z","time":"2023-10-18T20:14:00.000Z","reihung":false}},{"station":{"evaNumber":"8005637","name":"Sprendlingen(Rheinhess)","coordinates":{"lng":7.981909,"lat":49.858867},"ril100":"FSPR"},"arrival":{"platform":"2","scheduledTime":"2023-10-18T20:17:00.000Z","time":"2023-10-18T20:17:00.000Z","reihung":false},"departure":{"platform":"2","scheduledTime":"2023-10-18T20:17:00.000Z","time":"2023-10-18T20:17:00.000Z","reihung":false}},{"station":{"evaNumber":"8002191","name":"Gau Bickelheim","coordinates":{"lng":8.019565,"lat":49.840395}},"arrival":{"platform":"1","scheduledTime":"2023-10-18T20:21:00.000Z","time":"2023-10-18T20:21:00.000Z","reihung":false},"departure":{"platform":"1","scheduledTime":"2023-10-18T20:22:00.000Z","time":"2023-10-18T20:22:00.000Z","reihung":false}},{"station":{"evaNumber":"8006183","name":"Wallertheim","coordinates":{"lng":8.04949,"lat":49.832637}},"arrival":{"platform":"1","scheduledTime":"2023-10-18T20:24:00.000Z","time":"2023-10-18T20:24:00.000Z","reihung":false},"departure":{"platform":"1","scheduledTime":"2023-10-18T20:25:00.000Z","time":"2023-10-18T20:25:00.000Z","reihung":false}},{"station":{"evaNumber":"8000602","name":"Armsheim","coordinates":{"lng":8.074138,"lat":49.808375},"ril100":"FARM"},"arrival":{"platform":"2","scheduledTime":"2023-10-18T20:29:00.000Z","time":"2023-10-18T20:29:00.000Z","reihung":false},"departure":{"platform":"2","scheduledTime":"2023-10-18T20:29:00.000Z","time":"2023-10-18T20:29:00.000Z","reihung":false}},{"station":{"evaNumber":"8000468","name":"Albig","coordinates":{"lng":8.116603,"lat":49.771366}},"arrival":{"platform":"2","scheduledTime":"2023-10-18T20:33:00.000Z","time":"2023-10-18T20:33:00.000Z","reihung":false},"departure":{"platform":"2","scheduledTime":"2023-10-18T20:34:00.000Z","time":"2023-10-18T20:34:00.000Z","reihung":false}},{"station":{"evaNumber":"8000007","name":"Alzey","coordinates":{"lng":8.109744,"lat":49.750233}},"arrival":{"platform":"3","scheduledTime":"2023-10-18T20:37:00.000Z","time":"2023-10-18T20:37:00.000Z","reihung":false},"departure":{"platform":"3","scheduledTime":"2023-10-18T20:38:00.000Z","time":"2023-10-18T20:38:00.000Z","reihung":false}},{"station":{"evaNumber":"8000558","name":"Alzey Süd","coordinates":{"lng":8.11885,"lat":49.737998}},"arrival":{"platform":"1","scheduledTime":"2023-10-18T20:40:00.000Z","time":"2023-10-18T20:40:00.000Z","reihung":false},"departure":{"platform":"1","scheduledTime":"2023-10-18T20:41:00.000Z","time":"2023-10-18T20:41:00.000Z","reihung":false}},{"station":{"evaNumber":"8001813","name":"Eppelsheim(Rheinhess)","coordinates":{"lng":8.162871,"lat":49.700082},"ril100":"FEPP"},"arrival":{"platform":"1","scheduledTime":"2023-10-18T20:46:00.000Z","time":"2023-10-18T20:46:00.000Z","reihung":false},"departure":{"platform":"1","scheduledTime":"2023-10-18T20:48:00.000Z","time":"2023-10-18T20:48:00.000Z","reihung":false}},{"station":{"evaNumber":"8002473","name":"Gundersheim(Rheinhess)","coordinates":{"lng":8.197092,"lat":49.690023},"ril100":"FGUH"},"arrival":{"platform":"1","scheduledTime":"2023-10-18T20:51:00.000Z","time":"2023-10-18T20:51:00.000Z","reihung":false},"departure":{"platform":"1","scheduledTime":"2023-10-18T20:52:00.000Z","time":"2023-10-18T20:52:00.000Z","reihung":false}},{"station":{"evaNumber":"8004345","name":"Nieder Flörsheim-Dalsheim","coordinates":{"lng":8.204275,"lat":49.656907},"ril100":"FNFD"},"arrival":{"platform":"1","scheduledTime":"2023-10-18T20:57:00.000Z","time":"2023-10-18T20:57:00.000Z","reihung":false},"departure":{"platform":"1","scheduledTime":"2023-10-18T20:57:00.000Z","time":"2023-10-18T20:57:00.000Z","reihung":false}},{"station":{"evaNumber":"8000663","name":"Monsheim","coordinates":{"lng":8.208284,"lat":49.633418},"ril100":"FMSH"},"arrival":{"platform":"2","scheduledTime":"2023-10-18T21:01:00.000Z","time":"2023-10-18T21:01:00.000Z","reihung":false},"departure":{"platform":"2","scheduledTime":"2023-10-18T21:01:00.000Z","time":"2023-10-18T21:01:00.000Z","reihung":false}},{"station":{"evaNumber":"8004788","name":"Worms-Pfeddersheim","coordinates":{"lng":8.27964,"lat":49.634649},"ril100":"FPD"},"arrival":{"platform":"2","scheduledTime":"2023-10-18T21:05:00.000Z","time":"2023-10-18T21:05:00.000Z","reihung":false},"departure":{"platform":"2","scheduledTime":"2023-10-18T21:06:00.000Z","time":"2023-10-18T21:06:00.000Z","reihung":false}},{"station":{"evaNumber":"8000257","name":"Worms Hbf","coordinates":{"lng":8.356633,"lat":49.634973},"ril100":"FWOR"},"arrival":{"platform":"3","scheduledTime":"2023-10-18T21:11:00.000Z","time":"2023-10-18T21:11:00.000Z","reihung":false}}],"finalDestination":"Mannheim Hbf","jid":"1|250958|0|80|18102023","messages":[{"type":"A","code":"FB","prio":260,"icoX":5,"txtN":"Fahrradmitnahme begrenzt möglich"},{"type":"A","code":"EH","prio":560,"icoX":3,"txtN":"Fahrzeuggebundene Einstiegshilfe vorhanden"},{"type":"A","code":"LS","prio":605,"icoX":3,"txtN":"Laptop-Steckdosen"},{"type":"A","code":"KL","prio":610,"icoX":3,"txtN":"Klimaanlage"}],"type":"JNY"}],"segmentTypes":["FLX","RE","RE","RB"]},{"checksum":"56146d16_3","cid":"C-5","date":"2023-10-17T22:00:00.000Z","duration":21000000,"changes":1,"isRideable":true,"arrival":{"platform":"5","scheduledTime":"2023-10-18T19:14:00.000Z","time":"2023-10-18T19:14:00.000Z","reihung":false},"departure":{"platform":"12","scheduledTime":"2023-10-18T13:24:00.000Z","time":"2023-10-18T13:24:00.000Z","reihung":false},"segments":[{"arrival":{"platform":"5","scheduledTime":"2023-10-18T18:27:00.000Z","time":"2023-10-18T18:27:00.000Z","reihung":false},"departure":{"platform":"12","scheduledTime":"2023-10-18T13:24:00.000Z","time":"2023-10-18T13:24:00.000Z","reihung":false},"duration":18180000,"train":{"name":"ICE 693","line":"11","admin":"80","number":"693","type":"ICE","operator":{"name":"DB Fernverkehr AG","icoX":1}},"changeDuration":17,"segmentStart":{"name":"Hamburg Hbf","evaNumber":"8002549"},"segmentDestination":{"name":"Mannheim Hbf","evaNumber":"8000244"},"stops":[{"station":{"evaNumber":"8002549","name":"Hamburg Hbf","coordinates":{"lng":10.00636,"lat":53.553533},"ril100":"AH"},"departure":{"platform":"12","scheduledTime":"2023-10-18T13:24:00.000Z","time":"2023-10-18T13:24:00.000Z","reihung":false},"messages":[{"type":"A","code":"text.journeystop.product.or.direction.changes.stop.message","icoX":3,"txtN":"Verkehrt ab hier als ICE 693 in Richtung Ulm Hbf"}]},{"station":{"evaNumber":"8000147","name":"Hamburg-Harburg","coordinates":{"lng":9.991591,"lat":53.456198},"ril100":"AHAR"},"arrival":{"platform":"4","scheduledTime":"2023-10-18T13:34:00.000Z","time":"2023-10-18T13:34:00.000Z","reihung":false},"departure":{"platform":"4","scheduledTime":"2023-10-18T13:36:00.000Z","time":"2023-10-18T13:36:00.000Z","reihung":false},"auslastung":{"first":2,"second":1}},{"station":{"evaNumber":"8000152","name":"Hannover Hbf","coordinates":{"lng":9.741763,"lat":52.377079},"ril100":"HH"},"arrival":{"platform":"4","scheduledTime":"2023-10-18T14:38:00.000Z","time":"2023-10-18T14:38:00.000Z","reihung":false},"departure":{"platform":"4","scheduledTime":"2023-10-18T14:41:00.000Z","time":"2023-10-18T14:41:00.000Z","reihung":false},"auslastung":{"first":2,"second":1}},{"station":{"evaNumber":"8000128","name":"Göttingen","coordinates":{"lng":9.926257,"lat":51.536758},"ril100":"HG"},"arrival":{"platform":"10","scheduledTime":"2023-10-18T15:15:00.000Z","time":"2023-10-18T15:15:00.000Z","reihung":false},"departure":{"platform":"10","scheduledTime":"2023-10-18T15:16:00.000Z","time":"2023-10-18T15:16:00.000Z","reihung":false},"auslastung":{"first":2,"second":1}},{"station":{"evaNumber":"8003200","name":"Kassel-Wilhelmshöhe","coordinates":{"lng":9.446845,"lat":51.312998},"ril100":"FKW"},"arrival":{"platform":"2","scheduledTime":"2023-10-18T15:35:00.000Z","time":"2023-10-18T15:35:00.000Z","reihung":false},"departure":{"platform":"2","scheduledTime":"2023-10-18T15:37:00.000Z","time":"2023-10-18T15:37:00.000Z","reihung":false},"auslastung":{"first":2,"second":1}},{"station":{"evaNumber":"8000115","name":"Fulda","coordinates":{"lng":9.684178,"lat":50.554794},"ril100":"FFU"},"arrival":{"platform":"4","scheduledTime":"2023-10-18T16:46:00.000Z","time":"2023-10-18T16:46:00.000Z","reihung":false},"departure":{"platform":"4","scheduledTime":"2023-10-18T16:48:00.000Z","time":"2023-10-18T16:48:00.000Z","reihung":false},"auslastung":{"first":2,"second":1}},{"station":{"evaNumber":"8000105","name":"Frankfurt(Main)Hbf","coordinates":{"lng":8.663003,"lat":50.106817},"ril100":"FF"},"arrival":{"platform":"9","scheduledTime":"2023-10-18T17:44:00.000Z","time":"2023-10-18T17:44:00.000Z","reihung":false},"departure":{"platform":"9","scheduledTime":"2023-10-18T17:50:00.000Z","time":"2023-10-18T17:50:00.000Z","reihung":false},"auslastung":{"first":2,"second":1},"messages":[{"type":"A","code":"text.journeystop.product.or.direction.changes.stop.message","icoX":3,"txtN":"Verkehrt ab hier als ICE 693 in Richtung München Hbf"}]},{"station":{"evaNumber":"8000244","name":"Mannheim Hbf","coordinates":{"lng":8.469268,"lat":49.479181},"ril100":"RM"},"arrival":{"platform":"5","scheduledTime":"2023-10-18T18:27:00.000Z","time":"2023-10-18T18:27:00.000Z","reihung":false}}],"finalDestination":"Ulm Hbf","jid":"1|208720|0|80|18102023","auslastung":{"first":2,"second":1},"messages":[{"type":"A","code":"CK","prio":200,"icoX":3,"txtN":"Sicher & kontaktlos ohne Ticketkontrolle reisen mit Komfort Check-in"},{"type":"A","code":"FR","prio":260,"icoX":4,"txtN":"Fahrradmitnahme reservierungspflichtig"},{"type":"A","code":"FB","prio":260,"icoX":5,"txtN":"Fahrradmitnahme begrenzt möglich"},{"type":"A","code":"BR","prio":450,"icoX":6,"txtN":"Bordrestaurant"},{"type":"A","code":"EH","prio":560,"icoX":3,"txtN":"Fahrzeuggebundene Einstiegshilfe vorhanden"},{"type":"A","code":"text.journeystop.product.or.direction.changes.journey.message","icoX":3,"txtN":"Verkehrt ab Frankfurt(Main)Hbf als ICE 693 in Richtung München Hbf"}],"type":"JNY"},{"arrival":{"platform":"5","scheduledTime":"2023-10-18T19:14:00.000Z","time":"2023-10-18T19:14:00.000Z","reihung":false},"departure":{"platform":"1","scheduledTime":"2023-10-18T18:44:00.000Z","time":"2023-10-18T18:44:00.000Z","reihung":false},"duration":1800000,"train":{"name":"S 6","line":"6","admin":"801518","number":"38682","type":"S","operator":{"name":"DB Regio AG Mitte","icoX":8}},"segmentStart":{"name":"Mannheim Hbf","evaNumber":"8000244"},"segmentDestination":{"name":"Worms Hbf","evaNumber":"8000257"},"stops":[{"station":{"evaNumber":"8000244","name":"Mannheim Hbf","coordinates":{"lng":8.469268,"lat":49.479181},"ril100":"RM"},"departure":{"platform":"1","scheduledTime":"2023-10-18T18:44:00.000Z","time":"2023-10-18T18:44:00.000Z","reihung":false}},{"station":{"evaNumber":"8003759","name":"Ludwigshafen(Rhein) Mitte","coordinates":{"lng":8.452215,"lat":49.478938},"ril100":"RLSM"},"arrival":{"platform":"1","scheduledTime":"2023-10-18T18:47:00.000Z","time":"2023-10-18T18:47:00.000Z","reihung":false},"departure":{"platform":"1","scheduledTime":"2023-10-18T18:47:00.000Z","time":"2023-10-18T18:47:00.000Z","reihung":false}},{"station":{"evaNumber":"8000236","name":"Ludwigshafen(Rh)Hbf","coordinates":{"lng":8.433769,"lat":49.477257},"ril100":"RL"},"arrival":{"platform":"1","scheduledTime":"2023-10-18T18:49:00.000Z","time":"2023-10-18T18:49:00.000Z","reihung":false},"departure":{"platform":"1","scheduledTime":"2023-10-18T18:50:00.000Z","time":"2023-10-18T18:50:00.000Z","reihung":false}},{"station":{"evaNumber":"8003766","name":"Ludwigshafen-Oggersheim","coordinates":{"lng":8.381587,"lat":49.49324},"ril100":"RLO"},"arrival":{"platform":"2","scheduledTime":"2023-10-18T18:53:00.000Z","time":"2023-10-18T18:53:00.000Z","reihung":false},"departure":{"platform":"2","scheduledTime":"2023-10-18T18:54:00.000Z","time":"2023-10-18T18:54:00.000Z","reihung":false}},{"station":{"evaNumber":"8002025","name":"Frankenthal Süd","coordinates":{"lng":8.349559,"lat":49.522698},"ril100":"RFTS"},"arrival":{"platform":"1","scheduledTime":"2023-10-18T18:57:00.000Z","time":"2023-10-18T18:57:00.000Z","reihung":false},"departure":{"platform":"1","scheduledTime":"2023-10-18T18:57:00.000Z","time":"2023-10-18T18:57:00.000Z","reihung":false}},{"station":{"evaNumber":"8000332","name":"Frankenthal Hbf","coordinates":{"lng":8.349657,"lat":49.535633},"ril100":"RFT"},"arrival":{"platform":"1","scheduledTime":"2023-10-18T18:59:00.000Z","time":"2023-10-18T18:59:00.000Z","reihung":false},"departure":{"platform":"1","scheduledTime":"2023-10-18T19:02:00.000Z","time":"2023-10-18T19:02:00.000Z","reihung":false}},{"station":{"evaNumber":"8001032","name":"Bobenheim","coordinates":{"lng":8.35035,"lat":49.588139},"ril100":"RBOB"},"arrival":{"platform":"1","scheduledTime":"2023-10-18T19:07:00.000Z","time":"2023-10-18T19:07:00.000Z","reihung":false},"departure":{"platform":"1","scheduledTime":"2023-10-18T19:08:00.000Z","time":"2023-10-18T19:08:00.000Z","reihung":false}},{"station":{"evaNumber":"8000257","name":"Worms Hbf","coordinates":{"lng":8.356633,"lat":49.634973},"ril100":"FWOR"},"arrival":{"platform":"5","scheduledTime":"2023-10-18T19:14:00.000Z","time":"2023-10-18T19:14:00.000Z","reihung":false}}],"finalDestination":"Mainz Hbf","jid":"1|254842|0|80|18102023","messages":[{"type":"A","code":"FB","prio":260,"icoX":5,"txtN":"Fahrradmitnahme begrenzt möglich"},{"type":"A","code":"EH","prio":560,"icoX":3,"txtN":"Fahrzeuggebundene Einstiegshilfe vorhanden"},{"type":"A","code":"LS","prio":605,"icoX":3,"txtN":"Laptop-Steckdosen"},{"type":"A","code":"KL","prio":610,"icoX":3,"txtN":"Klimaanlage"}],"type":"JNY"}],"segmentTypes":["ICE","S"]},{"checksum":"c11b1d32_3","cid":"C-6","date":"2023-10-17T22:00:00.000Z","duration":21000000,"changes":2,"isRideable":true,"arrival":{"platform":"9","scheduledTime":"2023-10-18T19:14:00.000Z","time":"2023-10-18T19:14:00.000Z","reihung":false},"departure":{"platform":"12","scheduledTime":"2023-10-18T13:24:00.000Z","time":"2023-10-18T13:24:00.000Z","reihung":false},"segments":[{"arrival":{"platform":"9","scheduledTime":"2023-10-18T17:44:00.000Z","time":"2023-10-18T17:44:00.000Z","reihung":false},"departure":{"platform":"12","scheduledTime":"2023-10-18T13:24:00.000Z","time":"2023-10-18T13:24:00.000Z","reihung":false},"duration":15600000,"train":{"name":"ICE 693","line":"11","admin":"80","number":"693","type":"ICE","operator":{"name":"DB Fernverkehr AG","icoX":1}},"changeDuration":28,"segmentStart":{"name":"Hamburg Hbf","evaNumber":"8002549"},"segmentDestination":{"name":"Frankfurt(Main)Hbf","evaNumber":"8000105"},"stops":[{"station":{"evaNumber":"8002549","name":"Hamburg Hbf","coordinates":{"lng":10.00636,"lat":53.553533},"ril100":"AH"},"departure":{"platform":"12","scheduledTime":"2023-10-18T13:24:00.000Z","time":"2023-10-18T13:24:00.000Z","reihung":false}},{"station":{"evaNumber":"8000147","name":"Hamburg-Harburg","coordinates":{"lng":9.991591,"lat":53.456198},"ril100":"AHAR"},"arrival":{"platform":"4","scheduledTime":"2023-10-18T13:34:00.000Z","time":"2023-10-18T13:34:00.000Z","reihung":false},"departure":{"platform":"4","scheduledTime":"2023-10-18T13:36:00.000Z","time":"2023-10-18T13:36:00.000Z","reihung":false},"auslastung":{"first":2,"second":1}},{"station":{"evaNumber":"8000152","name":"Hannover Hbf","coordinates":{"lng":9.741763,"lat":52.377079},"ril100":"HH"},"arrival":{"platform":"4","scheduledTime":"2023-10-18T14:38:00.000Z","time":"2023-10-18T14:38:00.000Z","reihung":false},"departure":{"platform":"4","scheduledTime":"2023-10-18T14:41:00.000Z","time":"2023-10-18T14:41:00.000Z","reihung":false},"auslastung":{"first":2,"second":1}},{"station":{"evaNumber":"8000128","name":"Göttingen","coordinates":{"lng":9.926257,"lat":51.536758},"ril100":"HG"},"arrival":{"platform":"10","scheduledTime":"2023-10-18T15:15:00.000Z","time":"2023-10-18T15:15:00.000Z","reihung":false},"departure":{"platform":"10","scheduledTime":"2023-10-18T15:16:00.000Z","time":"2023-10-18T15:16:00.000Z","reihung":false},"auslastung":{"first":2,"second":1}},{"station":{"evaNumber":"8003200","name":"Kassel-Wilhelmshöhe","coordinates":{"lng":9.446845,"lat":51.312998},"ril100":"FKW"},"arrival":{"platform":"2","scheduledTime":"2023-10-18T15:35:00.000Z","time":"2023-10-18T15:35:00.000Z","reihung":false},"departure":{"platform":"2","scheduledTime":"2023-10-18T15:37:00.000Z","time":"2023-10-18T15:37:00.000Z","reihung":false},"auslastung":{"first":2,"second":1}},{"station":{"evaNumber":"8000115","name":"Fulda","coordinates":{"lng":9.684178,"lat":50.554794},"ril100":"FFU"},"arrival":{"platform":"4","scheduledTime":"2023-10-18T16:46:00.000Z","time":"2023-10-18T16:46:00.000Z","reihung":false},"departure":{"platform":"4","scheduledTime":"2023-10-18T16:48:00.000Z","time":"2023-10-18T16:48:00.000Z","reihung":false},"auslastung":{"first":2,"second":1}},{"station":{"evaNumber":"8000105","name":"Frankfurt(Main)Hbf","coordinates":{"lng":8.663003,"lat":50.106817},"ril100":"FF"},"arrival":{"platform":"9","scheduledTime":"2023-10-18T17:44:00.000Z","time":"2023-10-18T17:44:00.000Z","reihung":false}}],"finalDestination":"Ulm Hbf","jid":"1|208720|0|80|18102023","auslastung":{"first":2,"second":1},"messages":[{"type":"A","code":"CK","prio":200,"icoX":3,"txtN":"Sicher & kontaktlos ohne Ticketkontrolle reisen mit Komfort Check-in"},{"type":"A","code":"FR","prio":260,"icoX":4,"txtN":"Fahrradmitnahme reservierungspflichtig"},{"type":"A","code":"FB","prio":260,"icoX":5,"txtN":"Fahrradmitnahme begrenzt möglich"},{"type":"A","code":"BR","prio":450,"icoX":6,"txtN":"Bordrestaurant"},{"type":"A","code":"EH","prio":560,"icoX":3,"txtN":"Fahrzeuggebundene Einstiegshilfe vorhanden"},{"type":"M","code":"","icoX":11,"txtS":"ICE 693: Frankfurt(Main)Hbf: Information.","txtN":"Keine Be-/Entladung von Fahrrädern in Frankfurt(Main)Hbf möglich.","sIdx":0}],"type":"JNY"},{"arrival":{"platform":"3","scheduledTime":"2023-10-18T18:56:00.000Z","time":"2023-10-18T18:56:00.000Z","reihung":false},"departure":{"platform":"17","scheduledTime":"2023-10-18T18:12:00.000Z","time":"2023-10-18T18:12:00.000Z","reihung":false},"duration":2640000,"train":{"name":"RE 70","line":"70","admin":"800574","number":"4583","type":"RE","operator":{"name":"DB Regio AG Mitte","icoX":8}},"changeDuration":9,"segmentStart":{"name":"Frankfurt(Main)Hbf","evaNumber":"8000105"},"segmentDestination":{"name":"Biblis","evaNumber":"8000503"},"stops":[{"station":{"evaNumber":"8000105","name":"Frankfurt(Main)Hbf","coordinates":{"lng":8.663003,"lat":50.106817},"ril100":"FF"},"departure":{"platform":"17","scheduledTime":"2023-10-18T18:12:00.000Z","time":"2023-10-18T18:12:00.000Z","reihung":false}},{"station":{"evaNumber":"8002050","name":"Frankfurt-Niederrad","coordinates":{"lng":8.637393,"lat":50.080865},"ril100":"FNI"},"arrival":{"platform":"2","scheduledTime":"2023-10-18T18:18:00.000Z","time":"2023-10-18T18:18:00.000Z","reihung":false},"departure":{"platform":"2","scheduledTime":"2023-10-18T18:18:00.000Z","time":"2023-10-18T18:18:00.000Z","reihung":false}},{"station":{"evaNumber":"8006175","name":"Walldorf(Hess)","coordinates":{"lng":8.580806,"lat":50.001328},"ril100":"FWF"},"arrival":{"platform":"12","scheduledTime":"2023-10-18T18:25:00.000Z","time":"2023-10-18T18:25:00.000Z","reihung":false},"departure":{"platform":"12","scheduledTime":"2023-10-18T18:25:00.000Z","time":"2023-10-18T18:25:00.000Z","reihung":false}},{"station":{"evaNumber":"8004065","name":"Mörfelden","coordinates":{"lng":8.565381,"lat":49.978963},"ril100":"FMF"},"arrival":{"platform":"2","scheduledTime":"2023-10-18T18:28:00.000Z","time":"2023-10-18T18:28:00.000Z","reihung":false},"departure":{"platform":"2","scheduledTime":"2023-10-18T18:28:00.000Z","time":"2023-10-18T18:28:00.000Z","reihung":false}},{"station":{"evaNumber":"8002386","name":"Groß Gerau-Dornberg","coordinates":{"lng":8.494797,"lat":49.912272},"ril100":"FDG"},"arrival":{"platform":"3","scheduledTime":"2023-10-18T18:33:00.000Z","time":"2023-10-18T18:33:00.000Z","reihung":false},"departure":{"platform":"3","scheduledTime":"2023-10-18T18:34:00.000Z","time":"2023-10-18T18:34:00.000Z","reihung":false}},{"station":{"evaNumber":"8000126","name":"Riedstadt-Goddelau","coordinates":{"lng":8.489763,"lat":49.833985},"ril100":"FGE"},"arrival":{"platform":"5","scheduledTime":"2023-10-18T18:39:00.000Z","time":"2023-10-18T18:39:00.000Z","reihung":false},"departure":{"platform":"5","scheduledTime":"2023-10-18T18:39:00.000Z","time":"2023-10-18T18:39:00.000Z","reihung":false}},{"station":{"evaNumber":"8005740","name":"Stockstadt(Rhein)","coordinates":{"lng":8.472639,"lat":49.809687},"ril100":"FSTR"},"arrival":{"platform":"1","scheduledTime":"2023-10-18T18:42:00.000Z","time":"2023-10-18T18:42:00.000Z","reihung":false},"departure":{"platform":"1","scheduledTime":"2023-10-18T18:42:00.000Z","time":"2023-10-18T18:42:00.000Z","reihung":false}},{"station":{"evaNumber":"8000951","name":"Biebesheim","coordinates":{"lng":8.474014,"lat":49.781947},"ril100":"FBBM"},"arrival":{"platform":"3","scheduledTime":"2023-10-18T18:45:00.000Z","time":"2023-10-18T18:45:00.000Z","reihung":false},"departure":{"platform":"3","scheduledTime":"2023-10-18T18:45:00.000Z","time":"2023-10-18T18:45:00.000Z","reihung":false}},{"station":{"evaNumber":"8002249","name":"Gernsheim","coordinates":{"lng":8.489826,"lat":49.754952},"ril100":"FGHM"},"arrival":{"platform":"1","scheduledTime":"2023-10-18T18:48:00.000Z","time":"2023-10-18T18:48:00.000Z","reihung":false},"departure":{"platform":"1","scheduledTime":"2023-10-18T18:49:00.000Z","time":"2023-10-18T18:49:00.000Z","reihung":false}},{"station":{"evaNumber":"8002391","name":"Groß Rohrheim","coordinates":{"lng":8.476972,"lat":49.714231},"ril100":"FGRO"},"arrival":{"platform":"1","scheduledTime":"2023-10-18T18:53:00.000Z","time":"2023-10-18T18:53:00.000Z","reihung":false},"departure":{"platform":"1","scheduledTime":"2023-10-18T18:53:00.000Z","time":"2023-10-18T18:53:00.000Z","reihung":false}},{"station":{"evaNumber":"8000503","name":"Biblis","coordinates":{"lng":8.450426,"lat":49.688863},"ril100":"FBL"},"arrival":{"platform":"3","scheduledTime":"2023-10-18T18:56:00.000Z","time":"2023-10-18T18:56:00.000Z","reihung":false}}],"finalDestination":"Mannheim Hbf","jid":"1|256563|0|80|18102023","messages":[{"type":"A","code":"FB","prio":260,"icoX":5,"txtN":"Fahrradmitnahme begrenzt möglich"},{"type":"A","code":"EH","prio":560,"icoX":3,"txtN":"Fahrzeuggebundene Einstiegshilfe vorhanden"},{"type":"A","code":"KL","prio":610,"icoX":3,"txtN":"Klimaanlage"}],"type":"JNY"},{"arrival":{"platform":"9","scheduledTime":"2023-10-18T19:14:00.000Z","time":"2023-10-18T19:14:00.000Z","reihung":false},"departure":{"platform":"5","scheduledTime":"2023-10-18T19:05:00.000Z","time":"2023-10-18T19:05:00.000Z","reihung":false},"duration":540000,"train":{"name":"RB 62","line":"62","admin":"8015A6","number":"13683","type":"RB","operator":{"name":"DB Regio AG Mitte","icoX":8}},"segmentStart":{"name":"Biblis","evaNumber":"8000503"},"segmentDestination":{"name":"Worms Hbf","evaNumber":"8000257"},"stops":[{"station":{"evaNumber":"8000503","name":"Biblis","coordinates":{"lng":8.450426,"lat":49.688863},"ril100":"FBL"},"departure":{"platform":"5","scheduledTime":"2023-10-18T19:05:00.000Z","time":"2023-10-18T19:05:00.000Z","reihung":false}},{"station":{"evaNumber":"8002934","name":"Hofheim (Ried)","coordinates":{"lng":8.40895,"lat":49.659496},"ril100":"FHOR"},"arrival":{"platform":"2","scheduledTime":"2023-10-18T19:08:00.000Z","time":"2023-10-18T19:08:00.000Z","reihung":false},"departure":{"platform":"2","scheduledTime":"2023-10-18T19:09:00.000Z","time":"2023-10-18T19:09:00.000Z","reihung":false}},{"station":{"evaNumber":"8000257","name":"Worms Hbf","coordinates":{"lng":8.356633,"lat":49.634973},"ril100":"FWOR"},"arrival":{"platform":"9","scheduledTime":"2023-10-18T19:14:00.000Z","time":"2023-10-18T19:14:00.000Z","reihung":false}}],"finalDestination":"Worms Hbf","jid":"1|250831|0|80|18102023","messages":[{"type":"A","code":"FB","prio":260,"icoX":5,"txtN":"Fahrradmitnahme begrenzt möglich"},{"type":"A","code":"EH","prio":560,"icoX":3,"txtN":"Fahrzeuggebundene Einstiegshilfe vorhanden"},{"type":"A","code":"KL","prio":610,"icoX":3,"txtN":"Klimaanlage"}],"type":"JNY"}],"segmentTypes":["ICE","RE","RB"]}]}