{"context":{"earlier":"3|OB|MT#14#451595#451587#451893#451958#0#0#485#451576#1#0#32#0#0#-2147483648#1#2|PDH#bbe10b32f5270e429a5a473728022d1b|RD#18102023|RT#141653|US#0|RS#INIT","later":"3|OF|MT#14#451731#451731#451992#451992#0#0#485#451657#7#0#1051#0#0#-2147483648#1#2|PDH#bbe10b32f5270e429a5a473728022d1b|RD#18102023|RT#141653|US#0|RS#INIT"},"routes":[{"checksum":"0ce22e39_3","cid":"C-0","date":"2023-10-17T22:00:00.000Z","duration":22260000,"changes":1,"isRideable":true,"arrival":{"platform":"1","scheduledTime":"2023-10-18T18:38:00.000Z","time":"2023-10-18T18:38:00.000Z","reihung":false},"departure":{"platform":"11","scheduledTime":"2023-10-18T12:27:00.000Z","time":"2023-10-18T12:27:00.000Z","reihung":false},"segments":[{"arrival":{"platform":"4","scheduledTime":"2023-10-18T13:58:00.000Z","time":"2023-10-18T13:58:00.000Z","reihung":false},"departure":{"platform":"11","scheduledTime":"2023-10-18T12:27:00.000Z","time":"2023-10-18T12:27:00.000Z","reihung":false},"duration":5460000,"train":{"name":"IC 2375","line":"26","admin":"80","number":"2375","type":"IC","operator":{"name":"DB Fernverkehr AG","icoX":2}},"changeDuration":38,"segmentStart":{"name":"Hamburg Hbf","evaNumber":"8002549"},"segmentDestination":{"name":"Hannover Hbf","evaNumber":"8000152"},"stops":[{"station":{"evaNumber":"8002549","name":"Hamburg Hbf","coordinates":{"lng":10.00636,"lat":53.553533},"ril100":"AH"},"departure":{"platform":"11","scheduledTime":"2023-10-18T12:27:00.000Z","time":"2023-10-18T12:27:00.000Z","reihung":false}},{"station":{"evaNumber":"8000147","name":"Hamburg-Harburg","coordinates":{"lng":9.991591,"lat":53.456198},"ril100":"AHAR"},"arrival":{"platform":"4","scheduledTime":"2023-10-18T12:37:00.000Z","time":"2023-10-18T12:37:00.000Z","reihung":false},"departure":{"platform":"4","scheduledTime":"2023-10-18T12:39:00.000Z","time":"2023-10-18T12:39:00.000Z","reihung":false},"auslastung":{"first":2,"second":1}},{"station":{"evaNumber":"8000238","name":"Lüneburg","coordinates":{"lng":10.419873,"lat":53.249742},"ril100":"ALBG"},"arrival":{"platform":"1","scheduledTime":"2023-10-18T12:56:00.000Z","time":"2023-10-18T12:56:00.000Z","reihung":false},"departure":{"platform":"1","scheduledTime":"2023-10-18T12:58:00.000Z","time":"2023-10-18T12:58:00.000Z","reihung":false},"auslastung":{"first":2,"second":1}},{"station":{"evaNumber":"8000168","name":"Uelzen","coordinates":{"lng":10.553246,"lat":52.96998},"ril100":"HU"},"arrival":{"platform":"101","scheduledTime":"2023-10-18T13:13:00.000Z","time":"2023-10-18T13:13:00.000Z","reihung":false},"departure":{"platform":"101","scheduledTime":"2023-10-18T13:15:00.000Z","time":"2023-10-18T13:15:00.000Z","reihung":false},"auslastung":{"first":3,"second":1}},{"station":{"evaNumber":"8000064","name":"Celle","coordinates":{"lng":10.062651,"lat":52.621019},"ril100":"HC"},"arrival":{"platform":"6","scheduledTime":"2023-10-18T13:37:00.000Z","time":"2023-10-18T13:37:00.000Z","reihung":false},"departure":{"platform":"6","scheduledTime":"2023-10-18T13:38:00.000Z","time":"2023-10-18T13:38:00.000Z","reihung":false},"auslastung":{"first":3,"second":1}},{"station":{"evaNumber":"8000152","name":"Hannover Hbf","coordinates":{"lng":9.741763,"lat":52.377079},"ril100":"HH"},"arrival":{"platform":"4","scheduledTime":"2023-10-18T13:58:00.000Z","time":"2023-10-18T13:58:00.000Z","reihung":false}}],"finalDestination":"Karlsruhe Hbf","jid":"1|202961|0|80|18102023","auslastung":{"first":3,"second":1},"messages":[{"type":"A","code":"CK","prio":200,"icoX":3,"txtN":"Sicher & kontaktlos ohne Ticketkontrolle reisen mit Komfort Check-in"},{"type":"A","code":"FR","prio":260,"icoX":4,"txtN":"Fahrradmitnahme reservierungspflichtig"},{"type":"A","code":"FB","prio":260,"icoX":5,"txtN":"Fahrradmitnahme begrenzt möglich"}],"type":"JNY"},{"arrival":{"platform":"1","scheduledTime":"2023-10-18T18:38:00.000Z","time":"2023-10-18T18:38:00.000Z","reihung":false},"departure":{"platform":"10","scheduledTime":"2023-10-18T14:36:00.000Z","time":"2023-10-18T14:36:00.000Z","reihung":false},"duration":14520000,"train":{"name":"IC 2047","line":"55","admin":"80","number":"2047","type":"IC","operator":{"name":"DB Fernverkehr AG","icoX":2}},"segmentStart":{"name":"Hannover Hbf","evaNumber":"8000152"},"segmentDestination":{"name":"Dresden Hbf","evaNumber":"8010085"},"stops":[{"station":{"evaNumber":"8000152","name":"Hannover Hbf","coordinates":{"lng":9.741763,"lat":52.377079},"ril100":"HH"},"departure":{"platform":"10","scheduledTime":"2023-10-18T14:36:00.000Z","time":"2023-10-18T14:36:00.000Z","reihung":false},"auslastung":{"first":1,"second":2}},{"station":{"evaNumber":"8000049","name":"Braunschweig Hbf","coordinates":{"lng":10.540436,"lat":52.252128},"ril100":"HBS"},"arrival":{"platform":"7","scheduledTime":"2023-10-18T15:08:00.000Z","time":"2023-10-18T15:08:00.000Z","reihung":false},"departure":{"platform":"7","scheduledTime":"2023-10-18T15:10:00.000Z","time":"2023-10-18T15:10:00.000Z","reihung":false},"auslastung":{"first":1,"second":1}},{"station":{"evaNumber":"8010224","name":"Magdeburg Hbf","coordinates":{"lng":11.6269,"lat":52.130495},"ril100":"LM"},"arrival":{"platform":"6","scheduledTime":"2023-10-18T15:54:00.000Z","time":"2023-10-18T15:54:00.000Z","reihung":false},"departure":{"platform":"6","scheduledTime":"2023-10-18T16:00:00.000Z","time":"2023-10-18T16:00:00.000Z","reihung":false},"auslastung":{"first":1,"second":1}},{"station":{"evaNumber":"8010195","name":"Köthen","coordinates":{"lng":11.989084,"lat":51.752301},"ril100":"LK"},"arrival":{"platform":"4","scheduledTime":"2023-10-18T16:27:00.000Z","time":"2023-10-18T16:27:00.000Z","reihung":false},"departure":{"platform":"4","scheduledTime":"2023-10-18T16:29:00.000Z","time":"2023-10-18T16:29:00.000Z","reihung":false},"auslastung":{"first":1,"second":1}},{"station":{"evaNumber":"8010159","name":"Halle(Saale)Hbf","coordinates":{"lng":11.98699,"lat":51.477079},"ril100":"LH"},"arrival":{"platform":"9","scheduledTime":"2023-10-18T16:47:00.000Z","time":"2023-10-18T16:47:00.000Z","reihung":false},"departure":{"platform":"9","scheduledTime":"2023-10-18T16:55:00.000Z","time":"2023-10-18T16:55:00.000Z","reihung":false},"auslastung":{"first":1,"second":1}},{"station":{"evaNumber":"8012183","name":"Leipzig/Halle Flughafen","coordinates":{"lng":12.223451,"lat":51.423341},"ril100":"LFLU"},"arrival":{"platform":"1","scheduledTime":"2023-10-18T17:05:00.000Z","time":"2023-10-18T17:05:00.000Z","reihung":false},"departure":{"platform":"1","scheduledTime":"2023-10-18T17:06:00.000Z","time":"2023-10-18T17:06:00.000Z","reihung":false}},{"station":{"evaNumber":"8010205","name":"Leipzig Hbf","coordinates":{"lng":12.381167,"lat":51.345081},"ril100":"LL"},"arrival":{"platform":"15","scheduledTime":"2023-10-18T17:17:00.000Z","time":"2023-10-18T17:17:00.000Z","reihung":false},"departure":{"platform":"15","scheduledTime":"2023-10-18T17:31:00.000Z","time":"2023-10-18T17:31:00.000Z","reihung":false},"auslastung":{"first":1,"second":1}},{"station":{"evaNumber":"8010297","name":"Riesa","coordinates":{"lng":13.287369,"lat":51.309645},"ril100":"DR"},"arrival":{"platform":"2","scheduledTime":"2023-10-18T18:01:00.000Z","time":"2023-10-18T18:01:00.000Z","reihung":false},"departure":{"platform":"2","scheduledTime":"2023-10-18T18:02:00.000Z","time":"2023-10-18T18:02:00.000Z","reihung":false},"auslastung":{"first":1,"second":1}},{"station":{"evaNumber":"8010089","name":"Dresden-Neustadt","coordinates":{"lng":13.740524,"lat":51.065912},"ril100":"DN"},"arrival":{"platform":"8","scheduledTime":"2023-10-18T18:30:00.000Z","time":"2023-10-18T18:30:00.000Z","reihung":false}},{"station":{"evaNumber":"8010085","name":"Dresden Hbf","coordinates":{"lng":13.731409,"lat":51.040221},"ril100":"DH"},"arrival":{"platform":"1","scheduledTime":"2023-10-18T18:38:00.000Z","time":"2023-10-18T18:38:00.000Z","reihung":false}}],"finalDestination":"Dresden Hbf","jid":"1|200813|0|80|18102023","auslastung":{"first":1,"second":2},"messages":[{"type":"A","code":"9N","prio":186,"icoX":3,"txtN":"Deutschland-Ticket nicht gültig (Riesa - Dresden Hbf)"},{"type":"A","code":"CK","prio":200,"icoX":3,"txtN":"Sicher & kontaktlos ohne Ticketkontrolle reisen mit Komfort Check-in"},{"type":"A","code":"FR","prio":260,"icoX":4,"txtN":"Fahrradmitnahme reservierungspflichtig"},{"type":"A","code":"FB","prio":260,"icoX":5,"txtN":"Fahrradmitnahme begrenzt möglich"},{"type":"A","code":"MP","prio":460,"icoX":3,"txtN":"Snacks und Getränke am Platz"},{"type":"A","code":"EH","prio":560,"icoX":3,"txtN":"Fahrzeuggebundene Einstiegshilfe vorhanden"},{"type":"A","code":"IZ","prio":800,"icoX":3,"txtN":"Intercity 2: Info unter www.bahn.de/ic2"}],"type":"JNY"}],"segmentTypes":["IC","IC"]},{"checksum":"aaebac40_3","cid":"C-1","date":"2023-10-17T22:00:00.000Z","duration":17880000,"changes":1,"isRideable":true,"arrival":{"platform":"7","scheduledTime":"2023-10-18T17:33:00.000Z","time":"2023-10-18T17:33:00.000Z","reihung":false},"departure":{"platform":"5","scheduledTime":"2023-10-18T12:35:00.000Z","time":"2023-10-18T12:35:00.000Z","reihung":false},"segments":[{"arrival":{"platform":"13","scheduledTime":"2023-10-18T15:42:00.000Z","time":"2023-10-18T15:42:00.000Z","reihung":false},"departure":{"platform":"5","scheduledTime":"2023-10-18T12:35:00.000Z","time":"2023-10-18T12:35:00.000Z","reihung":false},"duration":11220000,"train":{"name":"ICE 603","line":"28","admin":"80","number":"603","type":"ICE","operator":{"name":"DB Fernverkehr AG","icoX":2}},"changeDuration":18,"segmentStart":{"name":"Hamburg Hbf","evaNumber":"8002549"},"segmentDestination":{"name":"Leipzig Hbf","evaNumber":"8010205"},"stops":[{"station":{"evaNumber":"8002549","name":"Hamburg Hbf","coordinates":{"lng":10.00636,"lat":53.553533},"ril100":"AH"},"departure":{"platform":"5","scheduledTime":"2023-10-18T12:35:00.000Z","time":"2023-10-18T12:35:00.000Z","reihung":false},"auslastung":{"first":1,"second":1},"messages":[{"type":"A","code":"text.journeystop.product.or.direction.changes.stop.message","icoX":3,"txtN":"Verkehrt ab hier als ICE 603 in Richtung Erfurt Hbf"}]},{"station":{"evaNumber":"8010404","name":"Berlin-Spandau","coordinates":{"lng":13.200947,"lat":52.533787},"ril100":"BSPD"},"arrival":{"platform":"5","scheduledTime":"2023-10-18T14:08:00.000Z","time":"2023-10-18T14:08:00.000Z","reihung":false},"departure":{"platform":"5","scheduledTime":"2023-10-18T14:10:00.000Z","time":"2023-10-18T14:10:00.000Z","reihung":false},"messages":[{"type":"A","code":"text.journeystop.product.or.direction.changes.stop.message","icoX":3,"txtN":"Verkehrt ab hier als ICE 603 in Richtung München Hbf"}]},{"station":{"evaNumber":"8098160","name":"Berlin Hbf (tief)","coordinates":{"lng":13.368892,"lat":52.52585},"ril100":"BL"},"arrival":{"platform":"1","scheduledTime":"2023-10-18T14:20:00.000Z","time":"2023-10-18T14:20:00.000Z","reihung":false},"departure":{"platform":"1","scheduledTime":"2023-10-18T14:29:00.000Z","time":"2023-10-18T14:29:00.000Z","reihung":false}},{"station":{"evaNumber":"8011113","name":"Berlin Südkreuz","coordinates":{"lng":13.365863,"lat":52.47623},"ril100":"BPAF"},"arrival":{"platform":"3","scheduledTime":"2023-10-18T14:34:00.000Z","time":"2023-10-18T14:34:00.000Z","reihung":false},"departure":{"platform":"3","scheduledTime":"2023-10-18T14:36:00.000Z","time":"2023-10-18T14:36:00.000Z","reihung":false},"auslastung":{"first":2,"second":2}},{"station":{"evaNumber":"8010222","name":"Lutherstadt Wittenberg Hbf","coordinates":{"lng":12.661999,"lat":51.867579},"ril100":"LW"},"arrival":{"platform":"2","scheduledTime":"2023-10-18T15:10:00.000Z","time":"2023-10-18T15:10:00.000Z","reihung":false},"departure":{"platform":"2","scheduledTime":"2023-10-18T15:11:00.000Z","time":"2023-10-18T15:11:00.000Z","reihung":false},"auslastung":{"first":2,"second":2}},{"station":{"evaNumber":"8010205","name":"Leipzig Hbf","coordinates":{"lng":12.381167,"lat":51.345081},"ril100":"LL"},"arrival":{"platform":"13","scheduledTime":"2023-10-18T15:42:00.000Z","time":"2023-10-18T15:42:00.000Z","reihung":false}}],"finalDestination":"Erfurt Hbf","jid":"1|207102|0|80|18102023","auslastung":{"first":2,"second":2},"messages":[{"type":"A","code":"CK","prio":200,"icoX":3,"txtN":"Sicher & kontaktlos ohne Ticketkontrolle reisen mit Komfort Check-in"},{"type":"A","code":"FR","prio":260,"icoX":4,"txtN":"Fahrradmitnahme reservierungspflichtig"},{"type":"A","code":"FB","prio":260,"icoX":5,"txtN":"Fahrradmitnahme begrenzt möglich"},{"type":"A","code":"BR","prio":450,"icoX":6,"txtN":"Bordrestaurant"},{"type":"A","code":"EH","prio":560,"icoX":3,"txtN":"Fahrzeuggebundene Einstiegshilfe vorhanden"},{"type":"A","code":"text.journeystop.product.or.direction.changes.journey.message","icoX":3,"txtN":"Verkehrt ab Berlin-Spandau als ICE 603 in Richtung München Hbf"}],"type":"JNY"},{"arrival":{"platform":"7","scheduledTime":"2023-10-18T17:33:00.000Z","time":"2023-10-18T17:33:00.000Z","reihung":false},"departure":{"platform":"21","scheduledTime":"2023-10-18T16:00:00.000Z","time":"2023-10-18T16:00:00.000Z","reihung":false},"duration":5580000,"train":{"name":"RE 50","line":"50","admin":"800456","number":"16529","type":"RE","operator":{"name":"DB Regio AG Südost","icoX":8}},"segmentStart":{"name":"Leipzig Hbf","evaNumber":"8010205"},"segmentDestination":{"name":"Dresden Hbf","evaNumber":"8010085"},"stops":[{"station":{"evaNumber":"8010205","name":"Leipzig Hbf","coordinates":{"lng":12.381167,"lat":51.345081},"ril100":"LL"},"departure":{"platform":"21","scheduledTime":"2023-10-18T16:00:00.000Z","time":"2023-10-18T16:00:00.000Z","reihung":false}},{"station":{"evaNumber":"8011491","name":"Leipzig-Engelsdorf","coordinates":{"lng":12.469549,"lat":51.343876},"ril100":"LE"},"arrival":{"platform":"1","scheduledTime":"2023-10-18T16:05:00.000Z","time":"2023-10-18T16:05:00.000Z","reihung":false},"departure":{"platform":"1","scheduledTime":"2023-10-18T16:05:00.000Z","time":"2023-10-18T16:05:00.000Z","reihung":false}},{"station":{"evaNumber":"8010059","name":"Borsdorf(Sachs)","coordinates":{"lng":12.54113,"lat":51.345719},"ril100":"LBOR"},"arrival":{"platform":"2","scheduledTime":"2023-10-18T16:09:00.000Z","time":"2023-10-18T16:09:00.000Z","reihung":false},"departure":{"platform":"2","scheduledTime":"2023-10-18T16:09:00.000Z","time":"2023-10-18T16:09:00.000Z","reihung":false}},{"station":{"evaNumber":"8013361","name":"Wurzen","coordinates":{"lng":12.738982,"lat":51.364435},"ril100":"LWZ"},"arrival":{"platform":"2","scheduledTime":"2023-10-18T16:17:00.000Z","time":"2023-10-18T16:17:00.000Z","reihung":false},"departure":{"platform":"2","scheduledTime":"2023-10-18T16:18:00.000Z","time":"2023-10-18T16:18:00.000Z","reihung":false}},{"station":{"evaNumber":"8012117","name":"Kühren","coordinates":{"lng":12.832982,"lat":51.349387}},"arrival":{"platform":"1","scheduledTime":"2023-10-18T16:23:00.000Z","time":"2023-10-18T16:23:00.000Z","reihung":false},"departure":{"platform":"1","scheduledTime":"2023-10-18T16:23:00.000Z","time":"2023-10-18T16:23:00.000Z","reihung":false}},{"station":{"evaNumber":"8011339","name":"Dahlen(Sachs)","coordinates":{"lng":12.984657,"lat":51.350924},"ril100":"LDA"},"arrival":{"platform":"1","scheduledTime":"2023-10-18T16:29:00.000Z","time":"2023-10-18T16:29:00.000Z","reihung":false},"departure":{"platform":"1","scheduledTime":"2023-10-18T16:29:00.000Z","time":"2023-10-18T16:29:00.000Z","reihung":false}},{"station":{"evaNumber":"8013461","name":"Oschatz","coordinates":{"lng":13.104178,"lat":51.311497},"ril100":"DOT"},"arrival":{"platform":"3","scheduledTime":"2023-10-18T16:35:00.000Z","time":"2023-10-18T16:35:00.000Z","reihung":false},"departure":{"platform":"3","scheduledTime":"2023-10-18T16:36:00.000Z","time":"2023-10-18T16:36:00.000Z","reihung":false}},{"station":{"evaNumber":"8010297","name":"Riesa","coordinates":{"lng":13.287369,"lat":51.309645},"ril100":"DR"},"arrival":{"platform":"2","scheduledTime":"2023-10-18T16:44:00.000Z","time":"2023-10-18T16:44:00.000Z","reihung":false},"departure":{"platform":"2","scheduledTime":"2023-10-18T16:45:00.000Z","time":"2023-10-18T16:45:00.000Z","reihung":false}},{"station":{"evaNumber":"8011637","name":"Glaubitz(Riesa)","coordinates":{"lng":13.36571,"lat":51.31752},"ril100":"DGLA"},"arrival":{"platform":"1","scheduledTime":"2023-10-18T16:49:00.000Z","time":"2023-10-18T16:49:00.000Z","reihung":false},"departure":{"platform":"1","scheduledTime":"2023-10-18T16:49:00.000Z","time":"2023-10-18T16:49:00.000Z","reihung":false}},{"station":{"evaNumber":"8012523","name":"Nünchritz","coordinates":{"lng":13.392183,"lat":51.302499},"ril100":"DNUN"},"arrival":{"platform":"1","scheduledTime":"2023-10-18T16:52:00.000Z","time":"2023-10-18T16:52:00.000Z","reihung":false},"departure":{"platform":"1","scheduledTime":"2023-10-18T16:52:00.000Z","time":"2023-10-18T16:52:00.000Z","reihung":false}},{"station":{"evaNumber":"8010285","name":"Priestewitz","coordinates":{"lng":13.508405,"lat":51.250955}},"arrival":{"platform":"1","scheduledTime":"2023-10-18T16:59:00.000Z","time":"2023-10-18T16:59:00.000Z","reihung":false},"departure":{"platform":"1","scheduledTime":"2023-10-18T16:59:00.000Z","time":"2023-10-18T16:59:00.000Z","reihung":false}},{"station":{"evaNumber":"8012482","name":"Niederau","coordinates":{"lng":13.560282,"lat":51.175427},"ril100":"DNDR"},"arrival":{"platform":"1","scheduledTime":"2023-10-18T17:06:00.000Z","time":"2023-10-18T17:06:00.000Z","reihung":false},"departure":{"platform":"1","scheduledTime":"2023-10-18T17:07:00.000Z","time":"2023-10-18T17:07:00.000Z","reihung":false}},{"station":{"evaNumber":"8013267","name":"Weinböhla Hp","coordinates":{"lng":13.561495,"lat":51.159184},"ril100":"DWEW"},"arrival":{"platform":"1","scheduledTime":"2023-10-18T17:09:00.000Z","time":"2023-10-18T17:09:00.000Z","reihung":false},"departure":{"platform":"1","scheduledTime":"2023-10-18T17:09:00.000Z","time":"2023-10-18T17:09:00.000Z","reihung":false}},{"station":{"evaNumber":"8010072","name":"Coswig(b Dresden)","coordinates":{"lng":13.579501,"lat":51.122787},"ril100":"DCW"},"arrival":{"platform":"3","scheduledTime":"2023-10-18T17:12:00.000Z","time":"2023-10-18T17:12:00.000Z","reihung":false},"departure":{"platform":"3","scheduledTime":"2023-10-18T17:13:00.000Z","time":"2023-10-18T17:13:00.000Z","reihung":false}},{"station":{"evaNumber":"8010292","name":"Radebeul Ost","coordinates":{"lng":13.679038,"lat":51.098714},"ril100":"DRB"},"arrival":{"platform":"2","scheduledTime":"2023-10-18T17:18:00.000Z","time":"2023-10-18T17:18:00.000Z","reihung":false},"departure":{"platform":"2","scheduledTime":"2023-10-18T17:19:00.000Z","time":"2023-10-18T17:19:00.000Z","reihung":false}},{"station":{"evaNumber":"8010089","name":"Dresden-Neustadt","coordinates":{"lng":13.740524,"lat":51.065912},"ril100":"DN"},"arrival":{"platform":"7","scheduledTime":"2023-10-18T17:24:00.000Z","time":"2023-10-18T17:24:00.000Z","reihung":false},"departure":{"platform":"7","scheduledTime":"2023-10-18T17:26:00.000Z","time":"2023-10-18T17:26:00.000Z","reihung":false}},{"station":{"evaNumber":"8013444","name":"Dresden Mitte","coordinates":{"lng":13.724236,"lat":51.05615},"ril100":"DM"},"arrival":{"platform":"4","scheduledTime":"2023-10-18T17:29:00.000Z","time":"2023-10-18T17:29:00.000Z","reihung":false},"departure":{"platform":"4","scheduledTime":"2023-10-18T17:30:00.000Z","time":"2023-10-18T17:30:00.000Z","reihung":false}},{"station":{"evaNumber":"8010085","name":"Dresden Hbf","coordinates":{"lng":13.731409,"lat":51.040221},"ril100":"DH"},"arrival":{"platform":"7","scheduledTime":"2023-10-18T17:33:00.000Z","time":"2023-10-18T17:33:00.000Z","reihung":false}}],"finalDestination":"Dresden Hbf","jid":"1|242538|0|80|18102023","messages":[{"type":"A","code":"FB","prio":260,"icoX":5,"txtN":"Fahrradmitnahme begrenzt möglich"},{"type":"A","code":"EH","prio":560,"icoX":3,"txtN":"Fahrzeuggebundene Einstiegshilfe vorhanden"},{"type":"M","code":"","icoX":10,"txtS":"RE 16529: Leipzig Hbf->Dahlen(Sachs): Information.","txtN":"Erfahrungsgemäß hat dieser Zug eine hohe Auslastung.","sIdx":1}],"type":"JNY"}],"segmentTypes":["ICE","RE"]},{"checksum":"d84e97fb_3","cid":"C-2","date":"2023-10-17T22:00:00.000Z","duration":20460000,"changes":2,"isRideable":true,"arrival":{"platform":"1","scheduledTime":"2023-10-18T18:38:00.000Z","time":"2023-10-18T18:38:00.000Z","reihung":false},"departure":{"platform":"13A-C","scheduledTime":"2023-10-18T12:57:00.000Z","time":"2023-10-18T12:57:00.000Z","reihung":false},"segments":[{"arrival":{"platform":"301","scheduledTime":"2023-10-18T13:56:00.000Z","time":"2023-10-18T13:56:00.000Z","reihung":false},"departure":{"platform":"13A-C","scheduledTime":"2023-10-18T12:57:00.000Z","time":"2023-10-18T12:57:00.000Z","reihung":false},"duration":3540000,"train":{"name":"ME RE3","line":"RE3","admin":"R1","number":"82127","type":"ME","operator":{"name":"metronom","icoX":12}},"changeDuration":6,"segmentStart":{"name":"Hamburg Hbf","evaNumber":"8002549"},"segmentDestination":{"name":"Uelzen","evaNumber":"8000168"},"stops":[{"station":{"evaNumber":"8002549","name":"Hamburg Hbf","coordinates":{"lng":10.00636,"lat":53.553533},"ril100":"AH"},"departure":{"platform":"13A-C","scheduledTime":"2023-10-18T12:57:00.000Z","time":"2023-10-18T12:57:00.000Z","reihung":false}},{"station":{"evaNumber":"8000147","name":"Hamburg-Harburg","coordinates":{"lng":9.991591,"lat":53.456198},"ril100":"AHAR"},"arrival":{"platform":"3","scheduledTime":"2023-10-18T13:07:00.000Z","time":"2023-10-18T13:07:00.000Z","reihung":false},"departure":{"platform":"3","scheduledTime":"2023-10-18T13:08:00.000Z","time":"2023-10-18T13:08:00.000Z","reihung":false}},{"station":{"evaNumber":"8006484","name":"Winsen(Luhe)","coordinates":{"lng":10.207045,"lat":53.354044},"ril100":"AWI"},"arrival":{"platform":"4","scheduledTime":"2023-10-18T13:19:00.000Z","time":"2023-10-18T13:19:00.000Z","reihung":false},"departure":{"platform":"4","scheduledTime":"2023-10-18T13:20:00.000Z","time":"2023-10-18T13:20:00.000Z","reihung":false}},{"station":{"evaNumber":"8000238","name":"Lüneburg","coordinates":{"lng":10.419873,"lat":53.249742},"ril100":"ALBG"},"arrival":{"platform":"1","scheduledTime":"2023-10-18T13:33:00.000Z","time":"2023-10-18T13:33:00.000Z","reihung":false},"departure":{"platform":"1","scheduledTime":"2023-10-18T13:34:00.000Z","time":"2023-10-18T13:34:00.000Z","reihung":false}},{"station":{"evaNumber":"8000955","name":"Bienenbüttel","coordinates":{"lng":10.484631,"lat":53.142132},"ril100":"ABIL"},"arrival":{"platform":"3","scheduledTime":"2023-10-18T13:42:00.000Z","time":"2023-10-18T13:42:00.000Z","reihung":false},"departure":{"platform":"3","scheduledTime":"2023-10-18T13:42:00.000Z","time":"2023-10-18T13:42:00.000Z","reihung":false}},{"station":{"evaNumber":"8000935","name":"Bad Bevensen","coordinates":{"lng":10.574173,"lat":53.078237},"ril100":"ABVS"},"arrival":{"platform":"2","scheduledTime":"2023-10-18T13:48:00.000Z","time":"2023-10-18T13:48:00.000Z","reihung":false},"departure":{"platform":"2","scheduledTime":"2023-10-18T13:48:00.000Z","time":"2023-10-18T13:48:00.000Z","reihung":false}},{"station":{"evaNumber":"8000168","name":"Uelzen","coordinates":{"lng":10.553246,"lat":52.96998},"ril100":"HU"},"arrival":{"platform":"301","scheduledTime":"2023-10-18T13:56:00.000Z","time":"2023-10-18T13:56:00.000Z","reihung":false}}],"finalDestination":"Hannover Hbf","jid":"1|1641694|0|80|18102023","messages":[{"type":"A","code":"FB","prio":260,"icoX":5,"txtN":"Fahrradmitnahme begrenzt möglich"},{"type":"A","code":"RO","prio":560,"icoX":13,"txtN":"Rollstuhlstellplatz"}],"type":"JNY"},{"arrival":{"platform":"2 D-G","scheduledTime":"2023-10-18T15:50:00.000Z","time":"2023-10-18T15:50:00.000Z","reihung":false},"departure":{"platform":"304","scheduledTime":"2023-10-18T14:02:00.000Z","time":"2023-10-18T14:02:00.000Z","reihung":false},"duration":6480000,"train":{"name":"RE 20","line":"20","admin":"800489","number":"16929","type":"RE","operator":{"name":"DB Regio AG Südost","icoX":8}},"changeDuration":10,"segmentStart":{"name":"Uelzen","evaNumber":"8000168"},"segmentDestination":{"name":"Magdeburg Hbf","evaNumber":"8010224"},"stops":[{"station":{"evaNumber":"8000168","name":"Uelzen","coordinates":{"lng":10.553246,"lat":52.96998},"ril100":"HU"},"departure":{"platform":"304","scheduledTime":"2023-10-18T14:02:00.000Z","time":"2023-10-18T14:02:00.000Z","reihung":false}},{"station":{"evaNumber":"8005682","name":"Stederdorf(Kr Uelzen)","coordinates":{"lng":10.592745,"lat":52.90737},"ril100":"HSTF"},"arrival":{"platform":"1","scheduledTime":"2023-10-18T14:08:00.000Z","time":"2023-10-18T14:08:00.000Z","reihung":false},"departure":{"platform":"1","scheduledTime":"2023-10-18T14:09:00.000Z","time":"2023-10-18T14:09:00.000Z","reihung":false}},{"station":{"evaNumber":"8006402","name":"Wieren","coordinates":{"lng":10.655696,"lat":52.892583}},"arrival":{"platform":"3","scheduledTime":"2023-10-18T14:12:00.000Z","time":"2023-10-18T14:12:00.000Z","reihung":false},"departure":{"platform":"3","scheduledTime":"2023-10-18T14:13:00.000Z","time":"2023-10-18T14:13:00.000Z","reihung":false}},{"station":{"evaNumber":"8000445","name":"Soltendieck","coordinates":{"lng":10.761418,"lat":52.8742},"ril100":"HSDK"},"arrival":{"platform":"1","scheduledTime":"2023-10-18T14:17:00.000Z","time":"2023-10-18T14:17:00.000Z","reihung":false},"departure":{"platform":"1","scheduledTime":"2023-10-18T14:18:00.000Z","time":"2023-10-18T14:18:00.000Z","reihung":false}},{"station":{"evaNumber":"8000440","name":"Schnega","coordinates":{"lng":10.890422,"lat":52.86904},"ril100":"HSCG"},"arrival":{"platform":"1","scheduledTime":"2023-10-18T14:24:00.000Z","time":"2023-10-18T14:24:00.000Z","reihung":false},"departure":{"platform":"1","scheduledTime":"2023-10-18T14:24:00.000Z","time":"2023-10-18T14:24:00.000Z","reihung":false}},{"station":{"evaNumber":"8010310","name":"Salzwedel","coordinates":{"lng":11.16169,"lat":52.858217},"ril100":"LSW"},"arrival":{"platform":"2","scheduledTime":"2023-10-18T14:34:00.000Z","time":"2023-10-18T14:34:00.000Z","reihung":false},"departure":{"platform":"2","scheduledTime":"2023-10-18T14:35:00.000Z","time":"2023-10-18T14:35:00.000Z","reihung":false}},{"station":{"evaNumber":"8010172","name":"Hohenwulsch","coordinates":{"lng":11.595455,"lat":52.667295}},"arrival":{"platform":"1","scheduledTime":"2023-10-18T14:52:00.000Z","time":"2023-10-18T14:52:00.000Z","reihung":false},"departure":{"platform":"1","scheduledTime":"2023-10-18T14:56:00.000Z","time":"2023-10-18T14:56:00.000Z","reihung":false}},{"station":{"evaNumber":"8010334","name":"Stendal Hbf","coordinates":{"lng":11.854767,"lat":52.594671},"ril100":"LS"},"arrival":{"platform":"5","scheduledTime":"2023-10-18T15:07:00.000Z","time":"2023-10-18T15:07:00.000Z","reihung":false},"departure":{"platform":"5","scheduledTime":"2023-10-18T15:10:00.000Z","time":"2023-10-18T15:10:00.000Z","reihung":false}},{"station":{"evaNumber":"8013083","name":"Tangerhütte","coordinates":{"lng":11.811242,"lat":52.436569},"ril100":"LTH"},"arrival":{"platform":"2","scheduledTime":"2023-10-18T15:21:00.000Z","time":"2023-10-18T15:21:00.000Z","reihung":false},"departure":{"platform":"2","scheduledTime":"2023-10-18T15:22:00.000Z","time":"2023-10-18T15:22:00.000Z","reihung":false}},{"station":{"evaNumber":"8013344","name":"Wolmirstedt","coordinates":{"lng":11.635601,"lat":52.250331},"ril100":"LWLS"},"arrival":{"platform":"1","scheduledTime":"2023-10-18T15:35:00.000Z","time":"2023-10-18T15:35:00.000Z","reihung":false},"departure":{"platform":"1","scheduledTime":"2023-10-18T15:36:00.000Z","time":"2023-10-18T15:36:00.000Z","reihung":false}},{"station":{"evaNumber":"8010226","name":"Magdeburg-Neustadt","coordinates":{"lng":11.640977,"lat":52.148537},"ril100":"LMN"},"arrival":{"platform":"2","scheduledTime":"2023-10-18T15:45:00.000Z","time":"2023-10-18T15:45:00.000Z","reihung":false},"departure":{"platform":"2","scheduledTime":"2023-10-18T15:46:00.000Z","time":"2023-10-18T15:46:00.000Z","reihung":false}},{"station":{"evaNumber":"8010224","name":"Magdeburg Hbf","coordinates":{"lng":11.6269,"lat":52.130495},"ril100":"LM"},"arrival":{"platform":"2 D-G","scheduledTime":"2023-10-18T15:50:00.000Z","time":"2023-10-18T15:50:00.000Z","reihung":false}}],"finalDestination":"Magdeburg Hbf","jid":"1|243454|0|80|18102023","messages":[{"type":"A","code":"FB","prio":260,"icoX":5,"txtN":"Fahrradmitnahme begrenzt möglich"},{"type":"A","code":"RG","prio":560,"icoX":3,"txtN":"Behindertengerechtes Fahrzeug"},{"type":"A","code":"EH","prio":560,"icoX":3,"txtN":"Fahrzeuggebundene Einstiegshilfe vorhanden"},{"type":"A","code":"LS","prio":605,"icoX":3,"txtN":"Laptop-Steckdosen"},{"type":"A","code":"WV","prio":710,"icoX":3,"txtN":"WLAN verfügbar"}],"type":"JNY"},{"arrival":{"platform":"1","scheduledTime":"2023-10-18T18:38:00.000Z","time":"2023-10-18T18:38:00.000Z","reihung":false},"departure":{"platform":"6","scheduledTime":"2023-10-18T16:00:00.000Z","time":"2023-10-18T16:00:00.000Z","reihung":false},"duration":9480000,"train":{"name":"IC 2047","line":"55","admin":"80","number":"2047","type":"IC","operator":{"name":"DB Fernverkehr AG","icoX":2}},"segmentStart":{"name":"Magdeburg Hbf","evaNumber":"8010224"},"segmentDestination":{"name":"Dresden Hbf","evaNumber":"8010085"},"stops":[{"station":{"evaNumber":"8010224","name":"Magdeburg Hbf","coordinates":{"lng":11.6269,"lat":52.130495},"ril100":"LM"},"departure":{"platform":"6","scheduledTime":"2023-10-18T16:00:00.000Z","time":"2023-10-18T16:00:00.000Z","reihung":false},"auslastung":{"first":1,"second":1}},{"station":{"evaNumber":"8010195","name":"Köthen","coordinates":{"lng":11.989084,"lat":51.752301},"ril100":"LK"},"arrival":{"platform":"4","scheduledTime":"2023-10-18T16:27:00.000Z","time":"2023-10-18T16:27:00.000Z","reihung":false},"departure":{"platform":"4","scheduledTime":"2023-10-18T16:29:00.000Z","time":"2023-10-18T16:29:00.000Z","reihung":false},"auslastung":{"first":1,"second":1}},{"station":{"evaNumber":"8010159","name":"Halle(Saale)Hbf","coordinates":{"lng":11.98699,"lat":51.477079},"ril100":"LH"},"arrival":{"platform":"9","scheduledTime":"2023-10-18T16:47:00.000Z","time":"2023-10-18T16:47:00.000Z","reihung":false},"departure":{"platform":"9","scheduledTime":"2023-10-18T16:55:00.000Z","time":"2023-10-18T16:55:00.000Z","reihung":false},"auslastung":{"first":1,"second":1}},{"station":{"evaNumber":"8012183","name":"Leipzig/Halle Flughafen","coordinates":{"lng":12.223451,"lat":51.423341},"ril100":"LFLU"},"arrival":{"platform":"1","scheduledTime":"2023-10-18T17:05:00.000Z","time":"2023-10-18T17:05:00.000Z","reihung":false},"departure":{"platform":"1","scheduledTime":"2023-10-18T17:06:00.000Z","time":"2023-10-18T17:06:00.000Z","reihung":false}},{"station":{"evaNumber":"8010205","name":"Leipzig Hbf","coordinates":{"lng":12.381167,"lat":51.345081},"ril100":"LL"},"arrival":{"platform":"15","scheduledTime":"2023-10-18T17:17:00.000Z","time":"2023-10-18T17:17:00.000Z","reihung":false},"departure":{"platform":"15","scheduledTime":"2023-10-18T17:31:00.000Z","time":"2023-10-18T17:31:00.000Z","reihung":false},"auslastung":{"first":1,"second":1}},{"station":{"evaNumber":"8010297","name":"Riesa","coordinates":{"lng":13.287369,"lat":51.309645},"ril100":"DR"},"arrival":{"platform":"2","scheduledTime":"2023-10-18T18:01:00.000Z","time":"2023-10-18T18:01:00.000Z","reihung":false},"departure":{"platform":"2","scheduledTime":"2023-10-18T18:02:00.000Z","time":"2023-10-18T18:02:00.000Z","reihung":false},"auslastung":{"first":1,"second":1}},{"station":{"evaNumber":"8010089","name":"Dresden-Neustadt","coordinates":{"lng":13.740524,"lat":51.065912},"ril100":"DN"},"arrival":{"platform":"8","scheduledTime":"2023-10-18T18:30:00.000Z","time":"2023-10-18T18:30:00.000Z","reihung":false}},{"station":{"evaNumber":"8010085","name":"Dresden Hbf","coordinates":{"lng":13.731409,"lat":51.040221},"ril100":"DH"},"arrival":{"platform":"1","scheduledTime":"2023-10-18T18:38:00.000Z","time":"2023-10-18T18:38:00.000Z","reihung":false}}],"finalDestination":"Dresden Hbf","jid":"1|200813|0|80|18102023","auslastung":{"first":1,"second":1},"messages":[{"type":"A","code":"9N","prio":186,"icoX":3,"txtN":"Deutschland-Ticket nicht gültig (Riesa - Dresden Hbf)"},{"type":"A","code":"CK","prio":200,"icoX":3,"txtN":"Sicher & kontaktlos ohne Ticketkontrolle reisen mit Komfort Check-in"},{"type":"A","code":"FR","prio":260,"icoX":4,"txtN":"Fahrradmitnahme reservierungspflichtig"},{"type":"A","code":"FB","prio":260,"icoX":5,"txtN":"Fahrradmitnahme begrenzt möglich"},{"type":"A","code":"MP","prio":460,"icoX":3,"txtN":"Snacks und Getränke am Platz"},{"type":"A","code":"EH","prio":560,"icoX":3,"txtN":"Fahrzeuggebundene Einstiegshilfe vorhanden"},{"type":"A","code":"IZ","prio":800,"icoX":3,"txtN":"Intercity 2: Info unter www.bahn.de/ic2"}],"type":"JNY"}],"segmentTypes":["ME","RE","IC"]},{"checksum":"9f9fd834_3","cid":"C-3","date":"2023-10-17T22:00:00.000Z","duration":17820000,"changes":2,"isRideable":true,"arrival":{"platform":"7","scheduledTime":"2023-10-18T18:33:00.000Z","time":"2023-10-18T18:33:00.000Z","reihung":false},"departure":{"platform":"5","scheduledTime":"2023-10-18T13:36:00.000Z","time":"2023-10-18T13:36:00.000Z","reihung":false},"segments":[{"arrival":{"platform":"1","scheduledTime":"2023-10-18T15:22:00.000Z","time":"2023-10-18T15:22:00.000Z","reihung":false},"departure":{"platform":"5","scheduledTime":"2023-10-18T13:36:00.000Z","time":"2023-10-18T13:36:00.000Z","reihung":false},"duration":6360000,"train":{"name":"ICE 801","line":"18","admin":"80","number":"801","type":"ICE","operator":{"name":"DB Fernverkehr AG","icoX":2}},"changeDuration":4,"segmentStart":{"name":"Hamburg Hbf","evaNumber":"8002549"},"segmentDestination":{"name":"Berlin Hbf (tief)","evaNumber":"8098160"},"stops":[{"station":{"evaNumber":"8002549","name":"Hamburg Hbf","coordinates":{"lng":10.00636,"lat":53.553533},"ril100":"AH"},"departure":{"platform":"5","scheduledTime":"2023-10-18T13:36:00.000Z","time":"2023-10-18T13:36:00.000Z","reihung":false},"auslastung":{"first":1,"second":1},"messages":[{"type":"A","code":"text.journeystop.product.or.direction.changes.stop.message","icoX":3,"txtN":"Verkehrt ab hier als ICE 801 in Richtung Erfurt Hbf"}]},{"station":{"evaNumber":"8010404","name":"Berlin-Spandau","coordinates":{"lng":13.200947,"lat":52.533787},"ril100":"BSPD"},"arrival":{"platform":"5","scheduledTime":"2023-10-18T15:10:00.000Z","time":"2023-10-18T15:10:00.000Z","reihung":false},"departure":{"platform":"5","scheduledTime":"2023-10-18T15:12:00.000Z","time":"2023-10-18T15:12:00.000Z","reihung":false},"messages":[{"type":"A","code":"text.journeystop.product.or.direction.changes.stop.message","icoX":3,"txtN":"Verkehrt ab hier als ICE 801 in Richtung München Hbf"}]},{"station":{"evaNumber":"8098160","name":"Berlin Hbf (tief)","coordinates":{"lng":13.368892,"lat":52.52585},"ril100":"BL"},"arrival":{"platform":"1","scheduledTime":"2023-10-18T15:22:00.000Z","time":"2023-10-18T15:22:00.000Z","reihung":false}}],"finalDestination":"Erfurt Hbf","jid":"1|210399|0|80|18102023","auslastung":{"first":1,"second":1},"messages":[{"type":"A","code":"CK","prio":200,"icoX":3,"txtN":"Sicher & kontaktlos ohne Ticketkontrolle reisen mit Komfort Check-in"},{"type":"A","code":"FR","prio":260,"icoX":4,"txtN":"Fahrradmitnahme reservierungspflichtig"},{"type":"A","code":"FB","prio":260,"icoX":5,"txtN":"Fahrradmitnahme begrenzt möglich"},{"type":"A","code":"BR","prio":450,"icoX":6,"txtN":"Bordrestaurant"},{"type":"A","code":"EH","prio":560,"icoX":3,"txtN":"Fahrzeuggebundene Einstiegshilfe vorhanden"},{"type":"A","code":"text.journeystop.product.or.direction.changes.journey.message","icoX":3,"txtN":"Verkehrt ab Berlin-Spandau als ICE 801 in Richtung München Hbf"}],"type":"JNY"},{"arrival":{"platform":"11","scheduledTime":"2023-10-18T16:42:00.000Z","time":"2023-10-18T16:42:00.000Z","reihung":false},"departure":{"platform":"2","scheduledTime":"2023-10-18T15:26:00.000Z","time":"2023-10-18T15:26:00.000Z","reihung":false},"duration":4560000,"train":{"name":"ICE 273","line":"20","admin":"80","number":"273","type":"ICE","operator":{"name":"DB Fernverkehr AG","icoX":2}},"changeDuration":18,"segmentStart":{"name":"Berlin Hbf (tief)","evaNumber":"8098160"},"segmentDestination":{"name":"Leipzig Hbf","evaNumber":"8010205"},"stops":[{"station":{"evaNumber":"8098160","name":"Berlin Hbf (tief)","coordinates":{"lng":13.368892,"lat":52.52585},"ril100":"BL"},"departure":{"platform":"2","scheduledTime":"2023-10-18T15:26:00.000Z","time":"2023-10-18T15:26:00.000Z","reihung":false}},{"station":{"evaNumber":"8011113","name":"Berlin Südkreuz","coordinates":{"lng":13.365863,"lat":52.47623},"ril100":"BPAF"},"departure":{"platform":"3","scheduledTime":"2023-10-18T15:33:00.000Z","time":"2023-10-18T15:33:00.000Z","reihung":false},"auslastung":{"first":1,"second":2}},{"station":{"evaNumber":"8010222","name":"Lutherstadt Wittenberg Hbf","coordinates":{"lng":12.661999,"lat":51.867579},"ril100":"LW"},"arrival":{"platform":"2","scheduledTime":"2023-10-18T16:09:00.000Z","time":"2023-10-18T16:09:00.000Z","reihung":false},"departure":{"platform":"2","scheduledTime":"2023-10-18T16:10:00.000Z","time":"2023-10-18T16:10:00.000Z","reihung":false},"auslastung":{"first":1,"second":2}},{"station":{"evaNumber":"8010205","name":"Leipzig Hbf","coordinates":{"lng":12.381167,"lat":51.345081},"ril100":"LL"},"arrival":{"platform":"11","scheduledTime":"2023-10-18T16:42:00.000Z","time":"2023-10-18T16:42:00.000Z","reihung":false}}],"finalDestination":"Karlsruhe Hbf","jid":"1|204183|0|80|18102023","auslastung":{"first":1,"second":2},"messages":[{"type":"A","code":"CK","prio":200,"icoX":3,"txtN":"Sicher & kontaktlos ohne Ticketkontrolle reisen mit Komfort Check-in"},{"type":"A","code":"FR","prio":260,"icoX":4,"txtN":"Fahrradmitnahme reservierungspflichtig"},{"type":"A","code":"FB","prio":260,"icoX":5,"txtN":"Fahrradmitnahme begrenzt möglich"},{"type":"A","code":"BR","prio":450,"icoX":6,"txtN":"Bordrestaurant"},{"type":"A","code":"EH","prio":560,"icoX":3,"txtN":"Fahrzeuggebundene Einstiegshilfe vorhanden"}],"type":"JNY"},{"arrival":{"platform":"7","scheduledTime":"2023-10-18T18:33:00.000Z","time":"2023-10-18T18:33:00.000Z","reihung":false},"departure":{"platform":"21","scheduledTime":"2023-10-18T17:00:00.000Z","time":"2023-10-18T17:00:00.000Z","reihung":false},"duration":5580000,"train":{"name":"RE 50","line":"50","admin":"800456","number":"16531","type":"RE","operator":{"name":"DB Regio AG Südost","icoX":8}},"segmentStart":{"name":"Leipzig Hbf","evaNumber":"8010205"},"segmentDestination":{"name":"Dresden Hbf","evaNumber":"8010085"},"stops":[{"station":{"evaNumber":"8010205","name":"Leipzig Hbf","coordinates":{"lng":12.381167,"lat":51.345081},"ril100":"LL"},"departure":{"platform":"21","scheduledTime":"2023-10-18T17:00:00.000Z","time":"2023-10-18T17:00:00.000Z","reihung":false}},{"station":{"evaNumber":"8011491","name":"Leipzig-Engelsdorf","coordinates":{"lng":12.469549,"lat":51.343876},"ril100":"LE"},"arrival":{"platform":"1","scheduledTime":"2023-10-18T17:05:00.000Z","time":"2023-10-18T17:05:00.000Z","reihung":false},"departure":{"platform":"1","scheduledTime":"2023-10-18T17:05:00.000Z","time":"2023-10-18T17:05:00.000Z","reihung":false}},{"station":{"evaNumber":"8010059","name":"Borsdorf(Sachs)","coordinates":{"lng":12.54113,"lat":51.345719},"ril100":"LBOR"},"arrival":{"platform":"2","scheduledTime":"2023-10-18T17:09:00.000Z","time":"2023-10-18T17:09:00.000Z","reihung":false},"departure":{"platform":"2","scheduledTime":"2023-10-18T17:09:00.000Z","time":"2023-10-18T17:09:00.000Z","reihung":false}},{"station":{"evaNumber":"8013361","name":"Wurzen","coordinates":{"lng":12.738982,"lat":51.364435},"ril100":"LWZ"},"arrival":{"platform":"2","scheduledTime":"2023-10-18T17:17:00.000Z","time":"2023-10-18T17:17:00.000Z","reihung":false},"departure":{"platform":"2","scheduledTime":"2023-10-18T17:18:00.000Z","time":"2023-10-18T17:18:00.000Z","reihung":false}},{"station":{"evaNumber":"8012117","name":"Kühren","coordinates":{"lng":12.832982,"lat":51.349387}},"arrival":{"platform":"1","scheduledTime":"2023-10-18T17:23:00.000Z","time":"2023-10-18T17:23:00.000Z","reihung":false},"departure":{"platform":"1","scheduledTime":"2023-10-18T17:23:00.000Z","time":"2023-10-18T17:23:00.000Z","reihung":false}},{"station":{"evaNumber":"8011339","name":"Dahlen(Sachs)","coordinates":{"lng":12.984657,"lat":51.350924},"ril100":"LDA"},"arrival":{"platform":"1","scheduledTime":"2023-10-18T17:29:00.000Z","time":"2023-10-18T17:29:00.000Z","reihung":false},"departure":{"platform":"1","scheduledTime":"2023-10-18T17:29:00.000Z","time":"2023-10-18T17:29:00.000Z","reihung":false}},{"station":{"evaNumber":"8013461","name":"Oschatz","coordinates":{"lng":13.104178,"lat":51.311497},"ril100":"DOT"},"arrival":{"platform":"3","scheduledTime":"2023-10-18T17:35:00.000Z","time":"2023-10-18T17:35:00.000Z","reihung":false},"departure":{"platform":"3","scheduledTime":"2023-10-18T17:36:00.000Z","time":"2023-10-18T17:36:00.000Z","reihung":false}},{"station":{"evaNumber":"8010297","name":"Riesa","coordinates":{"lng":13.287369,"lat":51.309645},"ril100":"DR"},"arrival":{"platform":"2","scheduledTime":"2023-10-18T17:44:00.000Z","time":"2023-10-18T17:44:00.000Z","reihung":false},"departure":{"platform":"2","scheduledTime":"2023-10-18T17:45:00.000Z","time":"2023-10-18T17:45:00.000Z","reihung":false}},{"station":{"evaNumber":"8011637","name":"Glaubitz(Riesa)","coordinates":{"lng":13.36571,"lat":51.31752},"ril100":"DGLA"},"arrival":{"platform":"1","scheduledTime":"2023-10-18T17:49:00.000Z","time":"2023-10-18T17:49:00.000Z","reihung":false},"departure":{"platform":"1","scheduledTime":"2023-10-18T17:49:00.000Z","time":"2023-10-18T17:49:00.000Z","reihung":false}},{"station":{"evaNumber":"8012523","name":"Nünchritz","coordinates":{"lng":13.392183,"lat":51.302499},"ril100":"DNUN"},"arrival":{"platform":"1","scheduledTime":"2023-10-18T17:52:00.000Z","time":"2023-10-18T17:52:00.000Z","reihung":false},"departure":{"platform":"1","scheduledTime":"2023-10-18T17:52:00.000Z","time":"2023-10-18T17:52:00.000Z","reihung":false}},{"station":{"evaNumber":"8010285","name":"Priestewitz","coordinates":{"lng":13.508405,"lat":51.250955}},"arrival":{"platform":"1","scheduledTime":"2023-10-18T17:59:00.000Z","time":"2023-10-18T17:59:00.000Z","reihung":false},"departure":{"platform":"1","scheduledTime":"2023-10-18T17:59:00.000Z","time":"2023-10-18T17:59:00.000Z","reihung":false}},{"station":{"evaNumber":"8012482","name":"Niederau","coordinates":{"lng":13.560282,"lat":51.175427},"ril100":"DNDR"},"arrival":{"platform":"1","scheduledTime":"2023-10-18T18:06:00.000Z","time":"2023-10-18T18:06:00.000Z","reihung":false},"departure":{"platform":"1","scheduledTime":"2023-10-18T18:07:00.000Z","time":"2023-10-18T18:07:00.000Z","reihung":false}},{"station":{"evaNumber":"8013267","name":"Weinböhla Hp","coordinates":{"lng":13.561495,"lat":51.159184},"ril100":"DWEW"},"arrival":{"platform":"1","scheduledTime":"2023-10-18T18:09:00.000Z","time":"2023-10-18T18:09:00.000Z","reihung":false},"departure":{"platform":"1","scheduledTime":"2023-10-18T18:09:00.000Z","time":"2023-10-18T18:09:00.000Z","reihung":false}},{"station":{"evaNumber":"8010072","name":"Coswig(b Dresden)","coordinates":{"lng":13.579501,"lat":51.122787},"ril100":"DCW"},"arrival":{"platform":"3","scheduledTime":"2023-10-18T18:12:00.000Z","time":"2023-10-18T18:12:00.000Z","reihung":false},"departure":{"platform":"3","scheduledTime":"2023-10-18T18:13:00.000Z","time":"2023-10-18T18:13:00.000Z","reihung":false}},{"station":{"evaNumber":"8010292","name":"Radebeul Ost","coordinates":{"lng":13.679038,"lat":51.098714},"ril100":"DRB"},"arrival":{"platform":"2","scheduledTime":"2023-10-18T18:18:00.000Z","time":"2023-10-18T18:18:00.000Z","reihung":false},"departure":{"platform":"2","scheduledTime":"2023-10-18T18:19:00.000Z","time":"2023-10-18T18:19:00.000Z","reihung":false}},{"station":{"evaNumber":"8010089","name":"Dresden-Neustadt","coordinates":{"lng":13.740524,"lat":51.065912},"ril100":"DN"},"arrival":{"platform":"7","scheduledTime":"2023-10-18T18:24:00.000Z","time":"2023-10-18T18:24:00.000Z","reihung":false},"departure":{"platform":"7","scheduledTime":"2023-10-18T18:26:00.000Z","time":"2023-10-18T18:26:00.000Z","reihung":false}},{"station":{"evaNumber":"8013444","name":"Dresden Mitte","coordinates":{"lng":13.724236,"lat":51.05615},"ril100":"DM"},"arrival":{"platform":"4","scheduledTime":"2023-10-18T18:29:00.000Z","time":"2023-10-18T18:29:00.000Z","reihung":false},"departure":{"platform":"4","scheduledTime":"2023-10-18T18:30:00.000Z","time":"2023-10-18T18:30:00.000Z","reihung":false}},{"station":{"evaNumber":"8010085","name":"Dresden Hbf","coordinates":{"lng":13.731409,"lat":51.040221},"ril100":"DH"},"arrival":{"platform":"7","scheduledTime":"2023-10-18T18:33:00.000Z","time":"2023-10-18T18:33:00.000Z","reihung":false}}],"finalDestination":"Dresden Hbf","jid":"1|242552|0|80|18102023","messages":[{"type":"A","code":"FB","prio":260,"icoX":5,"txtN":"Fahrradmitnahme begrenzt möglich"},{"type":"A","code":"EH","prio":560,"icoX":3,"txtN":"Fahrzeuggebundene Einstiegshilfe vorhanden"}],"type":"JNY"}],"segmentTypes":["ICE","ICE","RE"]},{"checksum":"15eeaa28_3","cid":"C-4","date":"2023-10-17T22:00:00.000Z","duration":18120000,"changes":1,"isRideable":true,"arrival":{"platform":"1","scheduledTime":"2023-10-18T18:38:00.000Z","time":"2023-10-18T18:38:00.000Z","reihung":false},"departure":{"platform":"5","scheduledTime":"2023-10-18T13:36:00.000Z","time":"2023-10-18T13:36:00.000Z","reihung":false},"segments":[{"arrival":{"platform":"8","scheduledTime":"2023-10-18T16:50:00.000Z","time":"2023-10-18T16:50:00.000Z","reihung":false},"departure":{"platform":"5","scheduledTime":"2023-10-18T13:36:00.000Z","time":"2023-10-18T13:36:00.000Z","reihung":false},"duration":11640000,"train":{"name":"ICE 801","line":"18","admin":"80","number":"801","type":"ICE","operator":{"name":"DB Fernverkehr AG","icoX":2}},"changeDuration":5,"segmentStart":{"name":"Hamburg Hbf","evaNumber":"8002549"},"segmentDestination":{"name":"Halle(Saale)Hbf","evaNumber":"8010159"},"stops":[{"station":{"evaNumber":"8002549","name":"Hamburg Hbf","coordinates":{"lng":10.00636,"lat":53.553533},"ril100":"AH"},"departure":{"platform":"5","scheduledTime":"2023-10-18T13:36:00.000Z","time":"2023-10-18T13:36:00.000Z","reihung":false},"auslastung":{"first":1,"second":1},"messages":[{"type":"A","code":"text.journeystop.product.or.direction.changes.stop.message","icoX":3,"txtN":"Verkehrt ab hier als ICE 801 in Richtung Erfurt Hbf"}]},{"station":{"evaNumber":"8010404","name":"Berlin-Spandau","coordinates":{"lng":13.200947,"lat":52.533787},"ril100":"BSPD"},"arrival":{"platform":"5","scheduledTime":"2023-10-18T15:10:00.000Z","time":"2023-10-18T15:10:00.000Z","reihung":false},"departure":{"platform":"5","scheduledTime":"2023-10-18T15:12:00.000Z","time":"2023-10-18T15:12:00.000Z","reihung":false},"messages":[{"type":"A","code":"text.journeystop.product.or.direction.changes.stop.message","icoX":3,"txtN":"Verkehrt ab hier als ICE 801 in Richtung München Hbf"}]},{"station":{"evaNumber":"8098160","name":"Berlin Hbf (tief)","coordinates":{"lng":13.368892,"lat":52.52585},"ril100":"BL"},"arrival":{"platform":"1","scheduledTime":"2023-10-18T15:22:00.000Z","time":"2023-10-18T15:22:00.000Z","reihung":false},"departure":{"platform":"1","scheduledTime":"2023-10-18T15:34:00.000Z","time":"2023-10-18T15:34:00.000Z","reihung":false}},{"station":{"evaNumber":"8011113","name":"Berlin Südkreuz","coordinates":{"lng":13.365863,"lat":52.47623},"ril100":"BPAF"},"arrival":{"platform":"3","scheduledTime":"2023-10-18T15:39:00.000Z","time":"2023-10-18T15:39:00.000Z","reihung":false},"departure":{"platform":"3","scheduledTime":"2023-10-18T15:41:00.000Z","time":"2023-10-18T15:41:00.000Z","reihung":false},"auslastung":{"first":1,"second":1}},{"station":{"evaNumber":"8010050","name":"Bitterfeld","coordinates":{"lng":12.316966,"lat":51.622911},"ril100":"LBT"},"arrival":{"platform":"3","scheduledTime":"2023-10-18T16:32:00.000Z","time":"2023-10-18T16:32:00.000Z","reihung":false},"departure":{"platform":"3","scheduledTime":"2023-10-18T16:33:00.000Z","time":"2023-10-18T16:33:00.000Z","reihung":false},"auslastung":{"first":1,"second":1}},{"station":{"evaNumber":"8010159","name":"Halle(Saale)Hbf","coordinates":{"lng":11.98699,"lat":51.477079},"ril100":"LH"},"arrival":{"platform":"8","scheduledTime":"2023-10-18T16:50:00.000Z","time":"2023-10-18T16:50:00.000Z","reihung":false}}],"finalDestination":"Erfurt Hbf","jid":"1|210399|0|80|18102023","auslastung":{"first":1,"second":1},"messages":[{"type":"A","code":"CK","prio":200,"icoX":3,"txtN":"Sicher & kontaktlos ohne Ticketkontrolle reisen mit Komfort Check-in"},{"type":"A","code":"FR","prio":260,"icoX":4,"txtN":"Fahrradmitnahme reservierungspflichtig"},{"type":"A","code":"FB","prio":260,"icoX":5,"txtN":"Fahrradmitnahme begrenzt möglich"},{"type":"A","code":"BR","prio":450,"icoX":6,"txtN":"Bordrestaurant"},{"type":"A","code":"EH","prio":560,"icoX":3,"txtN":"Fahrzeuggebundene Einstiegshilfe vorhanden"},{"type":"A","code":"text.journeystop.product.or.direction.changes.journey.message","icoX":3,"txtN":"Verkehrt ab Berlin-Spandau als ICE 801 in Richtung München Hbf"}],"type":"JNY"},{"arrival":{"platform":"1","scheduledTime":"2023-10-18T18:38:00.000Z","time":"2023-10-18T18:38:00.000Z","reihung":false},"departure":{"platform":"9","scheduledTime":"2023-10-18T16:55:00.000Z","time":"2023-10-18T16:55:00.000Z","reihung":false},"duration":6180000,"train":{"name":"IC 2047","line":"55","admin":"80","number":"2047","type":"IC","operator":{"name":"DB Fernverkehr AG","icoX":2}},"segmentStart":{"name":"Halle(Saale)Hbf","evaNumber":"8010159"},"segmentDestination":{"name":"Dresden Hbf","evaNumber":"8010085"},"stops":[{"station":{"evaNumber":"8010159","name":"Halle(Saale)Hbf","coordinates":{"lng":11.98699,"lat":51.477079},"ril100":"LH"},"departure":{"platform":"9","scheduledTime":"2023-10-18T16:55:00.000Z","time":"2023-10-18T16:55:00.000Z","reihung":false},"auslastung":{"first":1,"second":1}},{"station":{"evaNumber":"8012183","name":"Leipzig/Halle Flughafen","coordinates":{"lng":12.223451,"lat":51.423341},"ril100":"LFLU"},"arrival":{"platform":"1","scheduledTime":"2023-10-18T17:05:00.000Z","time":"2023-10-18T17:05:00.000Z","reihung":false},"departure":{"platform":"1","scheduledTime":"2023-10-18T17:06:00.000Z","time":"2023-10-18T17:06:00.000Z","reihung":false}},{"station":{"evaNumber":"8010205","name":"Leipzig Hbf","coordinates":{"lng":12.381167,"lat":51.345081},"ril100":"LL"},"arrival":{"platform":"15","scheduledTime":"2023-10-18T17:17:00.000Z","time":"2023-10-18T17:17:00.000Z","reihung":false},"departure":{"platform":"15","scheduledTime":"2023-10-18T17:31:00.000Z","time":"2023-10-18T17:31:00.000Z","reihung":false},"auslastung":{"first":1,"second":1}},{"station":{"evaNumber":"8010297","name":"Riesa","coordinates":{"lng":13.287369,"lat":51.309645},"ril100":"DR"},"arrival":{"platform":"2","scheduledTime":"2023-10-18T18:01:00.000Z","time":"2023-10-18T18:01:00.000Z","reihung":false},"departure":{"platform":"2","scheduledTime":"2023-10-18T18:02:00.000Z","time":"2023-10-18T18:02:00.000Z","reihung":false},"auslastung":{"first":1,"second":1}},{"station":{"evaNumber":"8010089","name":"Dresden-Neustadt","coordinates":{"lng":13.740524,"lat":51.065912},"ril100":"DN"},"arrival":{"platform":"8","scheduledTime":"2023-10-18T18:30:00.000Z","time":"2023-10-18T18:30:00.000Z","reihung":false}},{"station":{"evaNumber":"8010085","name":"Dresden Hbf","coordinates":{"lng":13.731409,"lat":51.040221},"ril100":"DH"},"arrival":{"platform":"1","scheduledTime":"2023-10-18T18:38:00.000Z","time":"2023-10-18T18:38:00.000Z","reihung":false}}],"finalDestination":"Dresden Hbf","jid":"1|200813|0|80|18102023","auslastung":{"first":1,"second":1},"messages":[{"type":"A","code":"9N","prio":186,"icoX":3,"txtN":"Deutschland-Ticket nicht gültig (Riesa - Dresden Hbf)"},{"type":"A","code":"CK","prio":200,"icoX":3,"txtN":"Sicher & kontaktlos ohne Ticketkontrolle reisen mit Komfort Check-in"},{"type":"A","code":"FR","prio":260,"icoX":4,"txtN":"Fahrradmitnahme reservierungspflichtig"},{"type":"A","code":"FB","prio":260,"icoX":5,"txtN":"Fahrradmitnahme begrenzt möglich"},{"type":"A","code":"MP","prio":460,"icoX":3,"txtN":"Snacks und Getränke am Platz"},{"type":"A","code":"EH","prio":560,"icoX":3,"txtN":"Fahrzeuggebundene Einstiegshilfe vorhanden"},{"type":"A","code":"IZ","prio":800,"icoX":3,"txtN":"Intercity 2: Info unter www.bahn.de/ic2"}],"type":"JNY"}],"segmentTypes":["ICE","IC"]},{"checksum":"a5261eda_3","cid":"C-5","date":"2023-10-17T22:00:00.000Z","duration":23760000,"changes":3,"isRideable":true,"arrival":{"platform":"7","scheduledTime":"2023-10-18T20:33:00.000Z","time":"2023-10-18T20:33:00.000Z","reihung":false},"departure":{"platform":"13A-C","scheduledTime":"2023-10-18T13:57:00.000Z","time":"2023-10-18T13:57:00.000Z","reihung":false},"segments":[{"arrival":{"platform":"301","scheduledTime":"2023-10-18T14:56:00.000Z","time":"2023-10-18T14:56:00.000Z","reihung":false},"departure":{"platform":"13A-C","scheduledTime":"2023-10-18T13:57:00.000Z","time":"2023-10-18T13:57:00.000Z","reihung":false},"duration":3540000,"train":{"name":"ME RE3","line":"RE3","admin":"R1","number":"82129","type":"ME","operator":{"name":"metronom","icoX":12}},"changeDuration":6,"segmentStart":{"name":"Hamburg Hbf","evaNumber":"8002549"},"segmentDestination":{"name":"Uelzen","evaNumber":"8000168"},"stops":[{"station":{"evaNumber":"8002549","name":"Hamburg Hbf","coordinates":{"lng":10.00636,"lat":53.553533},"ril100":"AH"},"departure":{"platform":"13A-C","scheduledTime":"2023-10-18T13:57:00.000Z","time":"2023-10-18T13:57:00.000Z","reihung":false}},{"station":{"evaNumber":"8000147","name":"Hamburg-Harburg","coordinates":{"lng":9.991591,"lat":53.456198},"ril100":"AHAR"},"arrival":{"platform":"4","scheduledTime":"2023-10-18T14:07:00.000Z","time":"2023-10-18T14:07:00.000Z","reihung":false},"departure":{"platform":"4","scheduledTime":"2023-10-18T14:08:00.000Z","time":"2023-10-18T14:08:00.000Z","reihung":false}},{"station":{"evaNumber":"8006484","name":"Winsen(Luhe)","coordinates":{"lng":10.207045,"lat":53.354044},"ril100":"AWI"},"arrival":{"platform":"4","scheduledTime":"2023-10-18T14:19:00.000Z","time":"2023-10-18T14:19:00.000Z","reihung":false},"departure":{"platform":"4","scheduledTime":"2023-10-18T14:20:00.000Z","time":"2023-10-18T14:20:00.000Z","reihung":false}},{"station":{"evaNumber":"8000238","name":"Lüneburg","coordinates":{"lng":10.419873,"lat":53.249742},"ril100":"ALBG"},"arrival":{"platform":"1","scheduledTime":"2023-10-18T14:33:00.000Z","time":"2023-10-18T14:33:00.000Z","reihung":false},"departure":{"platform":"1","scheduledTime":"2023-10-18T14:34:00.000Z","time":"2023-10-18T14:34:00.000Z","reihung":false}},{"station":{"evaNumber":"8000955","name":"Bienenbüttel","coordinates":{"lng":10.484631,"lat":53.142132},"ril100":"ABIL"},"arrival":{"platform":"3","scheduledTime":"2023-10-18T14:42:00.000Z","time":"2023-10-18T14:42:00.000Z","reihung":false},"departure":{"platform":"3","scheduledTime":"2023-10-18T14:42:00.000Z","time":"2023-10-18T14:42:00.000Z","reihung":false}},{"station":{"evaNumber":"8000935","name":"Bad Bevensen","coordinates":{"lng":10.574173,"lat":53.078237},"ril100":"ABVS"},"arrival":{"platform":"2","scheduledTime":"2023-10-18T14:48:00.000Z","time":"2023-10-18T14:48:00.000Z","reihung":false},"departure":{"platform":"2","scheduledTime":"2023-10-18T14:48:00.000Z","time":"2023-10-18T14:48:00.000Z","reihung":false}},{"station":{"evaNumber":"8000168","name":"Uelzen","coordinates":{"lng":10.553246,"lat":52.96998},"ril100":"HU"},"arrival":{"platform":"301","scheduledTime":"2023-10-18T14:56:00.000Z","time":"2023-10-18T14:56:00.000Z","reihung":false}}],"finalDestination":"Uelzen","jid":"1|302232|0|80|18102023","messages":[{"type":"A","code":"FB","prio":260,"icoX":5,"txtN":"Fahrradmitnahme begrenzt möglich"},{"type":"A","code":"RO","prio":560,"icoX":13,"txtN":"Rollstuhlstellplatz"}],"type":"JNY"},{"arrival":{"platform":"1","scheduledTime":"2023-10-18T16:50:00.000Z","time":"2023-10-18T16:50:00.000Z","reihung":false},"departure":{"platform":"304","scheduledTime":"2023-10-18T15:02:00.000Z","time":"2023-10-18T15:02:00.000Z","reihung":false},"duration":6480000,"train":{"name":"RE 20","line":"20","admin":"800489","number":"16931","type":"RE","operator":{"name":"DB Regio AG Südost","icoX":8}},"changeDuration":14,"segmentStart":{"name":"Uelzen","evaNumber":"8000168"},"segmentDestination":{"name":"Magdeburg Hbf","evaNumber":"8010224"},"stops":[{"station":{"evaNumber":"8000168","name":"Uelzen","coordinates":{"lng":10.553246,"lat":52.96998},"ril100":"HU"},"departure":{"platform":"304","scheduledTime":"2023-10-18T15:02:00.000Z","time":"2023-10-18T15:02:00.000Z","reihung":false}},{"station":{"evaNumber":"8005682","name":"Stederdorf(Kr Uelzen)","coordinates":{"lng":10.592745,"lat":52.90737},"ril100":"HSTF"},"arrival":{"platform":"1","scheduledTime":"2023-10-18T15:08:00.000Z","time":"2023-10-18T15:08:00.000Z","reihung":false},"departure":{"platform":"1","scheduledTime":"2023-10-18T15:09:00.000Z","time":"2023-10-18T15:09:00.000Z","reihung":false}},{"station":{"evaNumber":"8006402","name":"Wieren","coordinates":{"lng":10.655696,"lat":52.892583}},"arrival":{"platform":"3","scheduledTime":"2023-10-18T15:12:00.000Z","time":"2023-10-18T15:12:00.000Z","reihung":false},"departure":{"platform":"3","scheduledTime":"2023-10-18T15:13:00.000Z","time":"2023-10-18T15:13:00.000Z","reihung":false}},{"station":{"evaNumber":"8000445","name":"Soltendieck","coordinates":{"lng":10.761418,"lat":52.8742},"ril100":"HSDK"},"arrival":{"platform":"1","scheduledTime":"2023-10-18T15:17:00.000Z","time":"2023-10-18T15:17:00.000Z","reihung":false},"departure":{"platform":"1","scheduledTime":"2023-10-18T15:18:00.000Z","time":"2023-10-18T15:18:00.000Z","reihung":false}},{"station":{"evaNumber":"8000440","name":"Schnega","coordinates":{"lng":10.890422,"lat":52.86904},"ril100":"HSCG"},"arrival":{"platform":"2","scheduledTime":"2023-10-18T15:24:00.000Z","time":"2023-10-18T15:24:00.000Z","reihung":false},"departure":{"platform":"2","scheduledTime":"2023-10-18T15:24:00.000Z","time":"2023-10-18T15:24:00.000Z","reihung":false}},{"station":{"evaNumber":"8010310","name":"Salzwedel","coordinates":{"lng":11.16169,"lat":52.858217},"ril100":"LSW"},"arrival":{"platform":"2","scheduledTime":"2023-10-18T15:34:00.000Z","time":"2023-10-18T15:34:00.000Z","reihung":false},"departure":{"platform":"2","scheduledTime":"2023-10-18T15:35:00.000Z","time":"2023-10-18T15:35:00.000Z","reihung":false}},{"station":{"evaNumber":"8010172","name":"Hohenwulsch","coordinates":{"lng":11.595455,"lat":52.667295}},"arrival":{"platform":"1","scheduledTime":"2023-10-18T15:52:00.000Z","time":"2023-10-18T15:52:00.000Z","reihung":false},"departure":{"platform":"1","scheduledTime":"2023-10-18T15:56:00.000Z","time":"2023-10-18T15:56:00.000Z","reihung":false}},{"station":{"evaNumber":"8010334","name":"Stendal Hbf","coordinates":{"lng":11.854767,"lat":52.594671},"ril100":"LS"},"arrival":{"platform":"5","scheduledTime":"2023-10-18T16:07:00.000Z","time":"2023-10-18T16:07:00.000Z","reihung":false},"departure":{"platform":"5","scheduledTime":"2023-10-18T16:10:00.000Z","time":"2023-10-18T16:10:00.000Z","reihung":false}},{"station":{"evaNumber":"8013083","name":"Tangerhütte","coordinates":{"lng":11.811242,"lat":52.436569},"ril100":"LTH"},"arrival":{"platform":"2","scheduledTime":"2023-10-18T16:21:00.000Z","time":"2023-10-18T16:21:00.000Z","reihung":false},"departure":{"platform":"2","scheduledTime":"2023-10-18T16:22:00.000Z","time":"2023-10-18T16:22:00.000Z","reihung":false}},{"station":{"evaNumber":"8013344","name":"Wolmirstedt","coordinates":{"lng":11.635601,"lat":52.250331},"ril100":"LWLS"},"arrival":{"platform":"1","scheduledTime":"2023-10-18T16:35:00.000Z","time":"2023-10-18T16:35:00.000Z","reihung":false},"departure":{"platform":"1","scheduledTime":"2023-10-18T16:36:00.000Z","time":"2023-10-18T16:36:00.000Z","reihung":false}},{"station":{"evaNumber":"8010226","name":"Magdeburg-Neustadt","coordinates":{"lng":11.640977,"lat":52.148537},"ril100":"LMN"},"arrival":{"platform":"2","scheduledTime":"2023-10-18T16:45:00.000Z","time":"2023-10-18T16:45:00.000Z","reihung":false},"departure":{"platform":"2","scheduledTime":"2023-10-18T16:46:00.000Z","time":"2023-10-18T16:46:00.000Z","reihung":false}},{"station":{"evaNumber":"8010224","name":"Magdeburg Hbf","coordinates":{"lng":11.6269,"lat":52.130495},"ril100":"LM"},"arrival":{"platform":"1","scheduledTime":"2023-10-18T16:50:00.000Z","time":"2023-10-18T16:50:00.000Z","reihung":false}}],"finalDestination":"Magdeburg Hbf","jid":"1|243469|0|80|18102023","messages":[{"type":"A","code":"FB","prio":260,"icoX":5,"txtN":"Fahrradmitnahme begrenzt möglich"},{"type":"A","code":"RG","prio":560,"icoX":3,"txtN":"Behindertengerechtes Fahrzeug"},{"type":"A","code":"EH","prio":560,"icoX":3,"txtN":"Fahrzeuggebundene Einstiegshilfe vorhanden"},{"type":"A","code":"LS","prio":605,"icoX":3,"txtN":"Laptop-Steckdosen"},{"type":"A","code":"WV","prio":710,"icoX":3,"txtN":"WLAN verfügbar"},{"type":"M","code":"","icoX":10,"txtS":"RE 16931: Uelzen->Schnega: Information.","txtN":"Erfahrungsgemäß hat dieser Zug eine hohe Auslastung.","sIdx":1}],"type":"JNY"},{"arrival":{"platform":"13","scheduledTime":"2023-10-18T18:15:00.000Z","time":"2023-10-18T18:15:00.000Z","reihung":false},"departure":{"platform":"6","scheduledTime":"2023-10-18T17:04:00.000Z","time":"2023-10-18T17:04:00.000Z","reihung":false},"duration":4260000,"train":{"name":"IC 2433","line":"56","admin":"80","number":"2433","type":"IC","operator":{"name":"DB Fernverkehr AG","icoX":2}},"changeDuration":45,"segmentStart":{"name":"Magdeburg Hbf","evaNumber":"8010224"},"segmentDestination":{"name":"Leipzig Hbf","evaNumber":"8010205"},"stops":[{"station":{"evaNumber":"8010224","name":"Magdeburg Hbf","coordinates":{"lng":11.6269,"lat":52.130495},"ril100":"LM"},"departure":{"platform":"6","scheduledTime":"2023-10-18T17:04:00.000Z","time":"2023-10-18T17:04:00.000Z","reihung":false},"auslastung":{"first":1,"second":1}},{"station":{"evaNumber":"8010195","name":"Köthen","coordinates":{"lng":11.989084,"lat":51.752301},"ril100":"LK"},"arrival":{"platform":"4","scheduledTime":"2023-10-18T17:31:00.000Z","time":"2023-10-18T17:31:00.000Z","reihung":false},"departure":{"platform":"4","scheduledTime":"2023-10-18T17:33:00.000Z","time":"2023-10-18T17:33:00.000Z","reihung":false},"auslastung":{"first":1,"second":1}},{"station":{"evaNumber":"8010159","name":"Halle(Saale)Hbf","coordinates":{"lng":11.98699,"lat":51.477079},"ril100":"LH"},"arrival":{"platform":"8","scheduledTime":"2023-10-18T17:53:00.000Z","time":"2023-10-18T17:53:00.000Z","reihung":false},"departure":{"platform":"8","scheduledTime":"2023-10-18T17:55:00.000Z","time":"2023-10-18T17:55:00.000Z","reihung":false},"auslastung":{"first":1,"second":1}},{"station":{"evaNumber":"8010205","name":"Leipzig Hbf","coordinates":{"lng":12.381167,"lat":51.345081},"ril100":"LL"},"arrival":{"platform":"13","scheduledTime":"2023-10-18T18:15:00.000Z","time":"2023-10-18T18:15:00.000Z","reihung":false}}],"finalDestination":"Leipzig Hbf","jid":"1|203195|0|80|18102023","auslastung":{"first":1,"second":1},"messages":[{"type":"A","code":"CK","prio":200,"icoX":3,"txtN":"Sicher & kontaktlos ohne Ticketkontrolle reisen mit Komfort Check-in"},{"type":"A","code":"FR","prio":260,"icoX":4,"txtN":"Fahrradmitnahme reservierungspflichtig"},{"type":"A","code":"FB","prio":260,"icoX":5,"txtN":"Fahrradmitnahme begrenzt möglich"},{"type":"A","code":"MP","prio":460,"icoX":3,"txtN":"Snacks und Getränke am Platz"},{"type":"A","code":"EH","prio":560,"icoX":3,"txtN":"Fahrzeuggebundene Einstiegshilfe vorhanden"},{"type":"A","code":"IZ","prio":800,"icoX":3,"txtN":"Intercity 2: Info unter www.bahn.de/ic2"}],"type":"JNY"},{"arrival":{"platform":"7","scheduledTime":"2023-10-18T20:33:00.000Z","time":"2023-10-18T20:33:00.000Z","reihung":false},"departure":{"platform":"21","scheduledTime":"2023-10-18T19:00:00.000Z","time":"2023-10-18T19:00:00.000Z","reihung":false},"duration":5580000,"train":{"name":"RE 50","line":"50","admin":"800456","number":"16535","type":"RE","operator":{"name":"DB Regio AG Südost","icoX":8}},"segmentStart":{"name":"Leipzig Hbf","evaNumber":"8010205"},"segmentDestination":{"name":"Dresden Hbf","evaNumber":"8010085"},"stops":[{"station":{"evaNumber":"8010205","name":"Leipzig Hbf","coordinates":{"lng":12.381167,"lat":51.345081},"ril100":"LL"},"departure":{"platform":"21","scheduledTime":"2023-10-18T19:00:00.000Z","time":"2023-10-18T19:00:00.000Z","reihung":false}},{"station":{"evaNumber":"8011491","name":"Leipzig-Engelsdorf","coordinates":{"lng":12.469549,"lat":51.343876},"ril100":"LE"},"arrival":{"platform":"1","scheduledTime":"2023-10-18T19:05:00.000Z","time":"2023-10-18T19:05:00.000Z","reihung":false},"departure":{"platform":"1","scheduledTime":"2023-10-18T19:05:00.000Z","time":"2023-10-18T19:05:00.000Z","reihung":false}},{"station":{"evaNumber":"8010059","name":"Borsdorf(Sachs)","coordinates":{"lng":12.54113,"lat":51.345719},"ril100":"LBOR"},"arrival":{"platform":"2","scheduledTime":"2023-10-18T19:09:00.000Z","time":"2023-10-18T19:09:00.000Z","reihung":false},"departure":{"platform":"2","scheduledTime":"2023-10-18T19:09:00.000Z","time":"2023-10-18T19:09:00.000Z","reihung":false}},{"station":{"evaNumber":"8013361","name":"Wurzen","coordinates":{"lng":12.738982,"lat":51.364435},"ril100":"LWZ"},"arrival":{"platform":"2","scheduledTime":"2023-10-18T19:17:00.000Z","time":"2023-10-18T19:17:00.000Z","reihung":false},"departure":{"platform":"2","scheduledTime":"2023-10-18T19:18:00.000Z","time":"2023-10-18T19:18:00.000Z","reihung":false}},{"station":{"evaNumber":"8012117","name":"Kühren","coordinates":{"lng":12.832982,"lat":51.349387}},"arrival":{"platform":"1","scheduledTime":"2023-10-18T19:23:00.000Z","time":"2023-10-18T19:23:00.000Z","reihung":false},"departure":{"platform":"1","scheduledTime":"2023-10-18T19:23:00.000Z","time":"2023-10-18T19:23:00.000Z","reihung":false}},{"station":{"evaNumber":"8011339","name":"Dahlen(Sachs)","coordinates":{"lng":12.984657,"lat":51.350924},"ril100":"LDA"},"arrival":{"platform":"1","scheduledTime":"2023-10-18T19:29:00.000Z","time":"2023-10-18T19:29:00.000Z","reihung":false},"departure":{"platform":"1","scheduledTime":"2023-10-18T19:29:00.000Z","time":"2023-10-18T19:29:00.000Z","reihung":false}},{"station":{"evaNumber":"8013461","name":"Oschatz","coordinates":{"lng":13.104178,"lat":51.311497},"ril100":"DOT"},"arrival":{"platform":"3","scheduledTime":"2023-10-18T19:35:00.000Z","time":"2023-10-18T19:35:00.000Z","reihung":false},"departure":{"platform":"3","scheduledTime":"2023-10-18T19:36:00.000Z","time":"2023-10-18T19:36:00.000Z","reihung":false}},{"station":{"evaNumber":"8010297","name":"Riesa","coordinates":{"lng":13.287369,"lat":51.309645},"ril100":"DR"},"arrival":{"platform":"2","scheduledTime":"2023-10-18T19:44:00.000Z","time":"2023-10-18T19:44:00.000Z","reihung":false},"departure":{"platform":"2","scheduledTime":"2023-10-18T19:45:00.000Z","time":"2023-10-18T19:45:00.000Z","reihung":false}},{"station":{"evaNumber":"8011637","name":"Glaubitz(Riesa)","coordinates":{"lng":13.36571,"lat":51.31752},"ril100":"DGLA"},"arrival":{"platform":"1","scheduledTime":"2023-10-18T19:49:00.000Z","time":"2023-10-18T19:49:00.000Z","reihung":false},"departure":{"platform":"1","scheduledTime":"2023-10-18T19:49:00.000Z","time":"2023-10-18T19:49:00.000Z","reihung":false}},{"station":{"evaNumber":"8012523","name":"Nünchritz","coordinates":{"lng":13.392183,"lat":51.302499},"ril100":"DNUN"},"arrival":{"platform":"1","scheduledTime":"2023-10-18T19:52:00.000Z","time":"2023-10-18T19:52:00.000Z","reihung":false},"departure":{"platform":"1","scheduledTime":"2023-10-18T19:52:00.000Z","time":"2023-10-18T19:52:00.000Z","reihung":false}},{"station":{"evaNumber":"8010285","name":"Priestewitz","coordinates":{"lng":13.508405,"lat":51.250955}},"arrival":{"platform":"1","scheduledTime":"2023-10-18T19:59:00.000Z","time":"2023-10-18T19:59:00.000Z","reihung":false},"departure":{"platform":"1","scheduledTime":"2023-10-18T19:59:00.000Z","time":"2023-10-18T19:59:00.000Z","reihung":false}},{"station":{"evaNumber":"8012482","name":"Niederau","coordinates":{"lng":13.560282,"lat":51.175427},"ril100":"DNDR"},"arrival":{"platform":"1","scheduledTime":"2023-10-18T20:06:00.000Z","time":"2023-10-18T20:06:00.000Z","reihung":false},"departure":{"platform":"1","scheduledTime":"2023-10-18T20:07:00.000Z","time":"2023-10-18T20:07:00.000Z","reihung":false}},{"station":{"evaNumber":"8013267","name":"Weinböhla Hp","coordinates":{"lng":13.561495,"lat":51.159184},"ril100":"DWEW"},"arrival":{"platform":"1","scheduledTime":"2023-10-18T20:09:00.000Z","time":"2023-10-18T20:09:00.000Z","reihung":false},"departure":{"platform":"1","scheduledTime":"2023-10-18T20:09:00.000Z","time":"2023-10-18T20:09:00.000Z","reihung":false}},{"station":{"evaNumber":"8010072","name":"Coswig(b Dresden)","coordinates":{"lng":13.579501,"lat":51.122787},"ril100":"DCW"},"arrival":{"platform":"3","scheduledTime":"2023-10-18T20:12:00.000Z","time":"2023-10-18T20:12:00.000Z","reihung":false},"departure":{"platform":"3","scheduledTime":"2023-10-18T20:13:00.000Z","time":"2023-10-18T20:13:00.000Z","reihung":false}},{"station":{"evaNumber":"8010292","name":"Radebeul Ost","coordinates":{"lng":13.679038,"lat":51.098714},"ril100":"DRB"},"arrival":{"platform":"2","scheduledTime":"2023-10-18T20:18:00.000Z","time":"2023-10-18T20:18:00.000Z","reihung":false},"departure":{"platform":"2","scheduledTime":"2023-10-18T20:19:00.000Z","time":"2023-10-18T20:19:00.000Z","reihung":false}},{"station":{"evaNumber":"8010089","name":"Dresden-Neustadt","coordinates":{"lng":13.740524,"lat":51.065912},"ril100":"DN"},"arrival":{"platform":"7","scheduledTime":"2023-10-18T20:24:00.000Z","time":"2023-10-18T20:24:00.000Z","reihung":false},"departure":{"platform":"7","scheduledTime":"2023-10-18T20:26:00.000Z","time":"2023-10-18T20:26:00.000Z","reihung":false}},{"station":{"evaNumber":"8013444","name":"Dresden Mitte","coordinates":{"lng":13.724236,"lat":51.05615},"ril100":"DM"},"arrival":{"platform":"4","scheduledTime":"2023-10-18T20:29:00.000Z","time":"2023-10-18T20:29:00.000Z","reihung":false},"departure":{"platform":"4","scheduledTime":"2023-10-18T20:30:00.000Z","time":"2023-10-18T20:30:00.000Z","reihung":false}},{"station":{"evaNumber":"8010085","name":"Dresden Hbf","coordinates":{"lng":13.731409,"lat":51.040221},"ril100":"DH"},"arrival":{"platform":"7","scheduledTime":"2023-10-18T20:33:00.000Z","time":"2023-10-18T20:33:00.000Z","reihung":false}}],"finalDestination":"Dresden Hbf","jid":"1|242601|0|80|18102023","messages":[{"type":"A","code":"FB","prio":260,"icoX":5,"txtN":"Fahrradmitnahme begrenzt möglich"},{"type":"A","code":"EH","prio":560,"icoX":3,"txtN":"Fahrzeuggebundene Einstiegshilfe vorhanden"},{"type":"M","code":"","icoX":10,"txtS":"RE 16535: Leipzig-Engelsdorf->Wurzen: Information.","txtN":"Erfahrungsgemäß hat dieser Zug eine hohe Auslastung.","sIdx":3}],"type":"JNY"}],"segmentTypes":["ME","RE","IC","RE"]},{"checksum":"fa55de0a_3","cid":"C-6","date":"2023-10-17T22:00:00.000Z","duration":15660000,"changes":0,"isRideable":true,"arrival":{"platform":"1a","scheduledTime":"2023-10-18T19:12:00.000Z","time":"2023-10-18T19:12:00.000Z","reihung":false},"departure":{"platform":"5","scheduledTime":"2023-10-18T14:51:00.000Z","time":"2023-10-18T14:51:00.000Z","reihung":false},"segments":[{"arrival":{"platform":"1a","scheduledTime":"2023-10-18T19:12:00.000Z","time":"2023-10-18T19:12:00.000Z","reihung":false},"departure":{"platform":"5","scheduledTime":"2023-10-18T14:51:00.000Z","time":"2023-10-18T14:51:00.000Z","reihung":false},"duration":15660000,"train":{"name":"ICE 871","line":"27","admin":"80","number":"871","type":"ICE","operator":{"name":"DB Fernverkehr AG","icoX":2}},"segmentStart":{"name":"Hamburg Hbf","evaNumber":"8002549"},"segmentDestination":{"name":"Dresden Hbf","evaNumber":"8010085"},"stops":[{"station":{"evaNumber":"8002549","name":"Hamburg Hbf","coordinates":{"lng":10.00636,"lat":53.553533},"ril100":"AH"},"departure":{"platform":"5","scheduledTime":"2023-10-18T14:51:00.000Z","time":"2023-10-18T14:51:00.000Z","reihung":false},"auslastung":{"first":1,"second":1}},{"station":{"evaNumber":"8000058","name":"Büchen","coordinates":{"lng":10.622939,"lat":53.475291},"ril100":"ABCH"},"arrival":{"platform":"1","scheduledTime":"2023-10-18T15:13:00.000Z","time":"2023-10-18T15:13:00.000Z","reihung":false},"departure":{"platform":"1","scheduledTime":"2023-10-18T15:15:00.000Z","time":"2023-10-18T15:15:00.000Z","reihung":false},"auslastung":{"first":1,"second":1}},{"station":{"evaNumber":"8010216","name":"Ludwigslust","coordinates":{"lng":11.493751,"lat":53.335122},"ril100":"WL"},"arrival":{"platform":"1","scheduledTime":"2023-10-18T15:40:00.000Z","time":"2023-10-18T15:40:00.000Z","reihung":false},"departure":{"platform":"1","scheduledTime":"2023-10-18T15:41:00.000Z","time":"2023-10-18T15:41:00.000Z","reihung":false},"auslastung":{"first":1,"second":1}},{"station":{"evaNumber":"8010382","name":"Wittenberge","coordinates":{"lng":11.762898,"lat":53.003339},"ril100":"WW"},"arrival":{"platform":"3","scheduledTime":"2023-10-18T16:00:00.000Z","time":"2023-10-18T16:00:00.000Z","reihung":false},"departure":{"platform":"3","scheduledTime":"2023-10-18T16:01:00.000Z","time":"2023-10-18T16:01:00.000Z","reihung":false},"auslastung":{"first":1,"second":1}},{"station":{"evaNumber":"8010404","name":"Berlin-Spandau","coordinates":{"lng":13.200947,"lat":52.533787},"ril100":"BSPD"},"arrival":{"platform":"5","scheduledTime":"2023-10-18T16:44:00.000Z","time":"2023-10-18T16:44:00.000Z","reihung":false},"departure":{"platform":"5","scheduledTime":"2023-10-18T16:46:00.000Z","time":"2023-10-18T16:46:00.000Z","reihung":false}},{"station":{"evaNumber":"8098160","name":"Berlin Hbf (tief)","coordinates":{"lng":13.368892,"lat":52.52585},"ril100":"BL"},"arrival":{"platform":"1","scheduledTime":"2023-10-18T16:55:00.000Z","time":"2023-10-18T16:55:00.000Z","reihung":false},"departure":{"platform":"1","scheduledTime":"2023-10-18T17:01:00.000Z","time":"2023-10-18T17:01:00.000Z","reihung":false}},{"station":{"evaNumber":"8011113","name":"Berlin Südkreuz","coordinates":{"lng":13.365863,"lat":52.47623},"ril100":"BPAF"},"arrival":{"platform":"4","scheduledTime":"2023-10-18T17:06:00.000Z","time":"2023-10-18T17:06:00.000Z","reihung":false},"departure":{"platform":"4","scheduledTime":"2023-10-18T17:08:00.000Z","time":"2023-10-18T17:08:00.000Z","reihung":false},"auslastung":{"first":1,"second":1}},{"station":{"evaNumber":"8010089","name":"Dresden-Neustadt","coordinates":{"lng":13.740524,"lat":51.065912},"ril100":"DN"},"arrival":{"platform":"8","scheduledTime":"2023-10-18T19:01:00.000Z","time":"2023-10-18T19:01:00.000Z","reihung":false}},{"station":{"evaNumber":"8010085","name":"Dresden Hbf","coordinates":{"lng":13.731409,"lat":51.040221},"ril100":"DH"},"arrival":{"platform":"1a","scheduledTime":"2023-10-18T19:12:00.000Z","time":"2023-10-18T19:12:00.000Z","reihung":false}}],"finalDestination":"Dresden Hbf","jid":"1|211388|0|80|18102023","auslastung":{"first":1,"second":1},"messages":[{"type":"A","code":"CK","prio":200,"icoX":3,"txtN":"Sicher & kontaktlos ohne Ticketkontrolle reisen mit Komfort Check-in"},{"type":"A","code":"BR","prio":450,"icoX":6,"txtN":"Bordrestaurant"}],"type":"JNY"}],"segmentTypes":["ICE"]}]}