{"context":{"earlier":"3|OB|MT#14#451584#451584#452033#452033#0#0#565#451576#1#0#27#0#0#-2147483648#1#2|PDH#bbe10b32f5270e429a5a473728022d1b|RD#18102023|RT#141653|US#0|RS#INIT","later":"3|OF|MT#14#451704#451704#452144#452153#0#0#565#451645#9#0#3#0#0#-2147483648#1#2|PDH#bbe10b32f5270e429a5a473728022d1b|RD#18102023|RT#141653|US#0|RS#INIT"},"routes":[{"checksum":"a6c2b468_3","cid":"C-0","date":"2023-10-17T22:00:00.000Z","duration":26940000,"changes":2,"isRideable":true,"arrival":{"platform":"1","scheduledTime":"2023-10-18T19:53:00.000Z","time":"2023-10-18T19:53:00.000Z","reihung":false},"departure":{"platform":"14","scheduledTime":"2023-10-18T12:24:00.000Z","time":"2023-10-18T12:24:00.000Z","reihung":false},"segments":[{"arrival":{"platform":"4","scheduledTime":"2023-10-18T17:27:00.000Z","time":"2023-10-18T17:27:00.000Z","reihung":false},"departure":{"platform":"14","scheduledTime":"2023-10-18T12:24:00.000Z","time":"2023-10-18T12:24:00.000Z","reihung":false},"duration":18180000,"train":{"name":"ICE 375","line":"12","admin":"80","number":"375","type":"ICE","operator":{"name":"DB Fernverkehr AG","icoX":1}},"changeDuration":32,"segmentStart":{"name":"Hamburg Hbf","evaNumber":"8002549"},"segmentDestination":{"name":"Mannheim Hbf","evaNumber":"8000244"},"stops":[{"station":{"evaNumber":"8002549","name":"Hamburg Hbf","coordinates":{"lng":10.00636,"lat":53.553533},"ril100":"AH"},"departure":{"platform":"14","scheduledTime":"2023-10-18T12:24:00.000Z","time":"2023-10-18T12:24:00.000Z","reihung":false}},{"station":{"evaNumber":"8000147","name":"Hamburg-Harburg","coordinates":{"lng":9.991591,"lat":53.456198},"ril100":"AHAR"},"arrival":{"platform":"4","scheduledTime":"2023-10-18T12:33:00.000Z","time":"2023-10-18T12:33:00.000Z","reihung":false},"departure":{"platform":"4","scheduledTime":"2023-10-18T12:35:00.000Z","time":"2023-10-18T12:35:00.000Z","reihung":false},"auslastung":{"first":1,"second":1}},{"station":{"evaNumber":"8000152","name":"Hannover Hbf","coordinates":{"lng":9.741763,"lat":52.377079},"ril100":"HH"},"arrival":{"platform":"3","scheduledTime":"2023-10-18T13:38:00.000Z","time":"2023-10-18T13:38:00.000Z","reihung":false},"departure":{"platform":"3","scheduledTime":"2023-10-18T13:41:00.000Z","time":"2023-10-18T13:41:00.000Z","reihung":false},"auslastung":{"first":1,"second":1}},{"station":{"evaNumber":"8000128","name":"Göttingen","coordinates":{"lng":9.926257,"lat":51.536758},"ril100":"HG"},"arrival":{"platform":"10","scheduledTime":"2023-10-18T14:15:00.000Z","time":"2023-10-18T14:15:00.000Z","reihung":false},"departure":{"platform":"10","scheduledTime":"2023-10-18T14:16:00.000Z","time":"2023-10-18T14:16:00.000Z","reihung":false},"auslastung":{"first":1,"second":1}},{"station":{"evaNumber":"8003200","name":"Kassel-Wilhelmshöhe","coordinates":{"lng":9.446845,"lat":51.312998},"ril100":"FKW"},"arrival":{"platform":"2","scheduledTime":"2023-10-18T14:35:00.000Z","time":"2023-10-18T14:35:00.000Z","reihung":false},"departure":{"platform":"2","scheduledTime":"2023-10-18T14:37:00.000Z","time":"2023-10-18T14:37:00.000Z","reihung":false},"auslastung":{"first":1,"second":1}},{"station":{"evaNumber":"8000115","name":"Fulda","coordinates":{"lng":9.684178,"lat":50.554794},"ril100":"FFU"},"arrival":{"platform":"4","scheduledTime":"2023-10-18T15:46:00.000Z","time":"2023-10-18T15:46:00.000Z","reihung":false},"departure":{"platform":"4","scheduledTime":"2023-10-18T15:48:00.000Z","time":"2023-10-18T15:48:00.000Z","reihung":false},"auslastung":{"first":2,"second":1}},{"station":{"evaNumber":"8000150","name":"Hanau Hbf","coordinates":{"lng":8.92921,"lat":50.120903},"ril100":"FH"},"arrival":{"platform":"6","scheduledTime":"2023-10-18T16:26:00.000Z","time":"2023-10-18T16:26:00.000Z","reihung":false},"departure":{"platform":"6","scheduledTime":"2023-10-18T16:28:00.000Z","time":"2023-10-18T16:28:00.000Z","reihung":false},"auslastung":{"first":2,"second":1}},{"station":{"evaNumber":"8000105","name":"Frankfurt(Main)Hbf","coordinates":{"lng":8.663003,"lat":50.106817},"ril100":"FF"},"arrival":{"platform":"9","scheduledTime":"2023-10-18T16:44:00.000Z","time":"2023-10-18T16:44:00.000Z","reihung":false},"departure":{"platform":"9","scheduledTime":"2023-10-18T16:50:00.000Z","time":"2023-10-18T16:50:00.000Z","reihung":false},"auslastung":{"first":1,"second":2}},{"station":{"evaNumber":"8000244","name":"Mannheim Hbf","coordinates":{"lng":8.469268,"lat":49.479181},"ril100":"RM"},"arrival":{"platform":"4","scheduledTime":"2023-10-18T17:27:00.000Z","time":"2023-10-18T17:27:00.000Z","reihung":false}}],"finalDestination":"Basel SBB","jid":"1|204555|0|80|18102023","auslastung":{"first":2,"second":2},"messages":[{"type":"A","code":"CK","prio":200,"icoX":3,"txtN":"Sicher & kontaktlos ohne Ticketkontrolle reisen mit Komfort Check-in"},{"type":"A","code":"FR","prio":260,"icoX":4,"txtN":"Fahrradmitnahme reservierungspflichtig"},{"type":"A","code":"FB","prio":260,"icoX":5,"txtN":"Fahrradmitnahme begrenzt möglich"},{"type":"A","code":"BR","prio":450,"icoX":6,"txtN":"Bordrestaurant"},{"type":"A","code":"EH","prio":560,"icoX":3,"txtN":"Fahrzeuggebundene Einstiegshilfe vorhanden"}],"type":"JNY"},{"arrival":{"platform":"15","scheduledTime":"2023-10-18T18:38:00.000Z","time":"2023-10-18T18:38:00.000Z","reihung":false},"departure":{"platform":"5","scheduledTime":"2023-10-18T17:59:00.000Z","time":"2023-10-18T17:59:00.000Z","reihung":false},"duration":2340000,"train":{"name":"ICE 771","line":"22","admin":"80","number":"771","type":"ICE","operator":{"name":"DB Fernverkehr AG","icoX":1}},"changeDuration":16,"segmentStart":{"name":"Mannheim Hbf","evaNumber":"8000244"},"segmentDestination":{"name":"Stuttgart Hbf","evaNumber":"8000096"},"stops":[{"station":{"evaNumber":"8000244","name":"Mannheim Hbf","coordinates":{"lng":8.469268,"lat":49.479181},"ril100":"RM"},"departure":{"platform":"5","scheduledTime":"2023-10-18T17:59:00.000Z","time":"2023-10-18T17:59:00.000Z","reihung":false},"auslastung":{"first":1,"second":1}},{"station":{"evaNumber":"8000096","name":"Stuttgart Hbf","coordinates":{"lng":9.182589,"lat":48.785052},"ril100":"TS"},"arrival":{"platform":"15","scheduledTime":"2023-10-18T18:38:00.000Z","time":"2023-10-18T18:38:00.000Z","reihung":false}}],"finalDestination":"Stuttgart Hbf","jid":"1|209870|0|80|18102023","auslastung":{"first":1,"second":1},"messages":[{"type":"A","code":"CK","prio":200,"icoX":3,"txtN":"Sicher & kontaktlos ohne Ticketkontrolle reisen mit Komfort Check-in"},{"type":"A","code":"FR","prio":260,"icoX":4,"txtN":"Fahrradmitnahme reservierungspflichtig"},{"type":"A","code":"FB","prio":260,"icoX":5,"txtN":"Fahrradmitnahme begrenzt möglich"},{"type":"A","code":"BR","prio":450,"icoX":6,"txtN":"Bordrestaurant"},{"type":"A","code":"EH","prio":560,"icoX":3,"txtN":"Fahrzeuggebundene Einstiegshilfe vorhanden"}],"type":"JNY"},{"arrival":{"platform":"1","scheduledTime":"2023-10-18T19:53:00.000Z","time":"2023-10-18T19:53:00.000Z","reihung":false},"departure":{"platform":"14","scheduledTime":"2023-10-18T18:54:00.000Z","time":"2023-10-18T18:54:00.000Z","reihung":false},"duration":3540000,"train":{"name":"MEX 12","line":"12","admin":"SBSMEX","number":"19349","type":"MEX","operator":{"name":"SWEG Bahn Stuttgart GmbH","icoX":8}},"segmentStart":{"name":"Stuttgart Hbf","evaNumber":"8000096"},"segmentDestination":{"name":"Tübingen Hbf","evaNumber":"8000141"},"stops":[{"station":{"evaNumber":"8000096","name":"Stuttgart Hbf","coordinates":{"lng":9.182589,"lat":48.785052},"ril100":"TS"},"departure":{"platform":"14","scheduledTime":"2023-10-18T18:54:00.000Z","time":"2023-10-18T18:54:00.000Z","reihung":false}},{"station":{"evaNumber":"8005769","name":"Stuttgart-Bad Cannstatt","coordinates":{"lng":9.217512,"lat":48.801295},"ril100":"TSC"},"arrival":{"platform":"8","scheduledTime":"2023-10-18T18:57:00.000Z","time":"2023-10-18T18:57:00.000Z","reihung":false},"departure":{"platform":"8","scheduledTime":"2023-10-18T18:58:00.000Z","time":"2023-10-18T18:58:00.000Z","reihung":false}},{"station":{"evaNumber":"8001920","name":"Esslingen(Neckar)","coordinates":{"lng":9.299952,"lat":48.738695},"ril100":"TE"},"arrival":{"platform":"6","scheduledTime":"2023-10-18T19:04:00.000Z","time":"2023-10-18T19:04:00.000Z","reihung":false},"departure":{"platform":"6","scheduledTime":"2023-10-18T19:05:00.000Z","time":"2023-10-18T19:05:00.000Z","reihung":false}},{"station":{"evaNumber":"8000302","name":"Plochingen","coordinates":{"lng":9.411113,"lat":48.712869},"ril100":"TP"},"arrival":{"platform":"9","scheduledTime":"2023-10-18T19:11:00.000Z","time":"2023-10-18T19:11:00.000Z","reihung":false},"departure":{"platform":"9","scheduledTime":"2023-10-18T19:12:00.000Z","time":"2023-10-18T19:12:00.000Z","reihung":false}},{"station":{"evaNumber":"8006331","name":"Wendlingen(Neckar)","coordinates":{"lng":9.373187,"lat":48.672588},"ril100":"TWD"},"arrival":{"platform":"2","scheduledTime":"2023-10-18T19:18:00.000Z","time":"2023-10-18T19:18:00.000Z","reihung":false},"departure":{"platform":"2","scheduledTime":"2023-10-18T19:18:00.000Z","time":"2023-10-18T19:18:00.000Z","reihung":false}},{"station":{"evaNumber":"8004517","name":"Oberboihingen","coordinates":{"lng":9.364279,"lat":48.647921},"ril100":"TOBB"},"arrival":{"platform":"2","scheduledTime":"2023-10-18T19:21:00.000Z","time":"2023-10-18T19:21:00.000Z","reihung":false},"departure":{"platform":"2","scheduledTime":"2023-10-18T19:21:00.000Z","time":"2023-10-18T19:21:00.000Z","reihung":false}},{"station":{"evaNumber":"8004488","name":"Nürtingen","coordinates":{"lng":9.342678,"lat":48.628082},"ril100":"TNU"},"arrival":{"platform":"1","scheduledTime":"2023-10-18T19:24:00.000Z","time":"2023-10-18T19:24:00.000Z","reihung":false},"departure":{"platform":"1","scheduledTime":"2023-10-18T19:24:00.000Z","time":"2023-10-18T19:24:00.000Z","reihung":false}},{"station":{"evaNumber":"8000865","name":"Bempflingen","coordinates":{"lng":9.273434,"lat":48.572583},"ril100":"TBEM"},"arrival":{"platform":"1","scheduledTime":"2023-10-18T19:31:00.000Z","time":"2023-10-18T19:31:00.000Z","reihung":false},"departure":{"platform":"1","scheduledTime":"2023-10-18T19:31:00.000Z","time":"2023-10-18T19:31:00.000Z","reihung":false}},{"station":{"evaNumber":"8004009","name":"Metzingen(Württ)","coordinates":{"lng":9.290127,"lat":48.539754},"ril100":"TME"},"arrival":{"platform":"2","scheduledTime":"2023-10-18T19:34:00.000Z","time":"2023-10-18T19:34:00.000Z","reihung":false},"departure":{"platform":"2","scheduledTime":"2023-10-18T19:35:00.000Z","time":"2023-10-18T19:35:00.000Z","reihung":false}},{"station":{"evaNumber":"8000314","name":"Reutlingen Hbf","coordinates":{"lng":9.209188,"lat":48.496049},"ril100":"TRE"},"arrival":{"platform":"2","scheduledTime":"2023-10-18T19:41:00.000Z","time":"2023-10-18T19:41:00.000Z","reihung":false},"departure":{"platform":"2","scheduledTime":"2023-10-18T19:42:00.000Z","time":"2023-10-18T19:42:00.000Z","reihung":false}},{"station":{"evaNumber":"8000141","name":"Tübingen Hbf","coordinates":{"lng":9.056003,"lat":48.515663},"ril100":"TT"},"arrival":{"platform":"1","scheduledTime":"2023-10-18T19:53:00.000Z","time":"2023-10-18T19:53:00.000Z","reihung":false}}],"finalDestination":"Tübingen Hbf","jid":"1|1119278|0|80|18102023","messages":[{"type":"A","code":"FB","prio":260,"icoX":5,"txtN":"Fahrradmitnahme begrenzt möglich"},{"type":"A","code":"EH","prio":560,"icoX":3,"txtN":"Fahrzeuggebundene Einstiegshilfe vorhanden"},{"type":"A","code":"EA","prio":560,"icoX":3,"txtN":"Behindertengerechte Ausstattung"},{"type":"A","code":"KL","prio":610,"icoX":3,"txtN":"Klimaanlage"}],"type":"JNY"}],"segmentTypes":["ICE","ICE","MEX"]},{"checksum":"fc722c5a_3","cid":"C-1","date":"2023-10-17T22:00:00.000Z","duration":29820000,"changes":3,"isRideable":true,"arrival":{"platform":"1","scheduledTime":"2023-10-18T20:44:00.000Z","time":"2023-10-18T20:44:00.000Z","reihung":false},"departure":{"platform":"11","scheduledTime":"2023-10-18T12:27:00.000Z","time":"2023-10-18T12:27:00.000Z","reihung":false},"segments":[{"arrival":{"platform":"10","scheduledTime":"2023-10-18T17:35:00.000Z","time":"2023-10-18T17:35:00.000Z","reihung":false},"departure":{"platform":"11","scheduledTime":"2023-10-18T12:27:00.000Z","time":"2023-10-18T12:27:00.000Z","reihung":false},"duration":18480000,"train":{"name":"IC 2375","line":"26","admin":"80","number":"2375","type":"IC","operator":{"name":"DB Fernverkehr AG","icoX":1}},"changeDuration":19,"segmentStart":{"name":"Hamburg Hbf","evaNumber":"8002549"},"segmentDestination":{"name":"Darmstadt Hbf","evaNumber":"8000068"},"stops":[{"station":{"evaNumber":"8002549","name":"Hamburg Hbf","coordinates":{"lng":10.00636,"lat":53.553533},"ril100":"AH"},"departure":{"platform":"11","scheduledTime":"2023-10-18T12:27:00.000Z","time":"2023-10-18T12:27:00.000Z","reihung":false}},{"station":{"evaNumber":"8000147","name":"Hamburg-Harburg","coordinates":{"lng":9.991591,"lat":53.456198},"ril100":"AHAR"},"arrival":{"platform":"4","scheduledTime":"2023-10-18T12:37:00.000Z","time":"2023-10-18T12:37:00.000Z","reihung":false},"departure":{"platform":"4","scheduledTime":"2023-10-18T12:39:00.000Z","time":"2023-10-18T12:39:00.000Z","reihung":false},"auslastung":{"first":2,"second":1}},{"station":{"evaNumber":"8000238","name":"Lüneburg","coordinates":{"lng":10.419873,"lat":53.249742},"ril100":"ALBG"},"arrival":{"platform":"1","scheduledTime":"2023-10-18T12:56:00.000Z","time":"2023-10-18T12:56:00.000Z","reihung":false},"departure":{"platform":"1","scheduledTime":"2023-10-18T12:58:00.000Z","time":"2023-10-18T12:58:00.000Z","reihung":false},"auslastung":{"first":2,"second":1}},{"station":{"evaNumber":"8000168","name":"Uelzen","coordinates":{"lng":10.553246,"lat":52.96998},"ril100":"HU"},"arrival":{"platform":"101","scheduledTime":"2023-10-18T13:13:00.000Z","time":"2023-10-18T13:13:00.000Z","reihung":false},"departure":{"platform":"101","scheduledTime":"2023-10-18T13:15:00.000Z","time":"2023-10-18T13:15:00.000Z","reihung":false},"auslastung":{"first":3,"second":1}},{"station":{"evaNumber":"8000064","name":"Celle","coordinates":{"lng":10.062651,"lat":52.621019},"ril100":"HC"},"arrival":{"platform":"6","scheduledTime":"2023-10-18T13:37:00.000Z","time":"2023-10-18T13:37:00.000Z","reihung":false},"departure":{"platform":"6","scheduledTime":"2023-10-18T13:38:00.000Z","time":"2023-10-18T13:38:00.000Z","reihung":false},"auslastung":{"first":3,"second":1}},{"station":{"evaNumber":"8000152","name":"Hannover Hbf","coordinates":{"lng":9.741763,"lat":52.377079},"ril100":"HH"},"arrival":{"platform":"4","scheduledTime":"2023-10-18T13:58:00.000Z","time":"2023-10-18T13:58:00.000Z","reihung":false},"departure":{"platform":"4","scheduledTime":"2023-10-18T14:01:00.000Z","time":"2023-10-18T14:01:00.000Z","reihung":false},"auslastung":{"first":2,"second":1}},{"station":{"evaNumber":"8000128","name":"Göttingen","coordinates":{"lng":9.926257,"lat":51.536758},"ril100":"HG"},"arrival":{"platform":"10","scheduledTime":"2023-10-18T14:39:00.000Z","time":"2023-10-18T14:39:00.000Z","reihung":false},"departure":{"platform":"10","scheduledTime":"2023-10-18T14:40:00.000Z","time":"2023-10-18T14:40:00.000Z","reihung":false},"auslastung":{"first":2,"second":1}},{"station":{"evaNumber":"8003200","name":"Kassel-Wilhelmshöhe","coordinates":{"lng":9.446845,"lat":51.312998},"ril100":"FKW"},"arrival":{"platform":"2","scheduledTime":"2023-10-18T15:01:00.000Z","time":"2023-10-18T15:01:00.000Z","reihung":false},"departure":{"platform":"2","scheduledTime":"2023-10-18T15:03:00.000Z","time":"2023-10-18T15:03:00.000Z","reihung":false},"auslastung":{"first":2,"second":1}},{"station":{"evaNumber":"8000368","name":"Wabern(Bz Kassel)","coordinates":{"lng":9.358274,"lat":51.103073},"ril100":"FWAB"},"arrival":{"platform":"4","scheduledTime":"2023-10-18T15:21:00.000Z","time":"2023-10-18T15:21:00.000Z","reihung":false},"departure":{"platform":"4","scheduledTime":"2023-10-18T15:22:00.000Z","time":"2023-10-18T15:22:00.000Z","reihung":false},"auslastung":{"first":2,"second":1}},{"station":{"evaNumber":"8000129","name":"Treysa","coordinates":{"lng":9.185807,"lat":50.910632},"ril100":"FTS"},"arrival":{"platform":"1","scheduledTime":"2023-10-18T15:38:00.000Z","time":"2023-10-18T15:38:00.000Z","reihung":false},"departure":{"platform":"1","scheduledTime":"2023-10-18T15:39:00.000Z","time":"2023-10-18T15:39:00.000Z","reihung":false},"auslastung":{"first":2,"second":1}},{"station":{"evaNumber":"8000337","name":"Marburg(Lahn)","coordinates":{"lng":8.775081,"lat":50.819275},"ril100":"FMBG"},"arrival":{"platform":"4","scheduledTime":"2023-10-18T16:04:00.000Z","time":"2023-10-18T16:04:00.000Z","reihung":false},"departure":{"platform":"4","scheduledTime":"2023-10-18T16:05:00.000Z","time":"2023-10-18T16:05:00.000Z","reihung":false},"auslastung":{"first":2,"second":1}},{"station":{"evaNumber":"8000124","name":"Gießen","coordinates":{"lng":8.662842,"lat":50.579371},"ril100":"FG"},"arrival":{"platform":"3","scheduledTime":"2023-10-18T16:22:00.000Z","time":"2023-10-18T16:22:00.000Z","reihung":false},"departure":{"platform":"3","scheduledTime":"2023-10-18T16:23:00.000Z","time":"2023-10-18T16:23:00.000Z","reihung":false},"auslastung":{"first":2,"second":1}},{"station":{"evaNumber":"8000111","name":"Friedberg(Hess)","coordinates":{"lng":8.761327,"lat":50.332842},"ril100":"FFG"},"arrival":{"platform":"2","scheduledTime":"2023-10-18T16:41:00.000Z","time":"2023-10-18T16:41:00.000Z","reihung":false},"departure":{"platform":"2","scheduledTime":"2023-10-18T16:42:00.000Z","time":"2023-10-18T16:42:00.000Z","reihung":false},"auslastung":{"first":1,"second":1}},{"station":{"evaNumber":"8000105","name":"Frankfurt(Main)Hbf","coordinates":{"lng":8.663003,"lat":50.106817},"ril100":"FF"},"arrival":{"platform":"13","scheduledTime":"2023-10-18T17:09:00.000Z","time":"2023-10-18T17:09:00.000Z","reihung":false},"departure":{"platform":"13","scheduledTime":"2023-10-18T17:20:00.000Z","time":"2023-10-18T17:20:00.000Z","reihung":false},"auslastung":{"first":2,"second":1}},{"station":{"evaNumber":"8000068","name":"Darmstadt Hbf","coordinates":{"lng":8.629707,"lat":49.872549},"ril100":"FD"},"arrival":{"platform":"10","scheduledTime":"2023-10-18T17:35:00.000Z","time":"2023-10-18T17:35:00.000Z","reihung":false}}],"finalDestination":"Karlsruhe Hbf","jid":"1|202961|0|80|18102023","auslastung":{"first":3,"second":1},"messages":[{"type":"A","code":"CK","prio":200,"icoX":3,"txtN":"Sicher & kontaktlos ohne Ticketkontrolle reisen mit Komfort Check-in"},{"type":"A","code":"FR","prio":260,"icoX":4,"txtN":"Fahrradmitnahme reservierungspflichtig"},{"type":"A","code":"FB","prio":260,"icoX":5,"txtN":"Fahrradmitnahme begrenzt möglich"}],"type":"JNY"},{"arrival":{"platform":"15","scheduledTime":"2023-10-18T19:19:00.000Z","time":"2023-10-18T19:19:00.000Z","reihung":false},"departure":{"platform":"10","scheduledTime":"2023-10-18T17:54:00.000Z","time":"2023-10-18T17:54:00.000Z","reihung":false},"duration":5100000,"train":{"name":"FLX 1247","line":"10","admin":"FLX10","number":"1247","type":"FLX","operator":{"name":"FlixTrain","icoX":13}},"changeDuration":16,"segmentStart":{"name":"Darmstadt Hbf","evaNumber":"8000068"},"segmentDestination":{"name":"Stuttgart Hbf","evaNumber":"8000096"},"stops":[{"station":{"evaNumber":"8000068","name":"Darmstadt Hbf","coordinates":{"lng":8.629707,"lat":49.872549},"ril100":"FD"},"departure":{"platform":"10","scheduledTime":"2023-10-18T17:54:00.000Z","time":"2023-10-18T17:54:00.000Z","reihung":false}},{"station":{"evaNumber":"8000156","name":"Heidelberg Hbf","coordinates":{"lng":8.67548,"lat":49.403582},"ril100":"RH"},"arrival":{"platform":"8","scheduledTime":"2023-10-18T18:33:00.000Z","time":"2023-10-18T18:33:00.000Z","reihung":false},"departure":{"platform":"8","scheduledTime":"2023-10-18T18:35:00.000Z","time":"2023-10-18T18:35:00.000Z","reihung":false}},{"station":{"evaNumber":"8000096","name":"Stuttgart Hbf","coordinates":{"lng":9.182589,"lat":48.785052},"ril100":"TS"},"arrival":{"platform":"15","scheduledTime":"2023-10-18T19:19:00.000Z","time":"2023-10-18T19:19:00.000Z","reihung":false}}],"finalDestination":"Stuttgart Hbf","jid":"1|286358|0|80|18102023","messages":[{"type":"A","code":"DU","prio":110,"icoX":3,"txtN":"DB-Fahrscheine gelten nicht"},{"type":"A","code":"RP","prio":185,"icoX":14,"txtN":"Reservierungspflicht"},{"type":"A","code":"9N","prio":186,"icoX":3,"txtN":"Deutschland-Ticket nicht gültig"},{"type":"A","code":"FN","prio":555,"icoX":3,"txtN":"Einstieg nur mit gültigem FlixTrain- oder FlixBus Ticket"},{"type":"A","code":"FX","prio":560,"icoX":3,"txtN":"Tickets unter www.flixtrain.de"},{"type":"A","code":"FG","prio":603,"icoX":3,"txtN":"Sitzplatzgarantie"},{"type":"A","code":"LS","prio":605,"icoX":3,"txtN":"Laptop-Steckdosen"},{"type":"A","code":"WV","prio":710,"icoX":3,"txtN":"WLAN verfügbar"}],"type":"JNY"},{"type":"WALK","train":{"name":"Fußweg","type":"Fußweg"},"arrival":{"scheduledTime":"2023-10-18T19:33:00.000Z","time":"2023-10-18T19:33:00.000Z","reihung":false},"departure":{"scheduledTime":"2023-10-18T19:19:00.000Z","time":"2023-10-18T19:19:00.000Z","reihung":false},"duration":840000,"segmentStart":{"evaNumber":"8000096","name":"Stuttgart Hbf","coordinates":{"lng":9.182589,"lat":48.785052},"ril100":"TS"},"segmentDestination":{"evaNumber":"8098096","name":"Stuttgart Hbf (tief)","coordinates":{"lng":9.179811,"lat":48.783002},"ril100":"TS  T"}},{"arrival":{"platform":"3","scheduledTime":"2023-10-18T20:14:00.000Z","time":"2023-10-18T20:14:00.000Z","reihung":false},"departure":{"platform":"101","scheduledTime":"2023-10-18T19:35:00.000Z","time":"2023-10-18T19:35:00.000Z","reihung":false},"duration":2340000,"train":{"name":"S 1","line":"1","admin":"800643","number":"7167","type":"S","operator":{"name":"DB Regio AG S-Bahn Stuttgart","icoX":17}},"changeDuration":4,"segmentStart":{"name":"Stuttgart Hbf (tief)","evaNumber":"8098096"},"segmentDestination":{"name":"Herrenberg","evaNumber":"8002785"},"stops":[{"station":{"evaNumber":"8098096","name":"Stuttgart Hbf (tief)","coordinates":{"lng":9.179811,"lat":48.783002},"ril100":"TS  T"},"departure":{"platform":"101","scheduledTime":"2023-10-18T19:35:00.000Z","time":"2023-10-18T19:35:00.000Z","reihung":false}},{"station":{"evaNumber":"8006700","name":"Stuttgart Stadtmitte","coordinates":{"lng":9.172881,"lat":48.77635},"ril100":"TSMI"},"arrival":{"platform":"1","scheduledTime":"2023-10-18T19:37:00.000Z","time":"2023-10-18T19:37:00.000Z","reihung":false},"departure":{"platform":"1","scheduledTime":"2023-10-18T19:37:00.000Z","time":"2023-10-18T19:37:00.000Z","reihung":false}},{"station":{"evaNumber":"8006699","name":"Stuttgart Feuersee","coordinates":{"lng":9.165743,"lat":48.772647},"ril100":"TSFS"},"arrival":{"platform":"1","scheduledTime":"2023-10-18T19:38:00.000Z","time":"2023-10-18T19:38:00.000Z","reihung":false},"departure":{"platform":"1","scheduledTime":"2023-10-18T19:39:00.000Z","time":"2023-10-18T19:39:00.000Z","reihung":false}},{"station":{"evaNumber":"8006698","name":"Stuttgart Schwabstr.","coordinates":{"lng":9.156574,"lat":48.770193},"ril100":"TSS"},"arrival":{"platform":"1","scheduledTime":"2023-10-18T19:40:00.000Z","time":"2023-10-18T19:40:00.000Z","reihung":false},"departure":{"platform":"1","scheduledTime":"2023-10-18T19:40:00.000Z","time":"2023-10-18T19:40:00.000Z","reihung":false}},{"station":{"evaNumber":"8006513","name":"Stuttgart Universität","coordinates":{"lng":9.105839,"lat":48.745131},"ril100":"TSUN"},"arrival":{"platform":"1","scheduledTime":"2023-10-18T19:45:00.000Z","time":"2023-10-18T19:45:00.000Z","reihung":false},"departure":{"platform":"1","scheduledTime":"2023-10-18T19:45:00.000Z","time":"2023-10-18T19:45:00.000Z","reihung":false}},{"station":{"evaNumber":"8005779","name":"Stuttgart-Österfeld","coordinates":{"lng":9.116527,"lat":48.737553},"ril100":"TSOS"},"arrival":{"platform":"1","scheduledTime":"2023-10-18T19:47:00.000Z","time":"2023-10-18T19:47:00.000Z","reihung":false},"departure":{"platform":"1","scheduledTime":"2023-10-18T19:47:00.000Z","time":"2023-10-18T19:47:00.000Z","reihung":false}},{"station":{"evaNumber":"8005776","name":"Stuttgart-Vaihingen","coordinates":{"lng":9.113327,"lat":48.726604},"ril100":"TSV"},"arrival":{"platform":"1","scheduledTime":"2023-10-18T19:49:00.000Z","time":"2023-10-18T19:49:00.000Z","reihung":false},"departure":{"platform":"1","scheduledTime":"2023-10-18T19:50:00.000Z","time":"2023-10-18T19:50:00.000Z","reihung":false}},{"station":{"evaNumber":"8005773","name":"Stuttgart-Rohr","coordinates":{"lng":9.108131,"lat":48.717992},"ril100":"TSRO"},"arrival":{"platform":"2","scheduledTime":"2023-10-18T19:51:00.000Z","time":"2023-10-18T19:51:00.000Z","reihung":false},"departure":{"platform":"2","scheduledTime":"2023-10-18T19:52:00.000Z","time":"2023-10-18T19:52:00.000Z","reihung":false}},{"station":{"evaNumber":"8005201","name":"Goldberg(Württ)","coordinates":{"lng":9.019686,"lat":48.69649},"ril100":"TGOL"},"arrival":{"platform":"1","scheduledTime":"2023-10-18T19:57:00.000Z","time":"2023-10-18T19:57:00.000Z","reihung":false},"departure":{"platform":"1","scheduledTime":"2023-10-18T19:57:00.000Z","time":"2023-10-18T19:57:00.000Z","reihung":false}},{"station":{"evaNumber":"8001055","name":"Böblingen","coordinates":{"lng":9.004432,"lat":48.687888},"ril100":"TBO"},"arrival":{"platform":"4","scheduledTime":"2023-10-18T19:59:00.000Z","time":"2023-10-18T19:59:00.000Z","reihung":false},"departure":{"platform":"4","scheduledTime":"2023-10-18T19:59:00.000Z","time":"2023-10-18T19:59:00.000Z","reihung":false}},{"station":{"evaNumber":"8003022","name":"Hulb","coordinates":{"lng":8.982651,"lat":48.679294}},"arrival":{"platform":"1","scheduledTime":"2023-10-18T20:01:00.000Z","time":"2023-10-18T20:01:00.000Z","reihung":false},"departure":{"platform":"1","scheduledTime":"2023-10-18T20:01:00.000Z","time":"2023-10-18T20:01:00.000Z","reihung":false}},{"station":{"evaNumber":"8001689","name":"Ehningen(b Böblingen)","coordinates":{"lng":8.944725,"lat":48.662978},"ril100":"TEHN"},"arrival":{"platform":"2","scheduledTime":"2023-10-18T20:04:00.000Z","time":"2023-10-18T20:04:00.000Z","reihung":false},"departure":{"platform":"2","scheduledTime":"2023-10-18T20:04:00.000Z","time":"2023-10-18T20:04:00.000Z","reihung":false}},{"station":{"evaNumber":"8002165","name":"Gärtringen","coordinates":{"lng":8.908993,"lat":48.64091},"ril100":"TGT"},"arrival":{"platform":"1","scheduledTime":"2023-10-18T20:07:00.000Z","time":"2023-10-18T20:07:00.000Z","reihung":false},"departure":{"platform":"1","scheduledTime":"2023-10-18T20:07:00.000Z","time":"2023-10-18T20:07:00.000Z","reihung":false}},{"station":{"evaNumber":"8004490","name":"Nufringen","coordinates":{"lng":8.889621,"lat":48.620055},"ril100":"TNUF"},"arrival":{"platform":"1","scheduledTime":"2023-10-18T20:10:00.000Z","time":"2023-10-18T20:10:00.000Z","reihung":false},"departure":{"platform":"1","scheduledTime":"2023-10-18T20:10:00.000Z","time":"2023-10-18T20:10:00.000Z","reihung":false}},{"station":{"evaNumber":"8002785","name":"Herrenberg","coordinates":{"lng":8.862861,"lat":48.594139},"ril100":"THE"},"arrival":{"platform":"3","scheduledTime":"2023-10-18T20:14:00.000Z","time":"2023-10-18T20:14:00.000Z","reihung":false}}],"finalDestination":"Herrenberg","jid":"1|262935|0|80|18102023","messages":[{"type":"A","code":"FB","prio":260,"icoX":5,"txtN":"Fahrradmitnahme begrenzt möglich"},{"type":"A","code":"ZB","prio":560,"icoX":3,"txtN":"Fahrzeuggebundene Einstiegshilfe am Zuganfang"},{"type":"M","code":"","icoX":18,"txtS":"S 1: Herrenberg: Information.","txtN":"Bis voraussichtlich Mitte Oktober 2023 erneuert die Deutsche Bahn in Herrenberg die Aufzüge. Während der Arbeiten stehen die Aufzüge leider nicht zur Verfügung. Die Deutsche Bahn empfiehlt mobilitätseingeschränkten Reisenden ihre Reise vorher (spätestens einen Werktag) bei der Mobilitätsservice-Zentrale (Telefon 030 65212888) anzumelden.","sIdx":3}],"type":"JNY"},{"arrival":{"platform":"1","scheduledTime":"2023-10-18T20:44:00.000Z","time":"2023-10-18T20:44:00.000Z","reihung":false},"departure":{"platform":"102","scheduledTime":"2023-10-18T20:18:00.000Z","time":"2023-10-18T20:18:00.000Z","reihung":false},"duration":1560000,"train":{"name":"RB 63","line":"63","admin":"8006D2","number":"22882","type":"RB","operator":{"name":"DB Regio AG Baden-Württemberg","icoX":20}},"segmentStart":{"name":"Herrenberg","evaNumber":"8002785"},"segmentDestination":{"name":"Tübingen Hbf","evaNumber":"8000141"},"stops":[{"station":{"evaNumber":"8002785","name":"Herrenberg","coordinates":{"lng":8.862861,"lat":48.594139},"ril100":"THE"},"departure":{"platform":"102","scheduledTime":"2023-10-18T20:18:00.000Z","time":"2023-10-18T20:18:00.000Z","reihung":false}},{"station":{"evaNumber":"8070604","name":"Gültstein","coordinates":{"lng":8.8819,"lat":48.57741}},"arrival":{"scheduledTime":"2023-10-18T20:22:00.000Z","time":"2023-10-18T20:22:00.000Z","reihung":false},"departure":{"scheduledTime":"2023-10-18T20:23:00.000Z","time":"2023-10-18T20:23:00.000Z","reihung":false}},{"station":{"evaNumber":"8070591","name":"Altingen(Württ)","coordinates":{"lng":8.908948,"lat":48.561958},"ril100":"TAG"},"arrival":{"scheduledTime":"2023-10-18T20:26:00.000Z","time":"2023-10-18T20:26:00.000Z","reihung":false},"departure":{"scheduledTime":"2023-10-18T20:27:00.000Z","time":"2023-10-18T20:27:00.000Z","reihung":false}},{"station":{"evaNumber":"8001802","name":"Entringen","coordinates":{"lng":8.962893,"lat":48.552132}},"arrival":{"scheduledTime":"2023-10-18T20:30:00.000Z","time":"2023-10-18T20:30:00.000Z","reihung":false},"departure":{"scheduledTime":"2023-10-18T20:31:00.000Z","time":"2023-10-18T20:31:00.000Z","reihung":false}},{"station":{"evaNumber":"8004778","name":"Pfäffingen","coordinates":{"lng":8.964556,"lat":48.532257},"ril100":"TPG"},"arrival":{"scheduledTime":"2023-10-18T20:33:00.000Z","time":"2023-10-18T20:33:00.000Z","reihung":false},"departure":{"scheduledTime":"2023-10-18T20:34:00.000Z","time":"2023-10-18T20:34:00.000Z","reihung":false}},{"station":{"evaNumber":"8006002","name":"Unterjesingen Mitte","coordinates":{"lng":8.98168,"lat":48.524697},"ril100":"TUJM"},"arrival":{"scheduledTime":"2023-10-18T20:36:00.000Z","time":"2023-10-18T20:36:00.000Z","reihung":false},"departure":{"scheduledTime":"2023-10-18T20:36:00.000Z","time":"2023-10-18T20:36:00.000Z","reihung":false}},{"station":{"evaNumber":"8006003","name":"Unterjesingen Sandäcker","coordinates":{"lng":8.98826,"lat":48.523304},"ril100":"TUJS"},"arrival":{"scheduledTime":"2023-10-18T20:38:00.000Z","time":"2023-10-18T20:38:00.000Z","reihung":false},"departure":{"scheduledTime":"2023-10-18T20:38:00.000Z","time":"2023-10-18T20:38:00.000Z","reihung":false}},{"station":{"evaNumber":"8005916","name":"Tübingen West","coordinates":{"lng":9.038168,"lat":48.520023},"ril100":"TTW"},"arrival":{"scheduledTime":"2023-10-18T20:41:00.000Z","time":"2023-10-18T20:41:00.000Z","reihung":false},"departure":{"scheduledTime":"2023-10-18T20:42:00.000Z","time":"2023-10-18T20:42:00.000Z","reihung":false}},{"station":{"evaNumber":"8000141","name":"Tübingen Hbf","coordinates":{"lng":9.056003,"lat":48.515663},"ril100":"TT"},"arrival":{"platform":"1","scheduledTime":"2023-10-18T20:44:00.000Z","time":"2023-10-18T20:44:00.000Z","reihung":false}}],"finalDestination":"Metzingen(Württ)","jid":"1|260866|0|80|18102023","messages":[{"type":"A","code":"FB","prio":260,"icoX":5,"txtN":"Fahrradmitnahme begrenzt möglich"},{"type":"A","code":"K2","prio":300,"icoX":21,"txtN":"nur 2. Klasse"},{"type":"A","code":"EH","prio":560,"icoX":3,"txtN":"Fahrzeuggebundene Einstiegshilfe vorhanden"}],"type":"JNY"}],"segmentTypes":["IC","FLX","Fußweg","S","RB"]},{"checksum":"bf1ba5d8_3","cid":"C-2","date":"2023-10-17T22:00:00.000Z","duration":30360000,"changes":2,"isRideable":true,"arrival":{"platform":"3","scheduledTime":"2023-10-18T20:53:00.000Z","time":"2023-10-18T20:53:00.000Z","reihung":false},"departure":{"platform":"11","scheduledTime":"2023-10-18T12:27:00.000Z","time":"2023-10-18T12:27:00.000Z","reihung":false},"segments":[{"arrival":{"platform":"10","scheduledTime":"2023-10-18T17:35:00.000Z","time":"2023-10-18T17:35:00.000Z","reihung":false},"departure":{"platform":"11","scheduledTime":"2023-10-18T12:27:00.000Z","time":"2023-10-18T12:27:00.000Z","reihung":false},"duration":18480000,"train":{"name":"IC 2375","line":"26","admin":"80","number":"2375","type":"IC","operator":{"name":"DB Fernverkehr AG","icoX":1}},"changeDuration":19,"segmentStart":{"name":"Hamburg Hbf","evaNumber":"8002549"},"segmentDestination":{"name":"Darmstadt Hbf","evaNumber":"8000068"},"stops":[{"station":{"evaNumber":"8002549","name":"Hamburg Hbf","coordinates":{"lng":10.00636,"lat":53.553533},"ril100":"AH"},"departure":{"platform":"11","scheduledTime":"2023-10-18T12:27:00.000Z","time":"2023-10-18T12:27:00.000Z","reihung":false}},{"station":{"evaNumber":"8000147","name":"Hamburg-Harburg","coordinates":{"lng":9.991591,"lat":53.456198},"ril100":"AHAR"},"arrival":{"platform":"4","scheduledTime":"2023-10-18T12:37:00.000Z","time":"2023-10-18T12:37:00.000Z","reihung":false},"departure":{"platform":"4","scheduledTime":"2023-10-18T12:39:00.000Z","time":"2023-10-18T12:39:00.000Z","reihung":false},"auslastung":{"first":2,"second":1}},{"station":{"evaNumber":"8000238","name":"Lüneburg","coordinates":{"lng":10.419873,"lat":53.249742},"ril100":"ALBG"},"arrival":{"platform":"1","scheduledTime":"2023-10-18T12:56:00.000Z","time":"2023-10-18T12:56:00.000Z","reihung":false},"departure":{"platform":"1","scheduledTime":"2023-10-18T12:58:00.000Z","time":"2023-10-18T12:58:00.000Z","reihung":false},"auslastung":{"first":2,"second":1}},{"station":{"evaNumber":"8000168","name":"Uelzen","coordinates":{"lng":10.553246,"lat":52.96998},"ril100":"HU"},"arrival":{"platform":"101","scheduledTime":"2023-10-18T13:13:00.000Z","time":"2023-10-18T13:13:00.000Z","reihung":false},"departure":{"platform":"101","scheduledTime":"2023-10-18T13:15:00.000Z","time":"2023-10-18T13:15:00.000Z","reihung":false},"auslastung":{"first":3,"second":1}},{"station":{"evaNumber":"8000064","name":"Celle","coordinates":{"lng":10.062651,"lat":52.621019},"ril100":"HC"},"arrival":{"platform":"6","scheduledTime":"2023-10-18T13:37:00.000Z","time":"2023-10-18T13:37:00.000Z","reihung":false},"departure":{"platform":"6","scheduledTime":"2023-10-18T13:38:00.000Z","time":"2023-10-18T13:38:00.000Z","reihung":false},"auslastung":{"first":3,"second":1}},{"station":{"evaNumber":"8000152","name":"Hannover Hbf","coordinates":{"lng":9.741763,"lat":52.377079},"ril100":"HH"},"arrival":{"platform":"4","scheduledTime":"2023-10-18T13:58:00.000Z","time":"2023-10-18T13:58:00.000Z","reihung":false},"departure":{"platform":"4","scheduledTime":"2023-10-18T14:01:00.000Z","time":"2023-10-18T14:01:00.000Z","reihung":false},"auslastung":{"first":2,"second":1}},{"station":{"evaNumber":"8000128","name":"Göttingen","coordinates":{"lng":9.926257,"lat":51.536758},"ril100":"HG"},"arrival":{"platform":"10","scheduledTime":"2023-10-18T14:39:00.000Z","time":"2023-10-18T14:39:00.000Z","reihung":false},"departure":{"platform":"10","scheduledTime":"2023-10-18T14:40:00.000Z","time":"2023-10-18T14:40:00.000Z","reihung":false},"auslastung":{"first":2,"second":1}},{"station":{"evaNumber":"8003200","name":"Kassel-Wilhelmshöhe","coordinates":{"lng":9.446845,"lat":51.312998},"ril100":"FKW"},"arrival":{"platform":"2","scheduledTime":"2023-10-18T15:01:00.000Z","time":"2023-10-18T15:01:00.000Z","reihung":false},"departure":{"platform":"2","scheduledTime":"2023-10-18T15:03:00.000Z","time":"2023-10-18T15:03:00.000Z","reihung":false},"auslastung":{"first":2,"second":1}},{"station":{"evaNumber":"8000368","name":"Wabern(Bz Kassel)","coordinates":{"lng":9.358274,"lat":51.103073},"ril100":"FWAB"},"arrival":{"platform":"4","scheduledTime":"2023-10-18T15:21:00.000Z","time":"2023-10-18T15:21:00.000Z","reihung":false},"departure":{"platform":"4","scheduledTime":"2023-10-18T15:22:00.000Z","time":"2023-10-18T15:22:00.000Z","reihung":false},"auslastung":{"first":2,"second":1}},{"station":{"evaNumber":"8000129","name":"Treysa","coordinates":{"lng":9.185807,"lat":50.910632},"ril100":"FTS"},"arrival":{"platform":"1","scheduledTime":"2023-10-18T15:38:00.000Z","time":"2023-10-18T15:38:00.000Z","reihung":false},"departure":{"platform":"1","scheduledTime":"2023-10-18T15:39:00.000Z","time":"2023-10-18T15:39:00.000Z","reihung":false},"auslastung":{"first":2,"second":1}},{"station":{"evaNumber":"8000337","name":"Marburg(Lahn)","coordinates":{"lng":8.775081,"lat":50.819275},"ril100":"FMBG"},"arrival":{"platform":"4","scheduledTime":"2023-10-18T16:04:00.000Z","time":"2023-10-18T16:04:00.000Z","reihung":false},"departure":{"platform":"4","scheduledTime":"2023-10-18T16:05:00.000Z","time":"2023-10-18T16:05:00.000Z","reihung":false},"auslastung":{"first":2,"second":1}},{"station":{"evaNumber":"8000124","name":"Gießen","coordinates":{"lng":8.662842,"lat":50.579371},"ril100":"FG"},"arrival":{"platform":"3","scheduledTime":"2023-10-18T16:22:00.000Z","time":"2023-10-18T16:22:00.000Z","reihung":false},"departure":{"platform":"3","scheduledTime":"2023-10-18T16:23:00.000Z","time":"2023-10-18T16:23:00.000Z","reihung":false},"auslastung":{"first":2,"second":1}},{"station":{"evaNumber":"8000111","name":"Friedberg(Hess)","coordinates":{"lng":8.761327,"lat":50.332842},"ril100":"FFG"},"arrival":{"platform":"2","scheduledTime":"2023-10-18T16:41:00.000Z","time":"2023-10-18T16:41:00.000Z","reihung":false},"departure":{"platform":"2","scheduledTime":"2023-10-18T16:42:00.000Z","time":"2023-10-18T16:42:00.000Z","reihung":false},"auslastung":{"first":1,"second":1}},{"station":{"evaNumber":"8000105","name":"Frankfurt(Main)Hbf","coordinates":{"lng":8.663003,"lat":50.106817},"ril100":"FF"},"arrival":{"platform":"13","scheduledTime":"2023-10-18T17:09:00.000Z","time":"2023-10-18T17:09:00.000Z","reihung":false},"departure":{"platform":"13","scheduledTime":"2023-10-18T17:20:00.000Z","time":"2023-10-18T17:20:00.000Z","reihung":false},"auslastung":{"first":2,"second":1}},{"station":{"evaNumber":"8000068","name":"Darmstadt Hbf","coordinates":{"lng":8.629707,"lat":49.872549},"ril100":"FD"},"arrival":{"platform":"10","scheduledTime":"2023-10-18T17:35:00.000Z","time":"2023-10-18T17:35:00.000Z","reihung":false}}],"finalDestination":"Karlsruhe Hbf","jid":"1|202961|0|80|18102023","auslastung":{"first":3,"second":1},"messages":[{"type":"A","code":"CK","prio":200,"icoX":3,"txtN":"Sicher & kontaktlos ohne Ticketkontrolle reisen mit Komfort Check-in"},{"type":"A","code":"FR","prio":260,"icoX":4,"txtN":"Fahrradmitnahme reservierungspflichtig"},{"type":"A","code":"FB","prio":260,"icoX":5,"txtN":"Fahrradmitnahme begrenzt möglich"}],"type":"JNY"},{"arrival":{"platform":"15","scheduledTime":"2023-10-18T19:19:00.000Z","time":"2023-10-18T19:19:00.000Z","reihung":false},"departure":{"platform":"10","scheduledTime":"2023-10-18T17:54:00.000Z","time":"2023-10-18T17:54:00.000Z","reihung":false},"duration":5100000,"train":{"name":"FLX 1247","line":"10","admin":"FLX10","number":"1247","type":"FLX","operator":{"name":"FlixTrain","icoX":13}},"changeDuration":33,"segmentStart":{"name":"Darmstadt Hbf","evaNumber":"8000068"},"segmentDestination":{"name":"Stuttgart Hbf","evaNumber":"8000096"},"stops":[{"station":{"evaNumber":"8000068","name":"Darmstadt Hbf","coordinates":{"lng":8.629707,"lat":49.872549},"ril100":"FD"},"departure":{"platform":"10","scheduledTime":"2023-10-18T17:54:00.000Z","time":"2023-10-18T17:54:00.000Z","reihung":false}},{"station":{"evaNumber":"8000156","name":"Heidelberg Hbf","coordinates":{"lng":8.67548,"lat":49.403582},"ril100":"RH"},"arrival":{"platform":"8","scheduledTime":"2023-10-18T18:33:00.000Z","time":"2023-10-18T18:33:00.000Z","reihung":false},"departure":{"platform":"8","scheduledTime":"2023-10-18T18:35:00.000Z","time":"2023-10-18T18:35:00.000Z","reihung":false}},{"station":{"evaNumber":"8000096","name":"Stuttgart Hbf","coordinates":{"lng":9.182589,"lat":48.785052},"ril100":"TS"},"arrival":{"platform":"15","scheduledTime":"2023-10-18T19:19:00.000Z","time":"2023-10-18T19:19:00.000Z","reihung":false}}],"finalDestination":"Stuttgart Hbf","jid":"1|286358|0|80|18102023","messages":[{"type":"A","code":"DU","prio":110,"icoX":3,"txtN":"DB-Fahrscheine gelten nicht"},{"type":"A","code":"RP","prio":185,"icoX":14,"txtN":"Reservierungspflicht"},{"type":"A","code":"9N","prio":186,"icoX":3,"txtN":"Deutschland-Ticket nicht gültig"},{"type":"A","code":"FN","prio":555,"icoX":3,"txtN":"Einstieg nur mit gültigem FlixTrain- oder FlixBus Ticket"},{"type":"A","code":"FX","prio":560,"icoX":3,"txtN":"Tickets unter www.flixtrain.de"},{"type":"A","code":"FG","prio":603,"icoX":3,"txtN":"Sitzplatzgarantie"},{"type":"A","code":"LS","prio":605,"icoX":3,"txtN":"Laptop-Steckdosen"},{"type":"A","code":"WV","prio":710,"icoX":3,"txtN":"WLAN verfügbar"}],"type":"JNY"},{"arrival":{"platform":"3","scheduledTime":"2023-10-18T20:53:00.000Z","time":"2023-10-18T20:53:00.000Z","reihung":false},"departure":{"platform":"16","scheduledTime":"2023-10-18T19:52:00.000Z","time":"2023-10-18T19:52:00.000Z","reihung":false},"duration":3660000,"train":{"name":"MEX 12","line":"12","admin":"SBSMEX","number":"19361","type":"MEX","operator":{"name":"SWEG Bahn Stuttgart GmbH","icoX":8}},"segmentStart":{"name":"Stuttgart Hbf","evaNumber":"8000096"},"segmentDestination":{"name":"Tübingen Hbf","evaNumber":"8000141"},"stops":[{"station":{"evaNumber":"8000096","name":"Stuttgart Hbf","coordinates":{"lng":9.182589,"lat":48.785052},"ril100":"TS"},"departure":{"platform":"16","scheduledTime":"2023-10-18T19:52:00.000Z","time":"2023-10-18T19:52:00.000Z","reihung":false}},{"station":{"evaNumber":"8005769","name":"Stuttgart-Bad Cannstatt","coordinates":{"lng":9.217512,"lat":48.801295},"ril100":"TSC"},"arrival":{"platform":"8","scheduledTime":"2023-10-18T19:55:00.000Z","time":"2023-10-18T19:55:00.000Z","reihung":false},"departure":{"platform":"8","scheduledTime":"2023-10-18T19:56:00.000Z","time":"2023-10-18T19:56:00.000Z","reihung":false}},{"station":{"evaNumber":"8001920","name":"Esslingen(Neckar)","coordinates":{"lng":9.299952,"lat":48.738695},"ril100":"TE"},"arrival":{"platform":"5","scheduledTime":"2023-10-18T20:02:00.000Z","time":"2023-10-18T20:02:00.000Z","reihung":false},"departure":{"platform":"5","scheduledTime":"2023-10-18T20:03:00.000Z","time":"2023-10-18T20:03:00.000Z","reihung":false}},{"station":{"evaNumber":"8000302","name":"Plochingen","coordinates":{"lng":9.411113,"lat":48.712869},"ril100":"TP"},"arrival":{"platform":"7","scheduledTime":"2023-10-18T20:11:00.000Z","time":"2023-10-18T20:11:00.000Z","reihung":false},"departure":{"platform":"7","scheduledTime":"2023-10-18T20:12:00.000Z","time":"2023-10-18T20:12:00.000Z","reihung":false}},{"station":{"evaNumber":"8006331","name":"Wendlingen(Neckar)","coordinates":{"lng":9.373187,"lat":48.672588},"ril100":"TWD"},"arrival":{"platform":"2","scheduledTime":"2023-10-18T20:18:00.000Z","time":"2023-10-18T20:18:00.000Z","reihung":false},"departure":{"platform":"2","scheduledTime":"2023-10-18T20:18:00.000Z","time":"2023-10-18T20:18:00.000Z","reihung":false}},{"station":{"evaNumber":"8004517","name":"Oberboihingen","coordinates":{"lng":9.364279,"lat":48.647921},"ril100":"TOBB"},"arrival":{"platform":"2","scheduledTime":"2023-10-18T20:21:00.000Z","time":"2023-10-18T20:21:00.000Z","reihung":false},"departure":{"platform":"2","scheduledTime":"2023-10-18T20:21:00.000Z","time":"2023-10-18T20:21:00.000Z","reihung":false}},{"station":{"evaNumber":"8004488","name":"Nürtingen","coordinates":{"lng":9.342678,"lat":48.628082},"ril100":"TNU"},"arrival":{"platform":"1","scheduledTime":"2023-10-18T20:24:00.000Z","time":"2023-10-18T20:24:00.000Z","reihung":false},"departure":{"platform":"1","scheduledTime":"2023-10-18T20:24:00.000Z","time":"2023-10-18T20:24:00.000Z","reihung":false}},{"station":{"evaNumber":"8000865","name":"Bempflingen","coordinates":{"lng":9.273434,"lat":48.572583},"ril100":"TBEM"},"arrival":{"platform":"1","scheduledTime":"2023-10-18T20:31:00.000Z","time":"2023-10-18T20:31:00.000Z","reihung":false},"departure":{"platform":"1","scheduledTime":"2023-10-18T20:31:00.000Z","time":"2023-10-18T20:31:00.000Z","reihung":false}},{"station":{"evaNumber":"8004009","name":"Metzingen(Württ)","coordinates":{"lng":9.290127,"lat":48.539754},"ril100":"TME"},"arrival":{"platform":"2","scheduledTime":"2023-10-18T20:34:00.000Z","time":"2023-10-18T20:34:00.000Z","reihung":false},"departure":{"platform":"2","scheduledTime":"2023-10-18T20:35:00.000Z","time":"2023-10-18T20:35:00.000Z","reihung":false}},{"station":{"evaNumber":"8000314","name":"Reutlingen Hbf","coordinates":{"lng":9.209188,"lat":48.496049},"ril100":"TRE"},"arrival":{"platform":"2","scheduledTime":"2023-10-18T20:41:00.000Z","time":"2023-10-18T20:41:00.000Z","reihung":false},"departure":{"platform":"2","scheduledTime":"2023-10-18T20:42:00.000Z","time":"2023-10-18T20:42:00.000Z","reihung":false}},{"station":{"evaNumber":"8000141","name":"Tübingen Hbf","coordinates":{"lng":9.056003,"lat":48.515663},"ril100":"TT"},"arrival":{"platform":"3","scheduledTime":"2023-10-18T20:53:00.000Z","time":"2023-10-18T20:53:00.000Z","reihung":false}}],"finalDestination":"Tübingen Hbf","jid":"1|1119312|0|80|18102023","messages":[{"type":"A","code":"FB","prio":260,"icoX":5,"txtN":"Fahrradmitnahme begrenzt möglich"},{"type":"A","code":"EH","prio":560,"icoX":3,"txtN":"Fahrzeuggebundene Einstiegshilfe vorhanden"},{"type":"A","code":"EA","prio":560,"icoX":3,"txtN":"Behindertengerechte Ausstattung"},{"type":"A","code":"KL","prio":610,"icoX":3,"txtN":"Klimaanlage"}],"type":"JNY"}],"segmentTypes":["IC","FLX","MEX"]},{"checksum":"10b96dc8_3","cid":"C-3","date":"2023-10-17T22:00:00.000Z","duration":26400000,"changes":2,"isRideable":true,"arrival":{"platform":"1","scheduledTime":"2023-10-18T20:44:00.000Z","time":"2023-10-18T20:44:00.000Z","reihung":false},"departure":{"platform":"12","scheduledTime":"2023-10-18T13:24:00.000Z","time":"2023-10-18T13:24:00.000Z","reihung":false},"segments":[{"arrival":{"platform":"16","scheduledTime":"2023-10-18T19:08:00.000Z","time":"2023-10-18T19:08:00.000Z","reihung":false},"departure":{"platform":"12","scheduledTime":"2023-10-18T13:24:00.000Z","time":"2023-10-18T13:24:00.000Z","reihung":false},"duration":20640000,"train":{"name":"ICE 693","line":"11","admin":"80","number":"693","type":"ICE","operator":{"name":"DB Fernverkehr AG","icoX":1}},"changeDuration":27,"segmentStart":{"name":"Hamburg Hbf","evaNumber":"8002549"},"segmentDestination":{"name":"Stuttgart Hbf","evaNumber":"8000096"},"stops":[{"station":{"evaNumber":"8002549","name":"Hamburg Hbf","coordinates":{"lng":10.00636,"lat":53.553533},"ril100":"AH"},"departure":{"platform":"12","scheduledTime":"2023-10-18T13:24:00.000Z","time":"2023-10-18T13:24:00.000Z","reihung":false},"messages":[{"type":"A","code":"text.journeystop.product.or.direction.changes.stop.message","icoX":3,"txtN":"Verkehrt ab hier als ICE 693 in Richtung Ulm Hbf"}]},{"station":{"evaNumber":"8000147","name":"Hamburg-Harburg","coordinates":{"lng":9.991591,"lat":53.456198},"ril100":"AHAR"},"arrival":{"platform":"4","scheduledTime":"2023-10-18T13:34:00.000Z","time":"2023-10-18T13:34:00.000Z","reihung":false},"departure":{"platform":"4","scheduledTime":"2023-10-18T13:36:00.000Z","time":"2023-10-18T13:36:00.000Z","reihung":false},"auslastung":{"first":2,"second":1}},{"station":{"evaNumber":"8000152","name":"Hannover Hbf","coordinates":{"lng":9.741763,"lat":52.377079},"ril100":"HH"},"arrival":{"platform":"4","scheduledTime":"2023-10-18T14:38:00.000Z","time":"2023-10-18T14:38:00.000Z","reihung":false},"departure":{"platform":"4","scheduledTime":"2023-10-18T14:41:00.000Z","time":"2023-10-18T14:41:00.000Z","reihung":false},"auslastung":{"first":2,"second":1}},{"station":{"evaNumber":"8000128","name":"Göttingen","coordinates":{"lng":9.926257,"lat":51.536758},"ril100":"HG"},"arrival":{"platform":"10","scheduledTime":"2023-10-18T15:15:00.000Z","time":"2023-10-18T15:15:00.000Z","reihung":false},"departure":{"platform":"10","scheduledTime":"2023-10-18T15:16:00.000Z","time":"2023-10-18T15:16:00.000Z","reihung":false},"auslastung":{"first":2,"second":1}},{"station":{"evaNumber":"8003200","name":"Kassel-Wilhelmshöhe","coordinates":{"lng":9.446845,"lat":51.312998},"ril100":"FKW"},"arrival":{"platform":"2","scheduledTime":"2023-10-18T15:35:00.000Z","time":"2023-10-18T15:35:00.000Z","reihung":false},"departure":{"platform":"2","scheduledTime":"2023-10-18T15:37:00.000Z","time":"2023-10-18T15:37:00.000Z","reihung":false},"auslastung":{"first":2,"second":1}},{"station":{"evaNumber":"8000115","name":"Fulda","coordinates":{"lng":9.684178,"lat":50.554794},"ril100":"FFU"},"arrival":{"platform":"4","scheduledTime":"2023-10-18T16:46:00.000Z","time":"2023-10-18T16:46:00.000Z","reihung":false},"departure":{"platform":"4","scheduledTime":"2023-10-18T16:48:00.000Z","time":"2023-10-18T16:48:00.000Z","reihung":false},"auslastung":{"first":2,"second":1}},{"station":{"evaNumber":"8000105","name":"Frankfurt(Main)Hbf","coordinates":{"lng":8.663003,"lat":50.106817},"ril100":"FF"},"arrival":{"platform":"9","scheduledTime":"2023-10-18T17:44:00.000Z","time":"2023-10-18T17:44:00.000Z","reihung":false},"departure":{"platform":"9","scheduledTime":"2023-10-18T17:50:00.000Z","time":"2023-10-18T17:50:00.000Z","reihung":false},"auslastung":{"first":2,"second":1},"messages":[{"type":"A","code":"text.journeystop.product.or.direction.changes.stop.message","icoX":3,"txtN":"Verkehrt ab hier als ICE 693 in Richtung München Hbf"}]},{"station":{"evaNumber":"8000244","name":"Mannheim Hbf","coordinates":{"lng":8.469268,"lat":49.479181},"ril100":"RM"},"arrival":{"platform":"5","scheduledTime":"2023-10-18T18:27:00.000Z","time":"2023-10-18T18:27:00.000Z","reihung":false},"departure":{"platform":"5","scheduledTime":"2023-10-18T18:30:00.000Z","time":"2023-10-18T18:30:00.000Z","reihung":false},"auslastung":{"first":2,"second":1}},{"station":{"evaNumber":"8000096","name":"Stuttgart Hbf","coordinates":{"lng":9.182589,"lat":48.785052},"ril100":"TS"},"arrival":{"platform":"16","scheduledTime":"2023-10-18T19:08:00.000Z","time":"2023-10-18T19:08:00.000Z","reihung":false}}],"finalDestination":"Ulm Hbf","jid":"1|208720|0|80|18102023","auslastung":{"first":2,"second":1},"messages":[{"type":"A","code":"CK","prio":200,"icoX":3,"txtN":"Sicher & kontaktlos ohne Ticketkontrolle reisen mit Komfort Check-in"},{"type":"A","code":"FR","prio":260,"icoX":4,"txtN":"Fahrradmitnahme reservierungspflichtig"},{"type":"A","code":"FB","prio":260,"icoX":5,"txtN":"Fahrradmitnahme begrenzt möglich"},{"type":"A","code":"BR","prio":450,"icoX":6,"txtN":"Bordrestaurant"},{"type":"A","code":"EH","prio":560,"icoX":3,"txtN":"Fahrzeuggebundene Einstiegshilfe vorhanden"},{"type":"A","code":"text.journeystop.product.or.direction.changes.journey.message","icoX":3,"txtN":"Verkehrt ab Frankfurt(Main)Hbf als ICE 693 in Richtung München Hbf"}],"type":"JNY"},{"type":"WALK","train":{"name":"Fußweg","type":"Fußweg"},"arrival":{"scheduledTime":"2023-10-18T19:34:00.000Z","time":"2023-10-18T19:34:00.000Z","reihung":false},"departure":{"scheduledTime":"2023-10-18T19:20:00.000Z","time":"2023-10-18T19:20:00.000Z","reihung":false},"duration":840000,"segmentStart":{"evaNumber":"8000096","name":"Stuttgart Hbf","coordinates":{"lng":9.182589,"lat":48.785052},"ril100":"TS"},"segmentDestination":{"evaNumber":"8098096","name":"Stuttgart Hbf (tief)","coordinates":{"lng":9.179811,"lat":48.783002},"ril100":"TS  T"}},{"arrival":{"platform":"3","scheduledTime":"2023-10-18T20:14:00.000Z","time":"2023-10-18T20:14:00.000Z","reihung":false},"departure":{"platform":"101","scheduledTime":"2023-10-18T19:35:00.000Z","time":"2023-10-18T19:35:00.000Z","reihung":false},"duration":2340000,"train":{"name":"S 1","line":"1","admin":"800643","number":"7167","type":"S","operator":{"name":"DB Regio AG S-Bahn Stuttgart","icoX":17}},"changeDuration":4,"segmentStart":{"name":"Stuttgart Hbf (tief)","evaNumber":"8098096"},"segmentDestination":{"name":"Herrenberg","evaNumber":"8002785"},"stops":[{"station":{"evaNumber":"8098096","name":"Stuttgart Hbf (tief)","coordinates":{"lng":9.179811,"lat":48.783002},"ril100":"TS  T"},"departure":{"platform":"101","scheduledTime":"2023-10-18T19:35:00.000Z","time":"2023-10-18T19:35:00.000Z","reihung":false}},{"station":{"evaNumber":"8006700","name":"Stuttgart Stadtmitte","coordinates":{"lng":9.172881,"lat":48.77635},"ril100":"TSMI"},"arrival":{"platform":"1","scheduledTime":"2023-10-18T19:37:00.000Z","time":"2023-10-18T19:37:00.000Z","reihung":false},"departure":{"platform":"1","scheduledTime":"2023-10-18T19:37:00.000Z","time":"2023-10-18T19:37:00.000Z","reihung":false}},{"station":{"evaNumber":"8006699","name":"Stuttgart Feuersee","coordinates":{"lng":9.165743,"lat":48.772647},"ril100":"TSFS"},"arrival":{"platform":"1","scheduledTime":"2023-10-18T19:38:00.000Z","time":"2023-10-18T19:38:00.000Z","reihung":false},"departure":{"platform":"1","scheduledTime":"2023-10-18T19:39:00.000Z","time":"2023-10-18T19:39:00.000Z","reihung":false}},{"station":{"evaNumber":"8006698","name":"Stuttgart Schwabstr.","coordinates":{"lng":9.156574,"lat":48.770193},"ril100":"TSS"},"arrival":{"platform":"1","scheduledTime":"2023-10-18T19:40:00.000Z","time":"2023-10-18T19:40:00.000Z","reihung":false},"departure":{"platform":"1","scheduledTime":"2023-10-18T19:40:00.000Z","time":"2023-10-18T19:40:00.000Z","reihung":false}},{"station":{"evaNumber":"8006513","name":"Stuttgart Universität","coordinates":{"lng":9.105839,"lat":48.745131},"ril100":"TSUN"},"arrival":{"platform":"1","scheduledTime":"2023-10-18T19:45:00.000Z","time":"2023-10-18T19:45:00.000Z","reihung":false},"departure":{"platform":"1","scheduledTime":"2023-10-18T19:45:00.000Z","time":"2023-10-18T19:45:00.000Z","reihung":false}},{"station":{"evaNumber":"8005779","name":"Stuttgart-Österfeld","coordinates":{"lng":9.116527,"lat":48.737553},"ril100":"TSOS"},"arrival":{"platform":"1","scheduledTime":"2023-10-18T19:47:00.000Z","time":"2023-10-18T19:47:00.000Z","reihung":false},"departure":{"platform":"1","scheduledTime":"2023-10-18T19:47:00.000Z","time":"2023-10-18T19:47:00.000Z","reihung":false}},{"station":{"evaNumber":"8005776","name":"Stuttgart-Vaihingen","coordinates":{"lng":9.113327,"lat":48.726604},"ril100":"TSV"},"arrival":{"platform":"1","scheduledTime":"2023-10-18T19:49:00.000Z","time":"2023-10-18T19:49:00.000Z","reihung":false},"departure":{"platform":"1","scheduledTime":"2023-10-18T19:50:00.000Z","time":"2023-10-18T19:50:00.000Z","reihung":false}},{"station":{"evaNumber":"8005773","name":"Stuttgart-Rohr","coordinates":{"lng":9.108131,"lat":48.717992},"ril100":"TSRO"},"arrival":{"platform":"2","scheduledTime":"2023-10-18T19:51:00.000Z","time":"2023-10-18T19:51:00.000Z","reihung":false},"departure":{"platform":"2","scheduledTime":"2023-10-18T19:52:00.000Z","time":"2023-10-18T19:52:00.000Z","reihung":false}},{"station":{"evaNumber":"8005201","name":"Goldberg(Württ)","coordinates":{"lng":9.019686,"lat":48.69649},"ril100":"TGOL"},"arrival":{"platform":"1","scheduledTime":"2023-10-18T19:57:00.000Z","time":"2023-10-18T19:57:00.000Z","reihung":false},"departure":{"platform":"1","scheduledTime":"2023-10-18T19:57:00.000Z","time":"2023-10-18T19:57:00.000Z","reihung":false}},{"station":{"evaNumber":"8001055","name":"Böblingen","coordinates":{"lng":9.004432,"lat":48.687888},"ril100":"TBO"},"arrival":{"platform":"4","scheduledTime":"2023-10-18T19:59:00.000Z","time":"2023-10-18T19:59:00.000Z","reihung":false},"departure":{"platform":"4","scheduledTime":"2023-10-18T19:59:00.000Z","time":"2023-10-18T19:59:00.000Z","reihung":false}},{"station":{"evaNumber":"8003022","name":"Hulb","coordinates":{"lng":8.982651,"lat":48.679294}},"arrival":{"platform":"1","scheduledTime":"2023-10-18T20:01:00.000Z","time":"2023-10-18T20:01:00.000Z","reihung":false},"departure":{"platform":"1","scheduledTime":"2023-10-18T20:01:00.000Z","time":"2023-10-18T20:01:00.000Z","reihung":false}},{"station":{"evaNumber":"8001689","name":"Ehningen(b Böblingen)","coordinates":{"lng":8.944725,"lat":48.662978},"ril100":"TEHN"},"arrival":{"platform":"2","scheduledTime":"2023-10-18T20:04:00.000Z","time":"2023-10-18T20:04:00.000Z","reihung":false},"departure":{"platform":"2","scheduledTime":"2023-10-18T20:04:00.000Z","time":"2023-10-18T20:04:00.000Z","reihung":false}},{"station":{"evaNumber":"8002165","name":"Gärtringen","coordinates":{"lng":8.908993,"lat":48.64091},"ril100":"TGT"},"arrival":{"platform":"1","scheduledTime":"2023-10-18T20:07:00.000Z","time":"2023-10-18T20:07:00.000Z","reihung":false},"departure":{"platform":"1","scheduledTime":"2023-10-18T20:07:00.000Z","time":"2023-10-18T20:07:00.000Z","reihung":false}},{"station":{"evaNumber":"8004490","name":"Nufringen","coordinates":{"lng":8.889621,"lat":48.620055},"ril100":"TNUF"},"arrival":{"platform":"1","scheduledTime":"2023-10-18T20:10:00.000Z","time":"2023-10-18T20:10:00.000Z","reihung":false},"departure":{"platform":"1","scheduledTime":"2023-10-18T20:10:00.000Z","time":"2023-10-18T20:10:00.000Z","reihung":false}},{"station":{"evaNumber":"8002785","name":"Herrenberg","coordinates":{"lng":8.862861,"lat":48.594139},"ril100":"THE"},"arrival":{"platform":"3","scheduledTime":"2023-10-18T20:14:00.000Z","time":"2023-10-18T20:14:00.000Z","reihung":false}}],"finalDestination":"Herrenberg","jid":"1|262935|0|80|18102023","messages":[{"type":"A","code":"FB","prio":260,"icoX":5,"txtN":"Fahrradmitnahme begrenzt möglich"},{"type":"A","code":"ZB","prio":560,"icoX":3,"txtN":"Fahrzeuggebundene Einstiegshilfe am Zuganfang"},{"type":"M","code":"","icoX":18,"txtS":"S 1: Herrenberg: Information.","txtN":"Bis voraussichtlich Mitte Oktober 2023 erneuert die Deutsche Bahn in Herrenberg die Aufzüge. Während der Arbeiten stehen die Aufzüge leider nicht zur Verfügung. Die Deutsche Bahn empfiehlt mobilitätseingeschränkten Reisenden ihre Reise vorher (spätestens einen Werktag) bei der Mobilitätsservice-Zentrale (Telefon 030 65212888) anzumelden.","sIdx":2}],"type":"JNY"},{"arrival":{"platform":"1","scheduledTime":"2023-10-18T20:44:00.000Z","time":"2023-10-18T20:44:00.000Z","reihung":false},"departure":{"platform":"102","scheduledTime":"2023-10-18T20:18:00.000Z","time":"2023-10-18T20:18:00.000Z","reihung":false},"duration":1560000,"train":{"name":"RB 63","line":"63","admin":"8006D2","number":"22882","type":"RB","operator":{"name":"DB Regio AG Baden-Württemberg","icoX":20}},"segmentStart":{"name":"Herrenberg","evaNumber":"8002785"},"segmentDestination":{"name":"Tübingen Hbf","evaNumber":"8000141"},"stops":[{"station":{"evaNumber":"8002785","name":"Herrenberg","coordinates":{"lng":8.862861,"lat":48.594139},"ril100":"THE"},"departure":{"platform":"102","scheduledTime":"2023-10-18T20:18:00.000Z","time":"2023-10-18T20:18:00.000Z","reihung":false}},{"station":{"evaNumber":"8070604","name":"Gültstein","coordinates":{"lng":8.8819,"lat":48.57741}},"arrival":{"scheduledTime":"2023-10-18T20:22:00.000Z","time":"2023-10-18T20:22:00.000Z","reihung":false},"departure":{"scheduledTime":"2023-10-18T20:23:00.000Z","time":"2023-10-18T20:23:00.000Z","reihung":false}},{"station":{"evaNumber":"8070591","name":"Altingen(Württ)","coordinates":{"lng":8.908948,"lat":48.561958},"ril100":"TAG"},"arrival":{"scheduledTime":"2023-10-18T20:26:00.000Z","time":"2023-10-18T20:26:00.000Z","reihung":false},"departure":{"scheduledTime":"2023-10-18T20:27:00.000Z","time":"2023-10-18T20:27:00.000Z","reihung":false}},{"station":{"evaNumber":"8001802","name":"Entringen","coordinates":{"lng":8.962893,"lat":48.552132}},"arrival":{"scheduledTime":"2023-10-18T20:30:00.000Z","time":"2023-10-18T20:30:00.000Z","reihung":false},"departure":{"scheduledTime":"2023-10-18T20:31:00.000Z","time":"2023-10-18T20:31:00.000Z","reihung":false}},{"station":{"evaNumber":"8004778","name":"Pfäffingen","coordinates":{"lng":8.964556,"lat":48.532257},"ril100":"TPG"},"arrival":{"scheduledTime":"2023-10-18T20:33:00.000Z","time":"2023-10-18T20:33:00.000Z","reihung":false},"departure":{"scheduledTime":"2023-10-18T20:34:00.000Z","time":"2023-10-18T20:34:00.000Z","reihung":false}},{"station":{"evaNumber":"8006002","name":"Unterjesingen Mitte","coordinates":{"lng":8.98168,"lat":48.524697},"ril100":"TUJM"},"arrival":{"scheduledTime":"2023-10-18T20:36:00.000Z","time":"2023-10-18T20:36:00.000Z","reihung":false},"departure":{"scheduledTime":"2023-10-18T20:36:00.000Z","time":"2023-10-18T20:36:00.000Z","reihung":false}},{"station":{"evaNumber":"8006003","name":"Unterjesingen Sandäcker","coordinates":{"lng":8.98826,"lat":48.523304},"ril100":"TUJS"},"arrival":{"scheduledTime":"2023-10-18T20:38:00.000Z","time":"2023-10-18T20:38:00.000Z","reihung":false},"departure":{"scheduledTime":"2023-10-18T20:38:00.000Z","time":"2023-10-18T20:38:00.000Z","reihung":false}},{"station":{"evaNumber":"8005916","name":"Tübingen West","coordinates":{"lng":9.038168,"lat":48.520023},"ril100":"TTW"},"arrival":{"scheduledTime":"2023-10-18T20:41:00.000Z","time":"2023-10-18T20:41:00.000Z","reihung":false},"departure":{"scheduledTime":"2023-10-18T20:42:00.000Z","time":"2023-10-18T20:42:00.000Z","reihung":false}},{"station":{"evaNumber":"8000141","name":"Tübingen Hbf","coordinates":{"lng":9.056003,"lat":48.515663},"ril100":"TT"},"arrival":{"platform":"1","scheduledTime":"2023-10-18T20:44:00.000Z","time":"2023-10-18T20:44:00.000Z","reihung":false}}],"finalDestination":"Metzingen(Württ)","jid":"1|260866|0|80|18102023","messages":[{"type":"A","code":"FB","prio":260,"icoX":5,"txtN":"Fahrradmitnahme begrenzt möglich"},{"type":"A","code":"K2","prio":300,"icoX":21,"txtN":"nur 2. Klasse"},{"type":"A","code":"EH","prio":560,"icoX":3,"txtN":"Fahrzeuggebundene Einstiegshilfe vorhanden"}],"type":"JNY"}],"segmentTypes":["ICE","Fußweg","S","RB"]},{"checksum":"f191464d_3","cid":"C-4","date":"2023-10-17T22:00:00.000Z","duration":26940000,"changes":1,"isRideable":true,"arrival":{"platform":"3","scheduledTime":"2023-10-18T20:53:00.000Z","time":"2023-10-18T20:53:00.000Z","reihung":false},"departure":{"platform":"12","scheduledTime":"2023-10-18T13:24:00.000Z","time":"2023-10-18T13:24:00.000Z","reihung":false},"segments":[{"arrival":{"platform":"16","scheduledTime":"2023-10-18T19:08:00.000Z","time":"2023-10-18T19:08:00.000Z","reihung":false},"departure":{"platform":"12","scheduledTime":"2023-10-18T13:24:00.000Z","time":"2023-10-18T13:24:00.000Z","reihung":false},"duration":20640000,"train":{"name":"ICE 693","line":"11","admin":"80","number":"693","type":"ICE","operator":{"name":"DB Fernverkehr AG","icoX":1}},"changeDuration":44,"segmentStart":{"name":"Hamburg Hbf","evaNumber":"8002549"},"segmentDestination":{"name":"Stuttgart Hbf","evaNumber":"8000096"},"stops":[{"station":{"evaNumber":"8002549","name":"Hamburg Hbf","coordinates":{"lng":10.00636,"lat":53.553533},"ril100":"AH"},"departure":{"platform":"12","scheduledTime":"2023-10-18T13:24:00.000Z","time":"2023-10-18T13:24:00.000Z","reihung":false},"messages":[{"type":"A","code":"text.journeystop.product.or.direction.changes.stop.message","icoX":3,"txtN":"Verkehrt ab hier als ICE 693 in Richtung Ulm Hbf"}]},{"station":{"evaNumber":"8000147","name":"Hamburg-Harburg","coordinates":{"lng":9.991591,"lat":53.456198},"ril100":"AHAR"},"arrival":{"platform":"4","scheduledTime":"2023-10-18T13:34:00.000Z","time":"2023-10-18T13:34:00.000Z","reihung":false},"departure":{"platform":"4","scheduledTime":"2023-10-18T13:36:00.000Z","time":"2023-10-18T13:36:00.000Z","reihung":false},"auslastung":{"first":2,"second":1}},{"station":{"evaNumber":"8000152","name":"Hannover Hbf","coordinates":{"lng":9.741763,"lat":52.377079},"ril100":"HH"},"arrival":{"platform":"4","scheduledTime":"2023-10-18T14:38:00.000Z","time":"2023-10-18T14:38:00.000Z","reihung":false},"departure":{"platform":"4","scheduledTime":"2023-10-18T14:41:00.000Z","time":"2023-10-18T14:41:00.000Z","reihung":false},"auslastung":{"first":2,"second":1}},{"station":{"evaNumber":"8000128","name":"Göttingen","coordinates":{"lng":9.926257,"lat":51.536758},"ril100":"HG"},"arrival":{"platform":"10","scheduledTime":"2023-10-18T15:15:00.000Z","time":"2023-10-18T15:15:00.000Z","reihung":false},"departure":{"platform":"10","scheduledTime":"2023-10-18T15:16:00.000Z","time":"2023-10-18T15:16:00.000Z","reihung":false},"auslastung":{"first":2,"second":1}},{"station":{"evaNumber":"8003200","name":"Kassel-Wilhelmshöhe","coordinates":{"lng":9.446845,"lat":51.312998},"ril100":"FKW"},"arrival":{"platform":"2","scheduledTime":"2023-10-18T15:35:00.000Z","time":"2023-10-18T15:35:00.000Z","reihung":false},"departure":{"platform":"2","scheduledTime":"2023-10-18T15:37:00.000Z","time":"2023-10-18T15:37:00.000Z","reihung":false},"auslastung":{"first":2,"second":1}},{"station":{"evaNumber":"8000115","name":"Fulda","coordinates":{"lng":9.684178,"lat":50.554794},"ril100":"FFU"},"arrival":{"platform":"4","scheduledTime":"2023-10-18T16:46:00.000Z","time":"2023-10-18T16:46:00.000Z","reihung":false},"departure":{"platform":"4","scheduledTime":"2023-10-18T16:48:00.000Z","time":"2023-10-18T16:48:00.000Z","reihung":false},"auslastung":{"first":2,"second":1}},{"station":{"evaNumber":"8000105","name":"Frankfurt(Main)Hbf","coordinates":{"lng":8.663003,"lat":50.106817},"ril100":"FF"},"arrival":{"platform":"9","scheduledTime":"2023-10-18T17:44:00.000Z","time":"2023-10-18T17:44:00.000Z","reihung":false},"departure":{"platform":"9","scheduledTime":"2023-10-18T17:50:00.000Z","time":"2023-10-18T17:50:00.000Z","reihung":false},"auslastung":{"first":2,"second":1},"messages":[{"type":"A","code":"text.journeystop.product.or.direction.changes.stop.message","icoX":3,"txtN":"Verkehrt ab hier als ICE 693 in Richtung München Hbf"}]},{"station":{"evaNumber":"8000244","name":"Mannheim Hbf","coordinates":{"lng":8.469268,"lat":49.479181},"ril100":"RM"},"arrival":{"platform":"5","scheduledTime":"2023-10-18T18:27:00.000Z","time":"2023-10-18T18:27:00.000Z","reihung":false},"departure":{"platform":"5","scheduledTime":"2023-10-18T18:30:00.000Z","time":"2023-10-18T18:30:00.000Z","reihung":false},"auslastung":{"first":2,"second":1}},{"station":{"evaNumber":"8000096","name":"Stuttgart Hbf","coordinates":{"lng":9.182589,"lat":48.785052},"ril100":"TS"},"arrival":{"platform":"16","scheduledTime":"2023-10-18T19:08:00.000Z","time":"2023-10-18T19:08:00.000Z","reihung":false}}],"finalDestination":"Ulm Hbf","jid":"1|208720|0|80|18102023","auslastung":{"first":2,"second":1},"messages":[{"type":"A","code":"CK","prio":200,"icoX":3,"txtN":"Sicher & kontaktlos ohne Ticketkontrolle reisen mit Komfort Check-in"},{"type":"A","code":"FR","prio":260,"icoX":4,"txtN":"Fahrradmitnahme reservierungspflichtig"},{"type":"A","code":"FB","prio":260,"icoX":5,"txtN":"Fahrradmitnahme begrenzt möglich"},{"type":"A","code":"BR","prio":450,"icoX":6,"txtN":"Bordrestaurant"},{"type":"A","code":"EH","prio":560,"icoX":3,"txtN":"Fahrzeuggebundene Einstiegshilfe vorhanden"},{"type":"A","code":"text.journeystop.product.or.direction.changes.journey.message","icoX":3,"txtN":"Verkehrt ab Frankfurt(Main)Hbf als ICE 693 in Richtung München Hbf"}],"type":"JNY"},{"arrival":{"platform":"3","scheduledTime":"2023-10-18T20:53:00.000Z","time":"2023-10-18T20:53:00.000Z","reihung":false},"departure":{"platform":"16","scheduledTime":"2023-10-18T19:52:00.000Z","time":"2023-10-18T19:52:00.000Z","reihung":false},"duration":3660000,"train":{"name":"MEX 12","line":"12","admin":"SBSMEX","number":"19361","type":"MEX","operator":{"name":"SWEG Bahn Stuttgart GmbH","icoX":8}},"segmentStart":{"name":"Stuttgart Hbf","evaNumber":"8000096"},"segmentDestination":{"name":"Tübingen Hbf","evaNumber":"8000141"},"stops":[{"station":{"evaNumber":"8000096","name":"Stuttgart Hbf","coordinates":{"lng":9.182589,"lat":48.785052},"ril100":"TS"},"departure":{"platform":"16","scheduledTime":"2023-10-18T19:52:00.000Z","time":"2023-10-18T19:52:00.000Z","reihung":false}},{"station":{"evaNumber":"8005769","name":"Stuttgart-Bad Cannstatt","coordinates":{"lng":9.217512,"lat":48.801295},"ril100":"TSC"},"arrival":{"platform":"8","scheduledTime":"2023-10-18T19:55:00.000Z","time":"2023-10-18T19:55:00.000Z","reihung":false},"departure":{"platform":"8","scheduledTime":"2023-10-18T19:56:00.000Z","time":"2023-10-18T19:56:00.000Z","reihung":false}},{"station":{"evaNumber":"8001920","name":"Esslingen(Neckar)","coordinates":{"lng":9.299952,"lat":48.738695},"ril100":"TE"},"arrival":{"platform":"5","scheduledTime":"2023-10-18T20:02:00.000Z","time":"2023-10-18T20:02:00.000Z","reihung":false},"departure":{"platform":"5","scheduledTime":"2023-10-18T20:03:00.000Z","time":"2023-10-18T20:03:00.000Z","reihung":false}},{"station":{"evaNumber":"8000302","name":"Plochingen","coordinates":{"lng":9.411113,"lat":48.712869},"ril100":"TP"},"arrival":{"platform":"7","scheduledTime":"2023-10-18T20:11:00.000Z","time":"2023-10-18T20:11:00.000Z","reihung":false},"departure":{"platform":"7","scheduledTime":"2023-10-18T20:12:00.000Z","time":"2023-10-18T20:12:00.000Z","reihung":false}},{"station":{"evaNumber":"8006331","name":"Wendlingen(Neckar)","coordinates":{"lng":9.373187,"lat":48.672588},"ril100":"TWD"},"arrival":{"platform":"2","scheduledTime":"2023-10-18T20:18:00.000Z","time":"2023-10-18T20:18:00.000Z","reihung":false},"departure":{"platform":"2","scheduledTime":"2023-10-18T20:18:00.000Z","time":"2023-10-18T20:18:00.000Z","reihung":false}},{"station":{"evaNumber":"8004517","name":"Oberboihingen","coordinates":{"lng":9.364279,"lat":48.647921},"ril100":"TOBB"},"arrival":{"platform":"2","scheduledTime":"2023-10-18T20:21:00.000Z","time":"2023-10-18T20:21:00.000Z","reihung":false},"departure":{"platform":"2","scheduledTime":"2023-10-18T20:21:00.000Z","time":"2023-10-18T20:21:00.000Z","reihung":false}},{"station":{"evaNumber":"8004488","name":"Nürtingen","coordinates":{"lng":9.342678,"lat":48.628082},"ril100":"TNU"},"arrival":{"platform":"1","scheduledTime":"2023-10-18T20:24:00.000Z","time":"2023-10-18T20:24:00.000Z","reihung":false},"departure":{"platform":"1","scheduledTime":"2023-10-18T20:24:00.000Z","time":"2023-10-18T20:24:00.000Z","reihung":false}},{"station":{"evaNumber":"8000865","name":"Bempflingen","coordinates":{"lng":9.273434,"lat":48.572583},"ril100":"TBEM"},"arrival":{"platform":"1","scheduledTime":"2023-10-18T20:31:00.000Z","time":"2023-10-18T20:31:00.000Z","reihung":false},"departure":{"platform":"1","scheduledTime":"2023-10-18T20:31:00.000Z","time":"2023-10-18T20:31:00.000Z","reihung":false}},{"station":{"evaNumber":"8004009","name":"Metzingen(Württ)","coordinates":{"lng":9.290127,"lat":48.539754},"ril100":"TME"},"arrival":{"platform":"2","scheduledTime":"2023-10-18T20:34:00.000Z","time":"2023-10-18T20:34:00.000Z","reihung":false},"departure":{"platform":"2","scheduledTime":"2023-10-18T20:35:00.000Z","time":"2023-10-18T20:35:00.000Z","reihung":false}},{"station":{"evaNumber":"8000314","name":"Reutlingen Hbf","coordinates":{"lng":9.209188,"lat":48.496049},"ril100":"TRE"},"arrival":{"platform":"2","scheduledTime":"2023-10-18T20:41:00.000Z","time":"2023-10-18T20:41:00.000Z","reihung":false},"departure":{"platform":"2","scheduledTime":"2023-10-18T20:42:00.000Z","time":"2023-10-18T20:42:00.000Z","reihung":false}},{"station":{"evaNumber":"8000141","name":"Tübingen Hbf","coordinates":{"lng":9.056003,"lat":48.515663},"ril100":"TT"},"arrival":{"platform":"3","scheduledTime":"2023-10-18T20:53:00.000Z","time":"2023-10-18T20:53:00.000Z","reihung":false}}],"finalDestination":"Tübingen Hbf","jid":"1|1119312|0|80|18102023","messages":[{"type":"A","code":"FB","prio":260,"icoX":5,"txtN":"Fahrradmitnahme begrenzt möglich"},{"type":"A","code":"EH","prio":560,"icoX":3,"txtN":"Fahrzeuggebundene Einstiegshilfe vorhanden"},{"type":"A","code":"EA","prio":560,"icoX":3,"txtN":"Behindertengerechte Ausstattung"},{"type":"A","code":"KL","prio":610,"icoX":3,"txtN":"Klimaanlage"}],"type":"JNY"}],"segmentTypes":["ICE","MEX"]},{"checksum":"5aed10c4_3","cid":"C-5","date":"2023-10-17T22:00:00.000Z","duration":28740000,"changes":2,"isRideable":true,"arrival":{"platform":"1","scheduledTime":"2023-10-18T21:44:00.000Z","time":"2023-10-18T21:44:00.000Z","reihung":false},"departure":{"platform":"14","scheduledTime":"2023-10-18T13:45:00.000Z","time":"2023-10-18T13:45:00.000Z","reihung":false},"segments":[{"arrival":{"platform":"16","scheduledTime":"2023-10-18T20:08:00.000Z","time":"2023-10-18T20:08:00.000Z","reihung":false},"departure":{"platform":"14","scheduledTime":"2023-10-18T13:45:00.000Z","time":"2023-10-18T13:45:00.000Z","reihung":false},"duration":22980000,"train":{"name":"ICE 615","line":"42","admin":"80","number":"615","type":"ICE","operator":{"name":"DB Fernverkehr AG","icoX":1}},"changeDuration":9,"segmentStart":{"name":"Hamburg Hbf","evaNumber":"8002549"},"segmentDestination":{"name":"Stuttgart Hbf","evaNumber":"8000096"},"stops":[{"station":{"evaNumber":"8002549","name":"Hamburg Hbf","coordinates":{"lng":10.00636,"lat":53.553533},"ril100":"AH"},"departure":{"platform":"14","scheduledTime":"2023-10-18T13:45:00.000Z","time":"2023-10-18T13:45:00.000Z","reihung":false},"messages":[{"type":"A","code":"text.journeystop.product.or.direction.changes.stop.message","icoX":3,"txtN":"Verkehrt ab hier als ICE 615 in Richtung Köln Hbf"}]},{"station":{"evaNumber":"8000147","name":"Hamburg-Harburg","coordinates":{"lng":9.991591,"lat":53.456198},"ril100":"AHAR"},"departure":{"platform":"3","scheduledTime":"2023-10-18T13:58:00.000Z","time":"2023-10-18T13:58:00.000Z","reihung":false},"auslastung":{"first":1,"second":2}},{"station":{"evaNumber":"8000050","name":"Bremen Hbf","coordinates":{"lng":8.813681,"lat":53.08328},"ril100":"HB"},"arrival":{"platform":"7","scheduledTime":"2023-10-18T14:41:00.000Z","time":"2023-10-18T14:41:00.000Z","reihung":false},"departure":{"platform":"7","scheduledTime":"2023-10-18T14:44:00.000Z","time":"2023-10-18T14:44:00.000Z","reihung":false},"auslastung":{"first":1,"second":2},"messages":[{"type":"A","code":"text.journeystop.product.or.direction.changes.stop.message","icoX":3,"txtN":"Verkehrt ab hier als ICE 615 in Richtung München Hbf"}]},{"station":{"evaNumber":"8000294","name":"Osnabrück Hbf","coordinates":{"lng":8.061256,"lat":52.272534},"ril100":"HO"},"arrival":{"platform":"2","scheduledTime":"2023-10-18T15:35:00.000Z","time":"2023-10-18T15:35:00.000Z","reihung":false},"departure":{"platform":"2","scheduledTime":"2023-10-18T15:37:00.000Z","time":"2023-10-18T15:37:00.000Z","reihung":false},"auslastung":{"first":1,"second":1}},{"station":{"evaNumber":"8000263","name":"Münster(Westf)Hbf","coordinates":{"lng":7.63586,"lat":51.956527},"ril100":"EMST"},"arrival":{"platform":"9","scheduledTime":"2023-10-18T16:00:00.000Z","time":"2023-10-18T16:00:00.000Z","reihung":false},"departure":{"platform":"9","scheduledTime":"2023-10-18T16:02:00.000Z","time":"2023-10-18T16:02:00.000Z","reihung":false},"auslastung":{"first":1,"second":1}},{"station":{"evaNumber":"8000080","name":"Dortmund Hbf","coordinates":{"lng":7.459276,"lat":51.517872},"ril100":"EDO"},"arrival":{"platform":"11","scheduledTime":"2023-10-18T16:32:00.000Z","time":"2023-10-18T16:32:00.000Z","reihung":false},"departure":{"platform":"11","scheduledTime":"2023-10-18T16:36:00.000Z","time":"2023-10-18T16:36:00.000Z","reihung":false},"auslastung":{"first":1,"second":1}},{"station":{"evaNumber":"8000142","name":"Hagen Hbf","coordinates":{"lng":7.460391,"lat":51.362727},"ril100":"EHG"},"arrival":{"platform":"7/8","scheduledTime":"2023-10-18T16:55:00.000Z","time":"2023-10-18T16:55:00.000Z","reihung":false},"departure":{"platform":"7/8","scheduledTime":"2023-10-18T16:57:00.000Z","time":"2023-10-18T16:57:00.000Z","reihung":false},"auslastung":{"first":1,"second":1}},{"station":{"evaNumber":"8000266","name":"Wuppertal Hbf","coordinates":{"lng":7.150155,"lat":51.254443},"ril100":"KW"},"arrival":{"platform":"1","scheduledTime":"2023-10-18T17:12:00.000Z","time":"2023-10-18T17:12:00.000Z","reihung":false},"departure":{"platform":"1","scheduledTime":"2023-10-18T17:14:00.000Z","time":"2023-10-18T17:14:00.000Z","reihung":false},"auslastung":{"first":1,"second":1}},{"station":{"evaNumber":"8000087","name":"Solingen Hbf","coordinates":{"lng":7.004287,"lat":51.160784},"ril100":"KSO"},"arrival":{"platform":"1","scheduledTime":"2023-10-18T17:26:00.000Z","time":"2023-10-18T17:26:00.000Z","reihung":false},"departure":{"platform":"1","scheduledTime":"2023-10-18T17:27:00.000Z","time":"2023-10-18T17:27:00.000Z","reihung":false},"auslastung":{"first":1,"second":1}},{"station":{"evaNumber":"8000207","name":"Köln Hbf","coordinates":{"lng":6.959197,"lat":50.942823},"ril100":"KK"},"arrival":{"platform":"6","scheduledTime":"2023-10-18T17:47:00.000Z","time":"2023-10-18T17:47:00.000Z","reihung":false},"departure":{"platform":"6","scheduledTime":"2023-10-18T17:55:00.000Z","time":"2023-10-18T17:55:00.000Z","reihung":false},"auslastung":{"first":1,"second":1}},{"station":{"evaNumber":"8070003","name":"Frankfurt(M) Flughafen Fernbf","coordinates":{"lng":8.569776,"lat":50.052926},"ril100":"FFLF"},"arrival":{"platform":"Fern 5","scheduledTime":"2023-10-18T18:50:00.000Z","time":"2023-10-18T18:50:00.000Z","reihung":false},"departure":{"platform":"Fern 5","scheduledTime":"2023-10-18T18:51:00.000Z","time":"2023-10-18T18:51:00.000Z","reihung":false},"auslastung":{"first":1,"second":1}},{"station":{"evaNumber":"8000244","name":"Mannheim Hbf","coordinates":{"lng":8.469268,"lat":49.479181},"ril100":"RM"},"arrival":{"platform":"5","scheduledTime":"2023-10-18T19:24:00.000Z","time":"2023-10-18T19:24:00.000Z","reihung":false},"departure":{"platform":"5","scheduledTime":"2023-10-18T19:31:00.000Z","time":"2023-10-18T19:31:00.000Z","reihung":false},"auslastung":{"first":1,"second":1}},{"station":{"evaNumber":"8000096","name":"Stuttgart Hbf","coordinates":{"lng":9.182589,"lat":48.785052},"ril100":"TS"},"arrival":{"platform":"16","scheduledTime":"2023-10-18T20:08:00.000Z","time":"2023-10-18T20:08:00.000Z","reihung":false}}],"finalDestination":"Köln Hbf","jid":"1|207284|0|80|18102023","auslastung":{"first":1,"second":2},"messages":[{"type":"A","code":"CK","prio":200,"icoX":3,"txtN":"Sicher & kontaktlos ohne Ticketkontrolle reisen mit Komfort Check-in"},{"type":"A","code":"FR","prio":260,"icoX":4,"txtN":"Fahrradmitnahme reservierungspflichtig"},{"type":"A","code":"FB","prio":260,"icoX":5,"txtN":"Fahrradmitnahme begrenzt möglich"},{"type":"A","code":"BR","prio":450,"icoX":6,"txtN":"Bordrestaurant"},{"type":"A","code":"EH","prio":560,"icoX":3,"txtN":"Fahrzeuggebundene Einstiegshilfe vorhanden"},{"type":"A","code":"text.journeystop.product.or.direction.changes.journey.message","icoX":3,"txtN":"Verkehrt ab Bremen Hbf als ICE 615 in Richtung München Hbf"}],"type":"JNY"},{"arrival":{"platform":"4","scheduledTime":"2023-10-18T20:48:00.000Z","time":"2023-10-18T20:48:00.000Z","reihung":false},"departure":{"platform":"3","scheduledTime":"2023-10-18T20:17:00.000Z","time":"2023-10-18T20:17:00.000Z","reihung":false},"duration":1860000,"train":{"name":"RB 14a","line":"14a","admin":"8006D6","number":"17677","type":"RB","operator":{"name":"DB Regio AG Baden-Württemberg","icoX":20}},"changeDuration":30,"segmentStart":{"name":"Stuttgart Hbf","evaNumber":"8000096"},"segmentDestination":{"name":"Herrenberg","evaNumber":"8002785"},"stops":[{"station":{"evaNumber":"8000096","name":"Stuttgart Hbf","coordinates":{"lng":9.182589,"lat":48.785052},"ril100":"TS"},"departure":{"platform":"3","scheduledTime":"2023-10-18T20:17:00.000Z","time":"2023-10-18T20:17:00.000Z","reihung":false}},{"station":{"evaNumber":"8001055","name":"Böblingen","coordinates":{"lng":9.004432,"lat":48.687888},"ril100":"TBO"},"arrival":{"platform":"5","scheduledTime":"2023-10-18T20:38:00.000Z","time":"2023-10-18T20:38:00.000Z","reihung":false},"departure":{"platform":"5","scheduledTime":"2023-10-18T20:39:00.000Z","time":"2023-10-18T20:39:00.000Z","reihung":false}},{"station":{"evaNumber":"8002785","name":"Herrenberg","coordinates":{"lng":8.862861,"lat":48.594139},"ril100":"THE"},"arrival":{"platform":"4","scheduledTime":"2023-10-18T20:48:00.000Z","time":"2023-10-18T20:48:00.000Z","reihung":false}}],"finalDestination":"Eutingen im Gäu","jid":"1|1614185|0|80|18102023","messages":[{"type":"A","code":"FB","prio":260,"icoX":5,"txtN":"Fahrradmitnahme begrenzt möglich"},{"type":"A","code":"EH","prio":560,"icoX":3,"txtN":"Fahrzeuggebundene Einstiegshilfe vorhanden"}],"type":"JNY"},{"arrival":{"platform":"1","scheduledTime":"2023-10-18T21:44:00.000Z","time":"2023-10-18T21:44:00.000Z","reihung":false},"departure":{"platform":"102","scheduledTime":"2023-10-18T21:18:00.000Z","time":"2023-10-18T21:18:00.000Z","reihung":false},"duration":1560000,"train":{"name":"RB 63","line":"63","admin":"8006D2","number":"22884","type":"RB","operator":{"name":"DB Regio AG Baden-Württemberg","icoX":20}},"segmentStart":{"name":"Herrenberg","evaNumber":"8002785"},"segmentDestination":{"name":"Tübingen Hbf","evaNumber":"8000141"},"stops":[{"station":{"evaNumber":"8002785","name":"Herrenberg","coordinates":{"lng":8.862861,"lat":48.594139},"ril100":"THE"},"departure":{"platform":"102","scheduledTime":"2023-10-18T21:18:00.000Z","time":"2023-10-18T21:18:00.000Z","reihung":false}},{"station":{"evaNumber":"8070604","name":"Gültstein","coordinates":{"lng":8.8819,"lat":48.57741}},"arrival":{"scheduledTime":"2023-10-18T21:22:00.000Z","time":"2023-10-18T21:22:00.000Z","reihung":false},"departure":{"scheduledTime":"2023-10-18T21:23:00.000Z","time":"2023-10-18T21:23:00.000Z","reihung":false}},{"station":{"evaNumber":"8070591","name":"Altingen(Württ)","coordinates":{"lng":8.908948,"lat":48.561958},"ril100":"TAG"},"arrival":{"scheduledTime":"2023-10-18T21:26:00.000Z","time":"2023-10-18T21:26:00.000Z","reihung":false},"departure":{"scheduledTime":"2023-10-18T21:27:00.000Z","time":"2023-10-18T21:27:00.000Z","reihung":false}},{"station":{"evaNumber":"8001802","name":"Entringen","coordinates":{"lng":8.962893,"lat":48.552132}},"arrival":{"scheduledTime":"2023-10-18T21:30:00.000Z","time":"2023-10-18T21:30:00.000Z","reihung":false},"departure":{"scheduledTime":"2023-10-18T21:31:00.000Z","time":"2023-10-18T21:31:00.000Z","reihung":false}},{"station":{"evaNumber":"8004778","name":"Pfäffingen","coordinates":{"lng":8.964556,"lat":48.532257},"ril100":"TPG"},"arrival":{"scheduledTime":"2023-10-18T21:34:00.000Z","time":"2023-10-18T21:34:00.000Z","reihung":false},"departure":{"scheduledTime":"2023-10-18T21:34:00.000Z","time":"2023-10-18T21:34:00.000Z","reihung":false}},{"station":{"evaNumber":"8006002","name":"Unterjesingen Mitte","coordinates":{"lng":8.98168,"lat":48.524697},"ril100":"TUJM"},"arrival":{"scheduledTime":"2023-10-18T21:36:00.000Z","time":"2023-10-18T21:36:00.000Z","reihung":false},"departure":{"scheduledTime":"2023-10-18T21:36:00.000Z","time":"2023-10-18T21:36:00.000Z","reihung":false}},{"station":{"evaNumber":"8006003","name":"Unterjesingen Sandäcker","coordinates":{"lng":8.98826,"lat":48.523304},"ril100":"TUJS"},"arrival":{"scheduledTime":"2023-10-18T21:37:00.000Z","time":"2023-10-18T21:37:00.000Z","reihung":false},"departure":{"scheduledTime":"2023-10-18T21:38:00.000Z","time":"2023-10-18T21:38:00.000Z","reihung":false}},{"station":{"evaNumber":"8005916","name":"Tübingen West","coordinates":{"lng":9.038168,"lat":48.520023},"ril100":"TTW"},"arrival":{"scheduledTime":"2023-10-18T21:41:00.000Z","time":"2023-10-18T21:41:00.000Z","reihung":false},"departure":{"scheduledTime":"2023-10-18T21:42:00.000Z","time":"2023-10-18T21:42:00.000Z","reihung":false}},{"station":{"evaNumber":"8000141","name":"Tübingen Hbf","coordinates":{"lng":9.056003,"lat":48.515663},"ril100":"TT"},"arrival":{"platform":"1","scheduledTime":"2023-10-18T21:44:00.000Z","time":"2023-10-18T21:44:00.000Z","reihung":false}}],"finalDestination":"Metzingen(Württ)","jid":"1|260872|0|80|18102023","messages":[{"type":"A","code":"FB","prio":260,"icoX":5,"txtN":"Fahrradmitnahme begrenzt möglich"},{"type":"A","code":"K2","prio":300,"icoX":21,"txtN":"nur 2. Klasse"},{"type":"A","code":"EH","prio":560,"icoX":3,"txtN":"Fahrzeuggebundene Einstiegshilfe vorhanden"}],"type":"JNY"}],"segmentTypes":["ICE","RB","RB"]},{"checksum":"fc6b5a45_3","cid":"C-6","date":"2023-10-17T22:00:00.000Z","duration":29280000,"changes":1,"isRideable":true,"arrival":{"platform":"3","scheduledTime":"2023-10-18T21:53:00.000Z","time":"2023-10-18T21:53:00.000Z","reihung":false},"departure":{"platform":"14","scheduledTime":"2023-10-18T13:45:00.000Z","time":"2023-10-18T13:45:00.000Z","reihung":false},"segments":[{"arrival":{"platform":"16","scheduledTime":"2023-10-18T20:08:00.000Z","time":"2023-10-18T20:08:00.000Z","reihung":false},"departure":{"platform":"14","scheduledTime":"2023-10-18T13:45:00.000Z","time":"2023-10-18T13:45:00.000Z","reihung":false},"duration":22980000,"train":{"name":"ICE 615","line":"42","admin":"80","number":"615","type":"ICE","operator":{"name":"DB Fernverkehr AG","icoX":1}},"changeDuration":44,"segmentStart":{"name":"Hamburg Hbf","evaNumber":"8002549"},"segmentDestination":{"name":"Stuttgart Hbf","evaNumber":"8000096"},"stops":[{"station":{"evaNumber":"8002549","name":"Hamburg Hbf","coordinates":{"lng":10.00636,"lat":53.553533},"ril100":"AH"},"departure":{"platform":"14","scheduledTime":"2023-10-18T13:45:00.000Z","time":"2023-10-18T13:45:00.000Z","reihung":false},"messages":[{"type":"A","code":"text.journeystop.product.or.direction.changes.stop.message","icoX":3,"txtN":"Verkehrt ab hier als ICE 615 in Richtung Köln Hbf"}]},{"station":{"evaNumber":"8000147","name":"Hamburg-Harburg","coordinates":{"lng":9.991591,"lat":53.456198},"ril100":"AHAR"},"departure":{"platform":"3","scheduledTime":"2023-10-18T13:58:00.000Z","time":"2023-10-18T13:58:00.000Z","reihung":false},"auslastung":{"first":1,"second":2}},{"station":{"evaNumber":"8000050","name":"Bremen Hbf","coordinates":{"lng":8.813681,"lat":53.08328},"ril100":"HB"},"arrival":{"platform":"7","scheduledTime":"2023-10-18T14:41:00.000Z","time":"2023-10-18T14:41:00.000Z","reihung":false},"departure":{"platform":"7","scheduledTime":"2023-10-18T14:44:00.000Z","time":"2023-10-18T14:44:00.000Z","reihung":false},"auslastung":{"first":1,"second":2},"messages":[{"type":"A","code":"text.journeystop.product.or.direction.changes.stop.message","icoX":3,"txtN":"Verkehrt ab hier als ICE 615 in Richtung München Hbf"}]},{"station":{"evaNumber":"8000294","name":"Osnabrück Hbf","coordinates":{"lng":8.061256,"lat":52.272534},"ril100":"HO"},"arrival":{"platform":"2","scheduledTime":"2023-10-18T15:35:00.000Z","time":"2023-10-18T15:35:00.000Z","reihung":false},"departure":{"platform":"2","scheduledTime":"2023-10-18T15:37:00.000Z","time":"2023-10-18T15:37:00.000Z","reihung":false},"auslastung":{"first":1,"second":1}},{"station":{"evaNumber":"8000263","name":"Münster(Westf)Hbf","coordinates":{"lng":7.63586,"lat":51.956527},"ril100":"EMST"},"arrival":{"platform":"9","scheduledTime":"2023-10-18T16:00:00.000Z","time":"2023-10-18T16:00:00.000Z","reihung":false},"departure":{"platform":"9","scheduledTime":"2023-10-18T16:02:00.000Z","time":"2023-10-18T16:02:00.000Z","reihung":false},"auslastung":{"first":1,"second":1}},{"station":{"evaNumber":"8000080","name":"Dortmund Hbf","coordinates":{"lng":7.459276,"lat":51.517872},"ril100":"EDO"},"arrival":{"platform":"11","scheduledTime":"2023-10-18T16:32:00.000Z","time":"2023-10-18T16:32:00.000Z","reihung":false},"departure":{"platform":"11","scheduledTime":"2023-10-18T16:36:00.000Z","time":"2023-10-18T16:36:00.000Z","reihung":false},"auslastung":{"first":1,"second":1}},{"station":{"evaNumber":"8000142","name":"Hagen Hbf","coordinates":{"lng":7.460391,"lat":51.362727},"ril100":"EHG"},"arrival":{"platform":"7/8","scheduledTime":"2023-10-18T16:55:00.000Z","time":"2023-10-18T16:55:00.000Z","reihung":false},"departure":{"platform":"7/8","scheduledTime":"2023-10-18T16:57:00.000Z","time":"2023-10-18T16:57:00.000Z","reihung":false},"auslastung":{"first":1,"second":1}},{"station":{"evaNumber":"8000266","name":"Wuppertal Hbf","coordinates":{"lng":7.150155,"lat":51.254443},"ril100":"KW"},"arrival":{"platform":"1","scheduledTime":"2023-10-18T17:12:00.000Z","time":"2023-10-18T17:12:00.000Z","reihung":false},"departure":{"platform":"1","scheduledTime":"2023-10-18T17:14:00.000Z","time":"2023-10-18T17:14:00.000Z","reihung":false},"auslastung":{"first":1,"second":1}},{"station":{"evaNumber":"8000087","name":"Solingen Hbf","coordinates":{"lng":7.004287,"lat":51.160784},"ril100":"KSO"},"arrival":{"platform":"1","scheduledTime":"2023-10-18T17:26:00.000Z","time":"2023-10-18T17:26:00.000Z","reihung":false},"departure":{"platform":"1","scheduledTime":"2023-10-18T17:27:00.000Z","time":"2023-10-18T17:27:00.000Z","reihung":false},"auslastung":{"first":1,"second":1}},{"station":{"evaNumber":"8000207","name":"Köln Hbf","coordinates":{"lng":6.959197,"lat":50.942823},"ril100":"KK"},"arrival":{"platform":"6","scheduledTime":"2023-10-18T17:47:00.000Z","time":"2023-10-18T17:47:00.000Z","reihung":false},"departure":{"platform":"6","scheduledTime":"2023-10-18T17:55:00.000Z","time":"2023-10-18T17:55:00.000Z","reihung":false},"auslastung":{"first":1,"second":1}},{"station":{"evaNumber":"8070003","name":"Frankfurt(M) Flughafen Fernbf","coordinates":{"lng":8.569776,"lat":50.052926},"ril100":"FFLF"},"arrival":{"platform":"Fern 5","scheduledTime":"2023-10-18T18:50:00.000Z","time":"2023-10-18T18:50:00.000Z","reihung":false},"departure":{"platform":"Fern 5","scheduledTime":"2023-10-18T18:51:00.000Z","time":"2023-10-18T18:51:00.000Z","reihung":false},"auslastung":{"first":1,"second":1}},{"station":{"evaNumber":"8000244","name":"Mannheim Hbf","coordinates":{"lng":8.469268,"lat":49.479181},"ril100":"RM"},"arrival":{"platform":"5","scheduledTime":"2023-10-18T19:24:00.000Z","time":"2023-10-18T19:24:00.000Z","reihung":false},"departure":{"platform":"5","scheduledTime":"2023-10-18T19:31:00.000Z","time":"2023-10-18T19:31:00.000Z","reihung":false},"auslastung":{"first":1,"second":1}},{"station":{"evaNumber":"8000096","name":"Stuttgart Hbf","coordinates":{"lng":9.182589,"lat":48.785052},"ril100":"TS"},"arrival":{"platform":"16","scheduledTime":"2023-10-18T20:08:00.000Z","time":"2023-10-18T20:08:00.000Z","reihung":false}}],"finalDestination":"Köln Hbf","jid":"1|207284|0|80|18102023","auslastung":{"first":1,"second":2},"messages":[{"type":"A","code":"CK","prio":200,"icoX":3,"txtN":"Sicher & kontaktlos ohne Ticketkontrolle reisen mit Komfort Check-in"},{"type":"A","code":"FR","prio":260,"icoX":4,"txtN":"Fahrradmitnahme reservierungspflichtig"},{"type":"A","code":"FB","prio":260,"icoX":5,"txtN":"Fahrradmitnahme begrenzt möglich"},{"type":"A","code":"BR","prio":450,"icoX":6,"txtN":"Bordrestaurant"},{"type":"A","code":"EH","prio":560,"icoX":3,"txtN":"Fahrzeuggebundene Einstiegshilfe vorhanden"},{"type":"A","code":"text.journeystop.product.or.direction.changes.journey.message","icoX":3,"txtN":"Verkehrt ab Bremen Hbf als ICE 615 in Richtung München Hbf"}],"type":"JNY"},{"arrival":{"platform":"3","scheduledTime":"2023-10-18T21:53:00.000Z","time":"2023-10-18T21:53:00.000Z","reihung":false},"departure":{"platform":"16","scheduledTime":"2023-10-18T20:52:00.000Z","time":"2023-10-18T20:52:00.000Z","reihung":false},"duration":3660000,"train":{"name":"MEX 12","line":"12","admin":"SBSMEX","number":"19367","type":"MEX","operator":{"name":"SWEG Bahn Stuttgart GmbH","icoX":8}},"segmentStart":{"name":"Stuttgart Hbf","evaNumber":"8000096"},"segmentDestination":{"name":"Tübingen Hbf","evaNumber":"8000141"},"stops":[{"station":{"evaNumber":"8000096","name":"Stuttgart Hbf","coordinates":{"lng":9.182589,"lat":48.785052},"ril100":"TS"},"departure":{"platform":"16","scheduledTime":"2023-10-18T20:52:00.000Z","time":"2023-10-18T20:52:00.000Z","reihung":false}},{"station":{"evaNumber":"8005769","name":"Stuttgart-Bad Cannstatt","coordinates":{"lng":9.217512,"lat":48.801295},"ril100":"TSC"},"arrival":{"platform":"8","scheduledTime":"2023-10-18T20:55:00.000Z","time":"2023-10-18T20:55:00.000Z","reihung":false},"departure":{"platform":"8","scheduledTime":"2023-10-18T20:56:00.000Z","time":"2023-10-18T20:56:00.000Z","reihung":false}},{"station":{"evaNumber":"8001920","name":"Esslingen(Neckar)","coordinates":{"lng":9.299952,"lat":48.738695},"ril100":"TE"},"arrival":{"platform":"6","scheduledTime":"2023-10-18T21:02:00.000Z","time":"2023-10-18T21:02:00.000Z","reihung":false},"departure":{"platform":"6","scheduledTime":"2023-10-18T21:03:00.000Z","time":"2023-10-18T21:03:00.000Z","reihung":false}},{"station":{"evaNumber":"8000302","name":"Plochingen","coordinates":{"lng":9.411113,"lat":48.712869},"ril100":"TP"},"arrival":{"platform":"9","scheduledTime":"2023-10-18T21:11:00.000Z","time":"2023-10-18T21:11:00.000Z","reihung":false},"departure":{"platform":"9","scheduledTime":"2023-10-18T21:12:00.000Z","time":"2023-10-18T21:12:00.000Z","reihung":false}},{"station":{"evaNumber":"8006331","name":"Wendlingen(Neckar)","coordinates":{"lng":9.373187,"lat":48.672588},"ril100":"TWD"},"arrival":{"platform":"2","scheduledTime":"2023-10-18T21:18:00.000Z","time":"2023-10-18T21:18:00.000Z","reihung":false},"departure":{"platform":"2","scheduledTime":"2023-10-18T21:18:00.000Z","time":"2023-10-18T21:18:00.000Z","reihung":false}},{"station":{"evaNumber":"8004517","name":"Oberboihingen","coordinates":{"lng":9.364279,"lat":48.647921},"ril100":"TOBB"},"arrival":{"platform":"2","scheduledTime":"2023-10-18T21:21:00.000Z","time":"2023-10-18T21:21:00.000Z","reihung":false},"departure":{"platform":"2","scheduledTime":"2023-10-18T21:21:00.000Z","time":"2023-10-18T21:21:00.000Z","reihung":false}},{"station":{"evaNumber":"8004488","name":"Nürtingen","coordinates":{"lng":9.342678,"lat":48.628082},"ril100":"TNU"},"arrival":{"platform":"1","scheduledTime":"2023-10-18T21:24:00.000Z","time":"2023-10-18T21:24:00.000Z","reihung":false},"departure":{"platform":"1","scheduledTime":"2023-10-18T21:24:00.000Z","time":"2023-10-18T21:24:00.000Z","reihung":false}},{"station":{"evaNumber":"8000865","name":"Bempflingen","coordinates":{"lng":9.273434,"lat":48.572583},"ril100":"TBEM"},"arrival":{"platform":"1","scheduledTime":"2023-10-18T21:31:00.000Z","time":"2023-10-18T21:31:00.000Z","reihung":false},"departure":{"platform":"1","scheduledTime":"2023-10-18T21:31:00.000Z","time":"2023-10-18T21:31:00.000Z","reihung":false}},{"station":{"evaNumber":"8004009","name":"Metzingen(Württ)","coordinates":{"lng":9.290127,"lat":48.539754},"ril100":"TME"},"arrival":{"platform":"2","scheduledTime":"2023-10-18T21:34:00.000Z","time":"2023-10-18T21:34:00.000Z","reihung":false},"departure":{"platform":"2","scheduledTime":"2023-10-18T21:35:00.000Z","time":"2023-10-18T21:35:00.000Z","reihung":false}},{"station":{"evaNumber":"8000314","name":"Reutlingen Hbf","coordinates":{"lng":9.209188,"lat":48.496049},"ril100":"TRE"},"arrival":{"platform":"2","scheduledTime":"2023-10-18T21:41:00.000Z","time":"2023-10-18T21:41:00.000Z","reihung":false},"departure":{"platform":"2","scheduledTime":"2023-10-18T21:42:00.000Z","time":"2023-10-18T21:42:00.000Z","reihung":false}},{"station":{"evaNumber":"8000141","name":"Tübingen Hbf","coordinates":{"lng":9.056003,"lat":48.515663},"ril100":"TT"},"arrival":{"platform":"3","scheduledTime":"2023-10-18T21:53:00.000Z","time":"2023-10-18T21:53:00.000Z","reihung":false}}],"finalDestination":"Tübingen Hbf","jid":"1|1119322|0|80|18102023","messages":[{"type":"A","code":"FB","prio":260,"icoX":5,"txtN":"Fahrradmitnahme begrenzt möglich"},{"type":"A","code":"EH","prio":560,"icoX":3,"txtN":"Fahrzeuggebundene Einstiegshilfe vorhanden"},{"type":"A","code":"EA","prio":560,"icoX":3,"txtN":"Behindertengerechte Ausstattung"},{"type":"A","code":"KL","prio":610,"icoX":3,"txtN":"Klimaanlage"}],"type":"JNY"}],"segmentTypes":["ICE","MEX"]},{"checksum":"f4f0f2a4_3","cid":"C-7","date":"2023-10-17T22:00:00.000Z","duration":26400000,"changes":3,"isRideable":true,"arrival":{"platform":"1","scheduledTime":"2023-10-18T21:44:00.000Z","time":"2023-10-18T21:44:00.000Z","reihung":false},"departure":{"platform":"14","scheduledTime":"2023-10-18T14:24:00.000Z","time":"2023-10-18T14:24:00.000Z","reihung":false},"segments":[{"arrival":{"platform":"4","scheduledTime":"2023-10-18T19:27:00.000Z","time":"2023-10-18T19:27:00.000Z","reihung":false},"departure":{"platform":"14","scheduledTime":"2023-10-18T14:24:00.000Z","time":"2023-10-18T14:24:00.000Z","reihung":false},"duration":18180000,"train":{"name":"ICE 377","line":"12","admin":"80","number":"377","type":"ICE","operator":{"name":"DB Fernverkehr AG","icoX":1}},"changeDuration":4,"segmentStart":{"name":"Hamburg Hbf","evaNumber":"8002549"},"segmentDestination":{"name":"Mannheim Hbf","evaNumber":"8000244"},"stops":[{"station":{"evaNumber":"8002549","name":"Hamburg Hbf","coordinates":{"lng":10.00636,"lat":53.553533},"ril100":"AH"},"departure":{"platform":"14","scheduledTime":"2023-10-18T14:24:00.000Z","time":"2023-10-18T14:24:00.000Z","reihung":false},"auslastung":{"first":1,"second":1}},{"station":{"evaNumber":"8000152","name":"Hannover Hbf","coordinates":{"lng":9.741763,"lat":52.377079},"ril100":"HH"},"arrival":{"platform":"3","scheduledTime":"2023-10-18T15:38:00.000Z","time":"2023-10-18T15:38:00.000Z","reihung":false},"departure":{"platform":"3","scheduledTime":"2023-10-18T15:41:00.000Z","time":"2023-10-18T15:41:00.000Z","reihung":false},"auslastung":{"first":1,"second":1}},{"station":{"evaNumber":"8000128","name":"Göttingen","coordinates":{"lng":9.926257,"lat":51.536758},"ril100":"HG"},"arrival":{"platform":"10","scheduledTime":"2023-10-18T16:15:00.000Z","time":"2023-10-18T16:15:00.000Z","reihung":false},"departure":{"platform":"10","scheduledTime":"2023-10-18T16:16:00.000Z","time":"2023-10-18T16:16:00.000Z","reihung":false},"auslastung":{"first":1,"second":1}},{"station":{"evaNumber":"8003200","name":"Kassel-Wilhelmshöhe","coordinates":{"lng":9.446845,"lat":51.312998},"ril100":"FKW"},"arrival":{"platform":"2","scheduledTime":"2023-10-18T16:35:00.000Z","time":"2023-10-18T16:35:00.000Z","reihung":false},"departure":{"platform":"2","scheduledTime":"2023-10-18T16:37:00.000Z","time":"2023-10-18T16:37:00.000Z","reihung":false},"auslastung":{"first":1,"second":1}},{"station":{"evaNumber":"8000115","name":"Fulda","coordinates":{"lng":9.684178,"lat":50.554794},"ril100":"FFU"},"arrival":{"platform":"4","scheduledTime":"2023-10-18T17:46:00.000Z","time":"2023-10-18T17:46:00.000Z","reihung":false},"departure":{"platform":"4","scheduledTime":"2023-10-18T17:48:00.000Z","time":"2023-10-18T17:48:00.000Z","reihung":false},"auslastung":{"first":1,"second":1}},{"station":{"evaNumber":"8000150","name":"Hanau Hbf","coordinates":{"lng":8.92921,"lat":50.120903},"ril100":"FH"},"arrival":{"platform":"6","scheduledTime":"2023-10-18T18:26:00.000Z","time":"2023-10-18T18:26:00.000Z","reihung":false},"departure":{"platform":"6","scheduledTime":"2023-10-18T18:28:00.000Z","time":"2023-10-18T18:28:00.000Z","reihung":false},"auslastung":{"first":1,"second":1}},{"station":{"evaNumber":"8000105","name":"Frankfurt(Main)Hbf","coordinates":{"lng":8.663003,"lat":50.106817},"ril100":"FF"},"arrival":{"platform":"8","scheduledTime":"2023-10-18T18:44:00.000Z","time":"2023-10-18T18:44:00.000Z","reihung":false},"departure":{"platform":"8","scheduledTime":"2023-10-18T18:50:00.000Z","time":"2023-10-18T18:50:00.000Z","reihung":false},"auslastung":{"first":1,"second":1}},{"station":{"evaNumber":"8000244","name":"Mannheim Hbf","coordinates":{"lng":8.469268,"lat":49.479181},"ril100":"RM"},"arrival":{"platform":"4","scheduledTime":"2023-10-18T19:27:00.000Z","time":"2023-10-18T19:27:00.000Z","reihung":false}}],"finalDestination":"Basel SBB","jid":"1|204594|0|80|18102023","auslastung":{"first":1,"second":1},"messages":[{"type":"A","code":"CK","prio":200,"icoX":3,"txtN":"Sicher & kontaktlos ohne Ticketkontrolle reisen mit Komfort Check-in"},{"type":"A","code":"FR","prio":260,"icoX":4,"txtN":"Fahrradmitnahme reservierungspflichtig"},{"type":"A","code":"FB","prio":260,"icoX":5,"txtN":"Fahrradmitnahme begrenzt möglich"},{"type":"A","code":"BR","prio":450,"icoX":6,"txtN":"Bordrestaurant"},{"type":"A","code":"EH","prio":560,"icoX":3,"txtN":"Fahrzeuggebundene Einstiegshilfe vorhanden"}],"type":"JNY"},{"arrival":{"platform":"16","scheduledTime":"2023-10-18T20:08:00.000Z","time":"2023-10-18T20:08:00.000Z","reihung":false},"departure":{"platform":"5","scheduledTime":"2023-10-18T19:31:00.000Z","time":"2023-10-18T19:31:00.000Z","reihung":false},