{"context":{"earlier":"3|OB|MT#14#451592#451588#451661#451687#0#0#325#451576#1#0#192#0#0#-2147483648#1#2|PDH#bbe10b32f5270e429a5a473728022d1b|RD#18102023|RT#141653|US#0|RS#INIT","later":"3|OF|MT#14#451695#451695#451764#451764#0#0#325#451666#6#0#1275#0#0#-2147483648#1#2|PDH#bbe10b32f5270e429a5a473728022d1b|RD#18102023|RT#141653|US#0|RS#INIT"},"routes":[{"checksum":"019a7d04_3","cid":"C-0","date":"2023-10-17T22:00:00.000Z","duration":5940000,"changes":1,"isRideable":true,"arrival":{"platform":"9","scheduledTime":"2023-10-18T14:07:00.000Z","time":"2023-10-18T14:07:00.000Z","reihung":false},"departure":{"platform":"4","scheduledTime":"2023-10-18T12:28:00.000Z","time":"2023-10-18T12:28:00.000Z","reihung":false},"segments":[{"arrival":{"platform":"12","scheduledTime":"2023-10-18T12:42:00.000Z","time":"2023-10-18T12:42:00.000Z","reihung":false},"departure":{"platform":"4","scheduledTime":"2023-10-18T12:28:00.000Z","time":"2023-10-18T12:28:00.000Z","reihung":false},"duration":840000,"train":{"name":"S 3","line":"3","admin":"0S","number":"46343","type":"S","operator":{"name":"S-Bahn Hamburg","icoX":3}},"changeDuration":7,"segmentStart":{"name":"Hamburg Hbf (S-Bahn)","evaNumber":"8098549"},"segmentDestination":{"name":"Hamburg-Harburg(S)","evaNumber":"8098147"},"stops":[{"station":{"evaNumber":"8098549","name":"Hamburg Hbf (S-Bahn)","coordinates":{"lng":10.007781,"lat":53.552823},"ril100":"AHS"},"departure":{"platform":"4","scheduledTime":"2023-10-18T12:28:00.000Z","time":"2023-10-18T12:28:00.000Z","reihung":false}},{"station":{"evaNumber":"8004266","name":"Hamburg-Hammerbrook","coordinates":{"lng":10.02371,"lat":53.546449},"ril100":"AHAB"},"arrival":{"platform":"2","scheduledTime":"2023-10-18T12:30:00.000Z","time":"2023-10-18T12:30:00.000Z","reihung":false},"departure":{"platform":"2","scheduledTime":"2023-10-18T12:31:00.000Z","time":"2023-10-18T12:31:00.000Z","reihung":false}},{"station":{"evaNumber":"8002551","name":"Hamburg Elbbrücken","coordinates":{"lng":10.024662,"lat":53.534826},"ril100":"AELB"},"arrival":{"platform":"2","scheduledTime":"2023-10-18T12:32:00.000Z","time":"2023-10-18T12:32:00.000Z","reihung":false},"departure":{"platform":"2","scheduledTime":"2023-10-18T12:33:00.000Z","time":"2023-10-18T12:33:00.000Z","reihung":false}},{"station":{"evaNumber":"8006062","name":"Hamburg-Veddel","coordinates":{"lng":10.013453,"lat":53.521891},"ril100":"AVLS"},"arrival":{"platform":"2","scheduledTime":"2023-10-18T12:35:00.000Z","time":"2023-10-18T12:35:00.000Z","reihung":false},"departure":{"platform":"2","scheduledTime":"2023-10-18T12:35:00.000Z","time":"2023-10-18T12:35:00.000Z","reihung":false}},{"station":{"evaNumber":"8002561","name":"Hamburg-Wilhelmsburg","coordinates":{"lng":10.006909,"lat":53.498914},"ril100":"AWFS"},"arrival":{"platform":"2","scheduledTime":"2023-10-18T12:37:00.000Z","time":"2023-10-18T12:37:00.000Z","reihung":false},"departure":{"platform":"2","scheduledTime":"2023-10-18T12:38:00.000Z","time":"2023-10-18T12:38:00.000Z","reihung":false}},{"station":{"evaNumber":"8098147","name":"Hamburg-Harburg(S)","coordinates":{"lng":9.991852,"lat":53.456836},"ril100":"AHRS"},"arrival":{"platform":"12","scheduledTime":"2023-10-18T12:42:00.000Z","time":"2023-10-18T12:42:00.000Z","reihung":false}}],"finalDestination":"Stade","jid":"1|1635037|7|80|18102023","messages":[{"type":"A","code":"FB","prio":260,"icoX":5,"txtN":"Fahrradmitnahme begrenzt möglich"},{"type":"A","code":"FS","prio":260,"icoX":6,"txtN":"Bei Fahrradmitnahme Sperrzeiten beachten"},{"type":"A","code":"K2","prio":300,"icoX":7,"txtN":"nur 2. Klasse"},{"type":"A","code":"SI","prio":561,"icoX":6,"txtN":"Barrierefreier Zustieg an geeigneten Stationen möglich"},{"type":"A","code":"HM","prio":561,"icoX":6,"txtN":"Info www.hvv.de/de/service/mobilitaet-fuer-alle/uebersicht"}],"type":"JNY"},{"type":"WALK","train":{"name":"Fußweg","type":"Fußweg"},"arrival":{"scheduledTime":"2023-10-18T12:49:00.000Z","time":"2023-10-18T12:49:00.000Z","reihung":false},"departure":{"scheduledTime":"2023-10-18T12:42:00.000Z","time":"2023-10-18T12:42:00.000Z","reihung":false},"duration":420000,"segmentStart":{"evaNumber":"8098147","name":"Hamburg-Harburg(S)","coordinates":{"lng":9.991852,"lat":53.456836},"ril100":"AHRS"},"segmentDestination":{"evaNumber":"8000147","name":"Hamburg-Harburg","coordinates":{"lng":9.991591,"lat":53.456198},"ril100":"AHAR"}},{"arrival":{"platform":"9","scheduledTime":"2023-10-18T14:07:00.000Z","time":"2023-10-18T14:07:00.000Z","reihung":false},"departure":{"platform":"3","scheduledTime":"2023-10-18T12:49:00.000Z","time":"2023-10-18T12:49:00.000Z","reihung":false},"duration":4680000,"train":{"name":"ME RB41","line":"RB41","admin":"R1","number":"81927","type":"ME","operator":{"name":"metronom","icoX":10}},"segmentStart":{"name":"Hamburg-Harburg","evaNumber":"8000147"},"segmentDestination":{"name":"Bremen Hbf","evaNumber":"8000050"},"stops":[{"station":{"evaNumber":"8000147","name":"Hamburg-Harburg","coordinates":{"lng":9.991591,"lat":53.456198},"ril100":"AHAR"},"departure":{"platform":"3","scheduledTime":"2023-10-18T12:49:00.000Z","time":"2023-10-18T12:49:00.000Z","reihung":false}},{"station":{"evaNumber":"8002864","name":"Hittfeld","coordinates":{"lng":9.974476,"lat":53.40353},"ril100":"AHIF"},"arrival":{"platform":"2","scheduledTime":"2023-10-18T12:54:00.000Z","time":"2023-10-18T12:54:00.000Z","reihung":false},"departure":{"platform":"2","scheduledTime":"2023-10-18T12:55:00.000Z","time":"2023-10-18T12:55:00.000Z","reihung":false}},{"station":{"evaNumber":"8003309","name":"Klecken","coordinates":{"lng":9.928864,"lat":53.366},"ril100":"AKC"},"arrival":{"platform":"1","scheduledTime":"2023-10-18T12:59:00.000Z","time":"2023-10-18T12:59:00.000Z","reihung":false},"departure":{"platform":"1","scheduledTime":"2023-10-18T12:59:00.000Z","time":"2023-10-18T12:59:00.000Z","reihung":false}},{"station":{"evaNumber":"8000056","name":"Buchholz(Nordheide)","coordinates":{"lng":9.876206,"lat":53.324649},"ril100":"ABLZ"},"arrival":{"platform":"6","scheduledTime":"2023-10-18T13:04:00.000Z","time":"2023-10-18T13:04:00.000Z","reihung":false},"departure":{"platform":"6","scheduledTime":"2023-10-18T13:05:00.000Z","time":"2023-10-18T13:05:00.000Z","reihung":false}},{"station":{"evaNumber":"8005640","name":"Sprötze","coordinates":{"lng":9.812562,"lat":53.309583},"ril100":"ASP"},"arrival":{"platform":"2","scheduledTime":"2023-10-18T13:08:00.000Z","time":"2023-10-18T13:08:00.000Z","reihung":false},"departure":{"platform":"2","scheduledTime":"2023-10-18T13:09:00.000Z","time":"2023-10-18T13:09:00.000Z","reihung":false}},{"station":{"evaNumber":"8005888","name":"Tostedt","coordinates":{"lng":9.732055,"lat":53.272018},"ril100":"ATST"},"arrival":{"platform":"3","scheduledTime":"2023-10-18T13:15:00.000Z","time":"2023-10-18T13:15:00.000Z","reihung":false},"departure":{"platform":"3","scheduledTime":"2023-10-18T13:15:00.000Z","time":"2023-10-18T13:15:00.000Z","reihung":false}},{"station":{"evaNumber":"8003576","name":"Lauenbrück","coordinates":{"lng":9.563174,"lat":53.196841},"ril100":"ALUB"},"arrival":{"platform":"3","scheduledTime":"2023-10-18T13:22:00.000Z","time":"2023-10-18T13:22:00.000Z","reihung":false},"departure":{"platform":"3","scheduledTime":"2023-10-18T13:23:00.000Z","time":"2023-10-18T13:23:00.000Z","reihung":false}},{"station":{"evaNumber":"8005330","name":"Scheeßel","coordinates":{"lng":9.497823,"lat":53.166457},"ril100":"ASL"},"arrival":{"platform":"3","scheduledTime":"2023-10-18T13:27:00.000Z","time":"2023-10-18T13:27:00.000Z","reihung":false},"departure":{"platform":"3","scheduledTime":"2023-10-18T13:27:00.000Z","time":"2023-10-18T13:27:00.000Z","reihung":false}},{"station":{"evaNumber":"8000321","name":"Rotenburg(Wümme)","coordinates":{"lng":9.389925,"lat":53.112432},"ril100":"AROG"},"arrival":{"platform":"5","scheduledTime":"2023-10-18T13:33:00.000Z","time":"2023-10-18T13:33:00.000Z","reihung":false},"departure":{"platform":"5","scheduledTime":"2023-10-18T13:34:00.000Z","time":"2023-10-18T13:34:00.000Z","reihung":false}},{"station":{"evaNumber":"8005613","name":"Sottrum","coordinates":{"lng":9.250071,"lat":53.101294},"ril100":"AS"},"arrival":{"platform":"1","scheduledTime":"2023-10-18T13:41:00.000Z","time":"2023-10-18T13:41:00.000Z","reihung":false},"departure":{"platform":"1","scheduledTime":"2023-10-18T13:41:00.000Z","time":"2023-10-18T13:41:00.000Z","reihung":false}},{"station":{"evaNumber":"8004728","name":"Ottersberg(Han)","coordinates":{"lng":9.133157,"lat":53.09689},"ril100":"AOBG"},"arrival":{"platform":"1","scheduledTime":"2023-10-18T13:46:00.000Z","time":"2023-10-18T13:46:00.000Z","reihung":false},"departure":{"platform":"1","scheduledTime":"2023-10-18T13:46:00.000Z","time":"2023-10-18T13:46:00.000Z","reihung":false}},{"station":{"evaNumber":"8005256","name":"Sagehorn","coordinates":{"lng":9.010014,"lat":53.082534},"ril100":"ASAG"},"arrival":{"platform":"1","scheduledTime":"2023-10-18T13:51:00.000Z","time":"2023-10-18T13:51:00.000Z","reihung":false},"departure":{"platform":"1","scheduledTime":"2023-10-18T13:52:00.000Z","time":"2023-10-18T13:52:00.000Z","reihung":false}},{"station":{"evaNumber":"8001161","name":"Bremen-Oberneuland","coordinates":{"lng":8.938001,"lat":53.087154},"ril100":"HBON"},"arrival":{"platform":"2","scheduledTime":"2023-10-18T13:56:00.000Z","time":"2023-10-18T13:56:00.000Z","reihung":false},"departure":{"platform":"2","scheduledTime":"2023-10-18T13:56:00.000Z","time":"2023-10-18T13:56:00.000Z","reihung":false}},{"station":{"evaNumber":"8000050","name":"Bremen Hbf","coordinates":{"lng":8.813681,"lat":53.08328},"ril100":"HB"},"arrival":{"platform":"9","scheduledTime":"2023-10-18T14:07:00.000Z","time":"2023-10-18T14:07:00.000Z","reihung":false}}],"finalDestination":"Bremen Hbf","jid":"1|302043|0|80|18102023","messages":[{"type":"A","code":"FB","prio":260,"icoX":5,"txtN":"Fahrradmitnahme begrenzt möglich"},{"type":"A","code":"RO","prio":560,"icoX":13,"txtN":"Rollstuhlstellplatz"}],"type":"JNY"}],"segmentTypes":["S","Fußweg","ME"]},{"checksum":"69a62651_3","cid":"C-1","date":"2023-10-17T22:00:00.000Z","duration":4140000,"changes":1,"isRideable":true,"arrival":{"platform":"8","scheduledTime":"2023-10-18T13:41:00.000Z","time":"2023-10-18T13:41:00.000Z","reihung":false},"departure":{"platform":"4","scheduledTime":"2023-10-18T12:32:00.000Z","time":"2023-10-18T12:32:00.000Z","reihung":false},"segments":[{"arrival":{"platform":"12","scheduledTime":"2023-10-18T12:46:00.000Z","time":"2023-10-18T12:46:00.000Z","reihung":false},"departure":{"platform":"4","scheduledTime":"2023-10-18T12:32:00.000Z","time":"2023-10-18T12:32:00.000Z","reihung":false},"duration":840000,"train":{"name":"S 31","line":"31","admin":"0S","number":"46345","type":"S","operator":{"name":"S-Bahn Hamburg","icoX":3}},"changeDuration":12,"segmentStart":{"name":"Hamburg Hbf (S-Bahn)","evaNumber":"8098549"},"segmentDestination":{"name":"Hamburg-Harburg(S)","evaNumber":"8098147"},"stops":[{"station":{"evaNumber":"8098549","name":"Hamburg Hbf (S-Bahn)","coordinates":{"lng":10.007781,"lat":53.552823},"ril100":"AHS"},"departure":{"platform":"4","scheduledTime":"2023-10-18T12:32:00.000Z","time":"2023-10-18T12:32:00.000Z","reihung":false}},{"station":{"evaNumber":"8004266","name":"Hamburg-Hammerbrook","coordinates":{"lng":10.02371,"lat":53.546449},"ril100":"AHAB"},"arrival":{"platform":"2","scheduledTime":"2023-10-18T12:34:00.000Z","time":"2023-10-18T12:34:00.000Z","reihung":false},"departure":{"platform":"2","scheduledTime":"2023-10-18T12:35:00.000Z","time":"2023-10-18T12:35:00.000Z","reihung":false}},{"station":{"evaNumber":"8002551","name":"Hamburg Elbbrücken","coordinates":{"lng":10.024662,"lat":53.534826},"ril100":"AELB"},"arrival":{"platform":"2","scheduledTime":"2023-10-18T12:36:00.000Z","time":"2023-10-18T12:36:00.000Z","reihung":false},"departure":{"platform":"2","scheduledTime":"2023-10-18T12:37:00.000Z","time":"2023-10-18T12:37:00.000Z","reihung":false}},{"station":{"evaNumber":"8006062","name":"Hamburg-Veddel","coordinates":{"lng":10.013453,"lat":53.521891},"ril100":"AVLS"},"arrival":{"platform":"2","scheduledTime":"2023-10-18T12:39:00.000Z","time":"2023-10-18T12:39:00.000Z","reihung":false},"departure":{"platform":"2","scheduledTime":"2023-10-18T12:39:00.000Z","time":"2023-10-18T12:39:00.000Z","reihung":false}},{"station":{"evaNumber":"8002561","name":"Hamburg-Wilhelmsburg","coordinates":{"lng":10.006909,"lat":53.498914},"ril100":"AWFS"},"arrival":{"platform":"2","scheduledTime":"2023-10-18T12:41:00.000Z","time":"2023-10-18T12:41:00.000Z","reihung":false},"departure":{"platform":"2","scheduledTime":"2023-10-18T12:42:00.000Z","time":"2023-10-18T12:42:00.000Z","reihung":false}},{"station":{"evaNumber":"8098147","name":"Hamburg-Harburg(S)","coordinates":{"lng":9.991852,"lat":53.456836},"ril100":"AHRS"},"arrival":{"platform":"12","scheduledTime":"2023-10-18T12:46:00.000Z","time":"2023-10-18T12:46:00.000Z","reihung":false}}],"finalDestination":"Hamburg-Neugraben","jid":"1|321684|49|80|18102023","messages":[{"type":"A","code":"FB","prio":260,"icoX":5,"txtN":"Fahrradmitnahme begrenzt möglich"},{"type":"A","code":"FS","prio":260,"icoX":6,"txtN":"Bei Fahrradmitnahme Sperrzeiten beachten"},{"type":"A","code":"K2","prio":300,"icoX":7,"txtN":"nur 2. Klasse"},{"type":"A","code":"SI","prio":561,"icoX":6,"txtN":"Barrierefreier Zustieg an geeigneten Stationen möglich"},{"type":"A","code":"HM","prio":561,"icoX":6,"txtN":"Info www.hvv.de/de/service/mobilitaet-fuer-alle/uebersicht"}],"type":"JNY"},{"type":"WALK","train":{"name":"Fußweg","type":"Fußweg"},"arrival":{"scheduledTime":"2023-10-18T12:53:00.000Z","time":"2023-10-18T12:53:00.000Z","reihung":false},"departure":{"scheduledTime":"2023-10-18T12:46:00.000Z","time":"2023-10-18T12:46:00.000Z","reihung":false},"duration":420000,"segmentStart":{"evaNumber":"8098147","name":"Hamburg-Harburg(S)","coordinates":{"lng":9.991852,"lat":53.456836},"ril100":"AHRS"},"segmentDestination":{"evaNumber":"8000147","name":"Hamburg-Harburg","coordinates":{"lng":9.991591,"lat":53.456198},"ril100":"AHAR"}},{"arrival":{"platform":"8","scheduledTime":"2023-10-18T13:41:00.000Z","time":"2023-10-18T13:41:00.000Z","reihung":false},"departure":{"platform":"3","scheduledTime":"2023-10-18T12:58:00.000Z","time":"2023-10-18T12:58:00.000Z","reihung":false},"duration":2580000,"train":{"name":"IC 2213","line":"43","admin":"80","number":"2213","type":"IC","operator":{"name":"DB Fernverkehr AG","icoX":14}},"segmentStart":{"name":"Hamburg-Harburg","evaNumber":"8000147"},"segmentDestination":{"name":"Bremen Hbf","evaNumber":"8000050"},"stops":[{"station":{"evaNumber":"8000147","name":"Hamburg-Harburg","coordinates":{"lng":9.991591,"lat":53.456198},"ril100":"AHAR"},"departure":{"platform":"3","scheduledTime":"2023-10-18T12:58:00.000Z","time":"2023-10-18T12:58:00.000Z","reihung":false},"auslastung":{"first":1,"second":1}},{"station":{"evaNumber":"8000050","name":"Bremen Hbf","coordinates":{"lng":8.813681,"lat":53.08328},"ril100":"HB"},"arrival":{"platform":"8","scheduledTime":"2023-10-18T13:41:00.000Z","time":"2023-10-18T13:41:00.000Z","reihung":false}}],"finalDestination":"Köln Hbf","jid":"1|201968|0|80|18102023","auslastung":{"first":1,"second":1},"messages":[{"type":"A","code":"CK","prio":200,"icoX":6,"txtN":"Sicher & kontaktlos ohne Ticketkontrolle reisen mit Komfort Check-in"},{"type":"A","code":"FR","prio":260,"icoX":15,"txtN":"Fahrradmitnahme reservierungspflichtig"},{"type":"A","code":"FB","prio":260,"icoX":5,"txtN":"Fahrradmitnahme begrenzt möglich"},{"type":"A","code":"BT","prio":450,"icoX":16,"txtN":"Bordbistro"}],"type":"JNY"}],"segmentTypes":["S","Fußweg","IC"]},{"checksum":"fb979c59_3","cid":"C-2","date":"2023-10-17T22:00:00.000Z","duration":4140000,"changes":0,"isRideable":true,"arrival":{"platform":"8","scheduledTime":"2023-10-18T14:24:00.000Z","time":"2023-10-18T14:24:00.000Z","reihung":false},"departure":{"platform":"13A-C","scheduledTime":"2023-10-18T13:15:00.000Z","time":"2023-10-18T13:15:00.000Z","reihung":false},"segments":[{"arrival":{"platform":"8","scheduledTime":"2023-10-18T14:24:00.000Z","time":"2023-10-18T14:24:00.000Z","reihung":false},"departure":{"platform":"13A-C","scheduledTime":"2023-10-18T13:15:00.000Z","time":"2023-10-18T13:15:00.000Z","reihung":false},"duration":4140000,"train":{"name":"ME RE4","line":"RE4","admin":"R1","number":"82027","type":"ME","operator":{"name":"metronom","icoX":10}},"segmentStart":{"name":"Hamburg Hbf","evaNumber":"8002549"},"segmentDestination":{"name":"Bremen Hbf","evaNumber":"8000050"},"stops":[{"station":{"evaNumber":"8002549","name":"Hamburg Hbf","coordinates":{"lng":10.00636,"lat":53.553533},"ril100":"AH"},"departure":{"platform":"13A-C","scheduledTime":"2023-10-18T13:15:00.000Z","time":"2023-10-18T13:15:00.000Z","reihung":false}},{"station":{"evaNumber":"8000147","name":"Hamburg-Harburg","coordinates":{"lng":9.991591,"lat":53.456198},"ril100":"AHAR"},"arrival":{"platform":"3","scheduledTime":"2023-10-18T13:25:00.000Z","time":"2023-10-18T13:25:00.000Z","reihung":false},"departure":{"platform":"3","scheduledTime":"2023-10-18T13:26:00.000Z","time":"2023-10-18T13:26:00.000Z","reihung":false}},{"station":{"evaNumber":"8000056","name":"Buchholz(Nordheide)","coordinates":{"lng":9.876206,"lat":53.324649},"ril100":"ABLZ"},"arrival":{"platform":"6","scheduledTime":"2023-10-18T13:37:00.000Z","time":"2023-10-18T13:37:00.000Z","reihung":false},"departure":{"platform":"6","scheduledTime":"2023-10-18T13:38:00.000Z","time":"2023-10-18T13:38:00.000Z","reihung":false}},{"station":{"evaNumber":"8005888","name":"Tostedt","coordinates":{"lng":9.732055,"lat":53.272018},"ril100":"ATST"},"arrival":{"platform":"1","scheduledTime":"2023-10-18T13:46:00.000Z","time":"2023-10-18T13:46:00.000Z","reihung":false},"departure":{"platform":"1","scheduledTime":"2023-10-18T13:47:00.000Z","time":"2023-10-18T13:47:00.000Z","reihung":false}},{"station":{"evaNumber":"8000321","name":"Rotenburg(Wümme)","coordinates":{"lng":9.389925,"lat":53.112432},"ril100":"AROG"},"arrival":{"platform":"5","scheduledTime":"2023-10-18T14:01:00.000Z","time":"2023-10-18T14:01:00.000Z","reihung":false},"departure":{"platform":"5","scheduledTime":"2023-10-18T14:02:00.000Z","time":"2023-10-18T14:02:00.000Z","reihung":false}},{"station":{"evaNumber":"8000050","name":"Bremen Hbf","coordinates":{"lng":8.813681,"lat":53.08328},"ril100":"HB"},"arrival":{"platform":"8","scheduledTime":"2023-10-18T14:24:00.000Z","time":"2023-10-18T14:24:00.000Z","reihung":false}}],"finalDestination":"Bremen Hbf","jid":"1|302158|2|80|18102023","messages":[{"type":"A","code":"FB","prio":260,"icoX":5,"txtN":"Fahrradmitnahme begrenzt möglich"},{"type":"A","code":"RO","prio":560,"icoX":13,"txtN":"Rollstuhlstellplatz"}],"type":"JNY"}],"segmentTypes":["ME"]},{"checksum":"787b9e86_3","cid":"C-3","date":"2023-10-17T22:00:00.000Z","duration":5940000,"changes":1,"isRideable":true,"arrival":{"platform":"8","scheduledTime":"2023-10-18T15:07:00.000Z","time":"2023-10-18T15:07:00.000Z","reihung":false},"departure":{"platform":"4","scheduledTime":"2023-10-18T13:28:00.000Z","time":"2023-10-18T13:28:00.000Z","reihung":false},"segments":[{"arrival":{"platform":"12","scheduledTime":"2023-10-18T13:42:00.000Z","time":"2023-10-18T13:42:00.000Z","reihung":false},"departure":{"platform":"4","scheduledTime":"2023-10-18T13:28:00.000Z","time":"2023-10-18T13:28:00.000Z","reihung":false},"duration":840000,"train":{"name":"S 3","line":"3","admin":"0S","number":"46373","type":"S","operator":{"name":"S-Bahn Hamburg","icoX":3}},"changeDuration":7,"segmentStart":{"name":"Hamburg Hbf (S-Bahn)","evaNumber":"8098549"},"segmentDestination":{"name":"Hamburg-Harburg(S)","evaNumber":"8098147"},"stops":[{"station":{"evaNumber":"8098549","name":"Hamburg Hbf (S-Bahn)","coordinates":{"lng":10.007781,"lat":53.552823},"ril100":"AHS"},"departure":{"platform":"4","scheduledTime":"2023-10-18T13:28:00.000Z","time":"2023-10-18T13:28:00.000Z","reihung":false}},{"station":{"evaNumber":"8004266","name":"Hamburg-Hammerbrook","coordinates":{"lng":10.02371,"lat":53.546449},"ril100":"AHAB"},"arrival":{"platform":"2","scheduledTime":"2023-10-18T13:30:00.000Z","time":"2023-10-18T13:30:00.000Z","reihung":false},"departure":{"platform":"2","scheduledTime":"2023-10-18T13:31:00.000Z","time":"2023-10-18T13:31:00.000Z","reihung":false}},{"station":{"evaNumber":"8002551","name":"Hamburg Elbbrücken","coordinates":{"lng":10.024662,"lat":53.534826},"ril100":"AELB"},"arrival":{"platform":"2","scheduledTime":"2023-10-18T13:32:00.000Z","time":"2023-10-18T13:32:00.000Z","reihung":false},"departure":{"platform":"2","scheduledTime":"2023-10-18T13:33:00.000Z","time":"2023-10-18T13:33:00.000Z","reihung":false}},{"station":{"evaNumber":"8006062","name":"Hamburg-Veddel","coordinates":{"lng":10.013453,"lat":53.521891},"ril100":"AVLS"},"arrival":{"platform":"2","scheduledTime":"2023-10-18T13:35:00.000Z","time":"2023-10-18T13:35:00.000Z","reihung":false},"departure":{"platform":"2","scheduledTime":"2023-10-18T13:35:00.000Z","time":"2023-10-18T13:35:00.000Z","reihung":false}},{"station":{"evaNumber":"8002561","name":"Hamburg-Wilhelmsburg","coordinates":{"lng":10.006909,"lat":53.498914},"ril100":"AWFS"},"arrival":{"platform":"2","scheduledTime":"2023-10-18T13:37:00.000Z","time":"2023-10-18T13:37:00.000Z","reihung":false},"departure":{"platform":"2","scheduledTime":"2023-10-18T13:38:00.000Z","time":"2023-10-18T13:38:00.000Z","reihung":false}},{"station":{"evaNumber":"8098147","name":"Hamburg-Harburg(S)","coordinates":{"lng":9.991852,"lat":53.456836},"ril100":"AHRS"},"arrival":{"platform":"12","scheduledTime":"2023-10-18T13:42:00.000Z","time":"2023-10-18T13:42:00.000Z","reihung":false}}],"finalDestination":"Stade","jid":"1|1635215|0|80|18102023","messages":[{"type":"A","code":"FB","prio":260,"icoX":5,"txtN":"Fahrradmitnahme begrenzt möglich"},{"type":"A","code":"FS","prio":260,"icoX":6,"txtN":"Bei Fahrradmitnahme Sperrzeiten beachten"},{"type":"A","code":"K2","prio":300,"icoX":7,"txtN":"nur 2. Klasse"},{"type":"A","code":"SI","prio":561,"icoX":6,"txtN":"Barrierefreier Zustieg an geeigneten Stationen möglich"},{"type":"A","code":"HM","prio":561,"icoX":6,"txtN":"Info www.hvv.de/de/service/mobilitaet-fuer-alle/uebersicht"}],"type":"JNY"},{"type":"WALK","train":{"name":"Fußweg","type":"Fußweg"},"arrival":{"scheduledTime":"2023-10-18T13:49:00.000Z","time":"2023-10-18T13:49:00.000Z","reihung":false},"departure":{"scheduledTime":"2023-10-18T13:42:00.000Z","time":"2023-10-18T13:42:00.000Z","reihung":false},"duration":420000,"segmentStart":{"evaNumber":"8098147","name":"Hamburg-Harburg(S)","coordinates":{"lng":9.991852,"lat":53.456836},"ril100":"AHRS"},"segmentDestination":{"evaNumber":"8000147","name":"Hamburg-Harburg","coordinates":{"lng":9.991591,"lat":53.456198},"ril100":"AHAR"}},{"arrival":{"platform":"8","scheduledTime":"2023-10-18T15:07:00.000Z","time":"2023-10-18T15:07:00.000Z","reihung":false},"departure":{"platform":"3","scheduledTime":"2023-10-18T13:49:00.000Z","time":"2023-10-18T13:49:00.000Z","reihung":false},"duration":4680000,"train":{"name":"ME RB41","line":"RB41","admin":"R1","number":"81929","type":"ME","operator":{"name":"metronom","icoX":10}},"segmentStart":{"name":"Hamburg-Harburg","evaNumber":"8000147"},"segmentDestination":{"name":"Bremen Hbf","evaNumber":"8000050"},"stops":[{"station":{"evaNumber":"8000147","name":"Hamburg-Harburg","coordinates":{"lng":9.991591,"lat":53.456198},"ril100":"AHAR"},"departure":{"platform":"3","scheduledTime":"2023-10-18T13:49:00.000Z","time":"2023-10-18T13:49:00.000Z","reihung":false}},{"station":{"evaNumber":"8002864","name":"Hittfeld","coordinates":{"lng":9.974476,"lat":53.40353},"ril100":"AHIF"},"arrival":{"platform":"2","scheduledTime":"2023-10-18T13:54:00.000Z","time":"2023-10-18T13:54:00.000Z","reihung":false},"departure":{"platform":"2","scheduledTime":"2023-10-18T13:55:00.000Z","time":"2023-10-18T13:55:00.000Z","reihung":false}},{"station":{"evaNumber":"8003309","name":"Klecken","coordinates":{"lng":9.928864,"lat":53.366},"ril100":"AKC"},"arrival":{"platform":"1","scheduledTime":"2023-10-18T13:59:00.000Z","time":"2023-10-18T13:59:00.000Z","reihung":false},"departure":{"platform":"1","scheduledTime":"2023-10-18T13:59:00.000Z","time":"2023-10-18T13:59:00.000Z","reihung":false}},{"station":{"evaNumber":"8000056","name":"Buchholz(Nordheide)","coordinates":{"lng":9.876206,"lat":53.324649},"ril100":"ABLZ"},"arrival":{"platform":"6","scheduledTime":"2023-10-18T14:04:00.000Z","time":"2023-10-18T14:04:00.000Z","reihung":false},"departure":{"platform":"6","scheduledTime":"2023-10-18T14:05:00.000Z","time":"2023-10-18T14:05:00.000Z","reihung":false}},{"station":{"evaNumber":"8005640","name":"Sprötze","coordinates":{"lng":9.812562,"lat":53.309583},"ril100":"ASP"},"arrival":{"platform":"2","scheduledTime":"2023-10-18T14:08:00.000Z","time":"2023-10-18T14:08:00.000Z","reihung":false},"departure":{"platform":"2","scheduledTime":"2023-10-18T14:09:00.000Z","time":"2023-10-18T14:09:00.000Z","reihung":false}},{"station":{"evaNumber":"8005888","name":"Tostedt","coordinates":{"lng":9.732055,"lat":53.272018},"ril100":"ATST"},"arrival":{"platform":"3","scheduledTime":"2023-10-18T14:15:00.000Z","time":"2023-10-18T14:15:00.000Z","reihung":false},"departure":{"platform":"3","scheduledTime":"2023-10-18T14:15:00.000Z","time":"2023-10-18T14:15:00.000Z","reihung":false}},{"station":{"evaNumber":"8003576","name":"Lauenbrück","coordinates":{"lng":9.563174,"lat":53.196841},"ril100":"ALUB"},"arrival":{"platform":"3","scheduledTime":"2023-10-18T14:22:00.000Z","time":"2023-10-18T14:22:00.000Z","reihung":false},"departure":{"platform":"3","scheduledTime":"2023-10-18T14:23:00.000Z","time":"2023-10-18T14:23:00.000Z","reihung":false}},{"station":{"evaNumber":"8005330","name":"Scheeßel","coordinates":{"lng":9.497823,"lat":53.166457},"ril100":"ASL"},"arrival":{"platform":"3","scheduledTime":"2023-10-18T14:27:00.000Z","time":"2023-10-18T14:27:00.000Z","reihung":false},"departure":{"platform":"3","scheduledTime":"2023-10-18T14:27:00.000Z","time":"2023-10-18T14:27:00.000Z","reihung":false}},{"station":{"evaNumber":"8000321","name":"Rotenburg(Wümme)","coordinates":{"lng":9.389925,"lat":53.112432},"ril100":"AROG"},"arrival":{"platform":"5","scheduledTime":"2023-10-18T14:33:00.000Z","time":"2023-10-18T14:33:00.000Z","reihung":false},"departure":{"platform":"5","scheduledTime":"2023-10-18T14:34:00.000Z","time":"2023-10-18T14:34:00.000Z","reihung":false}},{"station":{"evaNumber":"8005613","name":"Sottrum","coordinates":{"lng":9.250071,"lat":53.101294},"ril100":"AS"},"arrival":{"platform":"1","scheduledTime":"2023-10-18T14:41:00.000Z","time":"2023-10-18T14:41:00.000Z","reihung":false},"departure":{"platform":"1","scheduledTime":"2023-10-18T14:41:00.000Z","time":"2023-10-18T14:41:00.000Z","reihung":false}},{"station":{"evaNumber":"8004728","name":"Ottersberg(Han)","coordinates":{"lng":9.133157,"lat":53.09689},"ril100":"AOBG"},"arrival":{"platform":"1","scheduledTime":"2023-10-18T14:46:00.000Z","time":"2023-10-18T14:46:00.000Z","reihung":false},"departure":{"platform":"1","scheduledTime":"2023-10-18T14:46:00.000Z","time":"2023-10-18T14:46:00.000Z","reihung":false}},{"station":{"evaNumber":"8005256","name":"Sagehorn","coordinates":{"lng":9.010014,"lat":53.082534},"ril100":"ASAG"},"arrival":{"platform":"1","scheduledTime":"2023-10-18T14:51:00.000Z","time":"2023-10-18T14:51:00.000Z","reihung":false},"departure":{"platform":"1","scheduledTime":"2023-10-18T14:52:00.000Z","time":"2023-10-18T14:52:00.000Z","reihung":false}},{"station":{"evaNumber":"8001161","name":"Bremen-Oberneuland","coordinates":{"lng":8.938001,"lat":53.087154},"ril100":"HBON"},"arrival":{"platform":"2","scheduledTime":"2023-10-18T14:56:00.000Z","time":"2023-10-18T14:56:00.000Z","reihung":false},"departure":{"platform":"2","scheduledTime":"2023-10-18T14:56:00.000Z","time":"2023-10-18T14:56:00.000Z","reihung":false}},{"station":{"evaNumber":"8000050","name":"Bremen Hbf","coordinates":{"lng":8.813681,"lat":53.08328},"ril100":"HB"},"arrival":{"platform":"8","scheduledTime":"2023-10-18T15:07:00.000Z","time":"2023-10-18T15:07:00.000Z","reihung":false}}],"finalDestination":"Bremen Hbf","jid":"1|302045|0|80|18102023","messages":[{"type":"A","code":"FB","prio":260,"icoX":5,"txtN":"Fahrradmitnahme begrenzt möglich"},{"type":"A","code":"RO","prio":560,"icoX":13,"txtN":"Rollstuhlstellplatz"}],"type":"JNY"}],"segmentTypes":["S","Fußweg","ME"]},{"checksum":"0a11bf42_3","cid":"C-4","date":"2023-10-17T22:00:00.000Z","duration":3360000,"changes":0,"isRideable":true,"arrival":{"platform":"7","scheduledTime":"2023-10-18T14:41:00.000Z","time":"2023-10-18T14:41:00.000Z","reihung":false},"departure":{"platform":"14","scheduledTime":"2023-10-18T13:45:00.000Z","time":"2023-10-18T13:45:00.000Z","reihung":false},"segments":[{"arrival":{"platform":"7","scheduledTime":"2023-10-18T14:41:00.000Z","time":"2023-10-18T14:41:00.000Z","reihung":false},"departure":{"platform":"14","scheduledTime":"2023-10-18T13:45:00.000Z","time":"2023-10-18T13:45:00.000Z","reihung":false},"duration":3360000,"train":{"name":"ICE 615","line":"42","admin":"80","number":"615","type":"ICE","operator":{"name":"DB Fernverkehr AG","icoX":14}},"segmentStart":{"name":"Hamburg Hbf","evaNumber":"8002549"},"segmentDestination":{"name":"Bremen Hbf","evaNumber":"8000050"},"stops":[{"station":{"evaNumber":"8002549","name":"Hamburg Hbf","coordinates":{"lng":10.00636,"lat":53.553533},"ril100":"AH"},"departure":{"platform":"14","scheduledTime":"2023-10-18T13:45:00.000Z","time":"2023-10-18T13:45:00.000Z","reihung":false}},{"station":{"evaNumber":"8000147","name":"Hamburg-Harburg","coordinates":{"lng":9.991591,"lat":53.456198},"ril100":"AHAR"},"departure":{"platform":"3","scheduledTime":"2023-10-18T13:58:00.000Z","time":"2023-10-18T13:58:00.000Z","reihung":false},"auslastung":{"first":1,"second":2}},{"station":{"evaNumber":"8000050","name":"Bremen Hbf","coordinates":{"lng":8.813681,"lat":53.08328},"ril100":"HB"},"arrival":{"platform":"7","scheduledTime":"2023-10-18T14:41:00.000Z","time":"2023-10-18T14:41:00.000Z","reihung":false}}],"finalDestination":"Köln Hbf","jid":"1|207284|0|80|18102023","auslastung":{"first":1,"second":2},"messages":[{"type":"A","code":"CK","prio":200,"icoX":6,"txtN":"Sicher & kontaktlos ohne Ticketkontrolle reisen mit Komfort Check-in"},{"type":"A","code":"FR","prio":260,"icoX":15,"txtN":"Fahrradmitnahme reservierungspflichtig"},{"type":"A","code":"FB","prio":260,"icoX":5,"txtN":"Fahrradmitnahme begrenzt möglich"},{"type":"A","code":"BR","prio":450,"icoX":17,"txtN":"Bordrestaurant"},{"type":"A","code":"EH","prio":560,"icoX":6,"txtN":"Fahrzeuggebundene Einstiegshilfe vorhanden"}],"type":"JNY"}],"segmentTypes":["ICE"]},{"checksum":"a819efc5_3","cid":"C-5","date":"2023-10-17T22:00:00.000Z","duration":4140000,"changes":0,"isRideable":true,"arrival":{"platform":"8","scheduledTime":"2023-10-18T15:24:00.000Z","time":"2023-10-18T15:24:00.000Z","reihung":false},"departure":{"platform":"13A-C","scheduledTime":"2023-10-18T14:15:00.000Z","time":"2023-10-18T14:15:00.000Z","reihung":false},"segments":[{"arrival":{"platform":"8","scheduledTime":"2023-10-18T15:24:00.000Z","time":"2023-10-18T15:24:00.000Z","reihung":false},"departure":{"platform":"13A-C","scheduledTime":"2023-10-18T14:15:00.000Z","time":"2023-10-18T14:15:00.000Z","reihung":false},"duration":4140000,"train":{"name":"ME RE4","line":"RE4","admin":"R1","number":"82029","type":"ME","operator":{"name":"metronom","icoX":10}},"segmentStart":{"name":"Hamburg Hbf","evaNumber":"8002549"},"segmentDestination":{"name":"Bremen Hbf","evaNumber":"8000050"},"stops":[{"station":{"evaNumber":"8002549","name":"Hamburg Hbf","coordinates":{"lng":10.00636,"lat":53.553533},"ril100":"AH"},"departure":{"platform":"13A-C","scheduledTime":"2023-10-18T14:15:00.000Z","time":"2023-10-18T14:15:00.000Z","reihung":false}},{"station":{"evaNumber":"8000147","name":"Hamburg-Harburg","coordinates":{"lng":9.991591,"lat":53.456198},"ril100":"AHAR"},"arrival":{"platform":"4","scheduledTime":"2023-10-18T14:25:00.000Z","time":"2023-10-18T14:25:00.000Z","reihung":false},"departure":{"platform":"4","scheduledTime":"2023-10-18T14:26:00.000Z","time":"2023-10-18T14:26:00.000Z","reihung":false}},{"station":{"evaNumber":"8000056","name":"Buchholz(Nordheide)","coordinates":{"lng":9.876206,"lat":53.324649},"ril100":"ABLZ"},"arrival":{"platform":"6","scheduledTime":"2023-10-18T14:37:00.000Z","time":"2023-10-18T14:37:00.000Z","reihung":false},"departure":{"platform":"6","scheduledTime":"2023-10-18T14:38:00.000Z","time":"2023-10-18T14:38:00.000Z","reihung":false}},{"station":{"evaNumber":"8005888","name":"Tostedt","coordinates":{"lng":9.732055,"lat":53.272018},"ril100":"ATST"},"arrival":{"platform":"1","scheduledTime":"2023-10-18T14:46:00.000Z","time":"2023-10-18T14:46:00.000Z","reihung":false},"departure":{"platform":"1","scheduledTime":"2023-10-18T14:47:00.000Z","time":"2023-10-18T14:47:00.000Z","reihung":false}},{"station":{"evaNumber":"8000321","name":"Rotenburg(Wümme)","coordinates":{"lng":9.389925,"lat":53.112432},"ril100":"AROG"},"arrival":{"platform":"5","scheduledTime":"2023-10-18T15:01:00.000Z","time":"2023-10-18T15:01:00.000Z","reihung":false},"departure":{"platform":"5","scheduledTime":"2023-10-18T15:02:00.000Z","time":"2023-10-18T15:02:00.000Z","reihung":false}},{"station":{"evaNumber":"8000050","name":"Bremen Hbf","coordinates":{"lng":8.813681,"lat":53.08328},"ril100":"HB"},"arrival":{"platform":"8","scheduledTime":"2023-10-18T15:24:00.000Z","time":"2023-10-18T15:24:00.000Z","reihung":false}}],"finalDestination":"Bremen Hbf","jid":"1|302164|0|80|18102023","messages":[{"type":"A","code":"FB","prio":260,"icoX":5,"txtN":"Fahrradmitnahme begrenzt möglich"},{"type":"A","code":"RO","prio":560,"icoX":13,"txtN":"Rollstuhlstellplatz"}],"type":"JNY"}],"segmentTypes":["ME"]}]}