{"context":{"earlier":"3|OB|MT#14#451625#451593#452080#452140#0#0#565#451576#1#0#32#0#0#-2147483648#1#2|PDH#bbe10b32f5270e429a5a473728022d1b|RD#18102023|RT#141653|US#0|RS#INIT","later":"3|OF|MT#14#451684#451684#452140#452140#0#0#565#451648#7#0#19#0#0#-2147483648#1#2|PDH#bbe10b32f5270e429a5a473728022d1b|RD#18102023|RT#141653|US#0|RS#INIT"},"routes":[{"checksum":"e4473108_3","cid":"C-0","date":"2023-10-17T22:00:00.000Z","duration":32820000,"changes":2,"isRideable":true,"arrival":{"platform":"11 Süd","scheduledTime":"2023-10-18T21:40:00.000Z","time":"2023-10-18T21:40:00.000Z","reihung":false},"departure":{"platform":"13","scheduledTime":"2023-10-18T12:33:00.000Z","time":"2023-10-18T12:33:00.000Z","reihung":false},"segments":[{"arrival":{"platform":"12","scheduledTime":"2023-10-18T14:36:00.000Z","time":"2023-10-18T14:36:00.000Z","reihung":false},"departure":{"platform":"13","scheduledTime":"2023-10-18T12:33:00.000Z","time":"2023-10-18T12:33:00.000Z","reihung":false},"duration":7380000,"train":{"name":"IC 142","line":"77","admin":"80","number":"142","type":"IC","operator":{"name":"DB Fernverkehr AG","icoX":2}},"changeDuration":64,"segmentStart":{"name":"Berlin Hbf","evaNumber":"8011160"},"segmentDestination":{"name":"Hannover Hbf","evaNumber":"8000152"},"stops":[{"station":{"evaNumber":"8011160","name":"Berlin Hbf","coordinates":{"lng":13.369629,"lat":52.524924},"ril100":"BLS"},"departure":{"platform":"13","scheduledTime":"2023-10-18T12:33:00.000Z","time":"2023-10-18T12:33:00.000Z","reihung":false}},{"station":{"evaNumber":"8010404","name":"Berlin-Spandau","coordinates":{"lng":13.200947,"lat":52.533787},"ril100":"BSPD"},"departure":{"platform":"4","scheduledTime":"2023-10-18T12:50:00.000Z","time":"2023-10-18T12:50:00.000Z","reihung":false},"auslastung":{"first":2,"second":2}},{"station":{"evaNumber":"8010334","name":"Stendal Hbf","coordinates":{"lng":11.854767,"lat":52.594671},"ril100":"LS"},"arrival":{"platform":"1","scheduledTime":"2023-10-18T13:31:00.000Z","time":"2023-10-18T13:31:00.000Z","reihung":false},"departure":{"platform":"1","scheduledTime":"2023-10-18T13:32:00.000Z","time":"2023-10-18T13:32:00.000Z","reihung":false},"auslastung":{"first":2,"second":2}},{"station":{"evaNumber":"8006552","name":"Wolfsburg Hbf","coordinates":{"lng":10.787757,"lat":52.429495},"ril100":"HWOB"},"arrival":{"platform":"1","scheduledTime":"2023-10-18T14:00:00.000Z","time":"2023-10-18T14:00:00.000Z","reihung":false},"departure":{"platform":"1","scheduledTime":"2023-10-18T14:01:00.000Z","time":"2023-10-18T14:01:00.000Z","reihung":false},"auslastung":{"first":2,"second":2}},{"station":{"evaNumber":"8000152","name":"Hannover Hbf","coordinates":{"lng":9.741763,"lat":52.377079},"ril100":"HH"},"arrival":{"platform":"12","scheduledTime":"2023-10-18T14:36:00.000Z","time":"2023-10-18T14:36:00.000Z","reihung":false}}],"finalDestination":"Amsterdam Centraal","jid":"1|351178|0|80|18102023","auslastung":{"first":2,"second":2},"messages":[{"type":"A","code":"CK","prio":200,"icoX":3,"txtN":"Sicher & kontaktlos ohne Ticketkontrolle reisen mit Komfort Check-in"},{"type":"A","code":"FR","prio":260,"icoX":4,"txtN":"Fahrradmitnahme reservierungspflichtig"},{"type":"A","code":"FB","prio":260,"icoX":5,"txtN":"Fahrradmitnahme begrenzt möglich"},{"type":"A","code":"RE","prio":320,"icoX":3,"txtN":"Bitte reservieren"},{"type":"A","code":"BT","prio":450,"icoX":6,"txtN":"Bordbistro"}],"type":"JNY"},{"arrival":{"platform":"4","scheduledTime":"2023-10-18T19:46:00.000Z","time":"2023-10-18T19:46:00.000Z","reihung":false},"departure":{"platform":"11","scheduledTime":"2023-10-18T15:40:00.000Z","time":"2023-10-18T15:40:00.000Z","reihung":false},"duration":14760000,"train":{"name":"IC 2442","line":"55","admin":"80","number":"2442","type":"IC","operator":{"name":"DB Fernverkehr AG","icoX":2}},"changeDuration":33,"segmentStart":{"name":"Hannover Hbf","evaNumber":"8000152"},"segmentDestination":{"name":"Koblenz Hbf","evaNumber":"8000206"},"stops":[{"station":{"evaNumber":"8000152","name":"Hannover Hbf","coordinates":{"lng":9.741763,"lat":52.377079},"ril100":"HH"},"departure":{"platform":"11","scheduledTime":"2023-10-18T15:40:00.000Z","time":"2023-10-18T15:40:00.000Z","reihung":false},"auslastung":{"first":1,"second":1},"messages":[{"type":"A","code":"text.journeystop.product.or.direction.changes.stop.message","icoX":3,"txtN":"Verkehrt ab hier als IC 2442 in Richtung Koblenz Hbf"}]},{"station":{"evaNumber":"8000252","name":"Minden(Westf)","coordinates":{"lng":8.934442,"lat":52.290566},"ril100":"HM"},"arrival":{"platform":"11","scheduledTime":"2023-10-18T16:12:00.000Z","time":"2023-10-18T16:12:00.000Z","reihung":false},"departure":{"platform":"11","scheduledTime":"2023-10-18T16:13:00.000Z","time":"2023-10-18T16:13:00.000Z","reihung":false},"auslastung":{"first":2,"second":1},"messages":[{"type":"A","code":"text.journeystop.product.or.direction.changes.stop.message","icoX":3,"txtN":"Verkehrt ab hier als IC 2442 in Richtung Frankfurt(Main)Hbf"}]},{"station":{"evaNumber":"8000162","name":"Herford","coordinates":{"lng":8.663741,"lat":52.119654},"ril100":"EHFD"},"arrival":{"platform":"6","scheduledTime":"2023-10-18T16:30:00.000Z","time":"2023-10-18T16:30:00.000Z","reihung":false},"departure":{"platform":"6","scheduledTime":"2023-10-18T16:32:00.000Z","time":"2023-10-18T16:32:00.000Z","reihung":false},"auslastung":{"first":2,"second":1}},{"station":{"evaNumber":"8000036","name":"Bielefeld Hbf","coordinates":{"lng":8.532777,"lat":52.029421},"ril100":"EBILP"},"arrival":{"platform":"4","scheduledTime":"2023-10-18T16:39:00.000Z","time":"2023-10-18T16:39:00.000Z","reihung":false},"departure":{"platform":"4","scheduledTime":"2023-10-18T16:40:00.000Z","time":"2023-10-18T16:40:00.000Z","reihung":false},"auslastung":{"first":1,"second":1}},{"station":{"evaNumber":"8002461","name":"Gütersloh Hbf","coordinates":{"lng":8.385129,"lat":51.906862},"ril100":"EGLO"},"arrival":{"platform":"2","scheduledTime":"2023-10-18T16:50:00.000Z","time":"2023-10-18T16:50:00.000Z","reihung":false},"departure":{"platform":"2","scheduledTime":"2023-10-18T16:52:00.000Z","time":"2023-10-18T16:52:00.000Z","reihung":false},"auslastung":{"first":1,"second":1}},{"station":{"evaNumber":"8000149","name":"Hamm(Westf)Hbf","coordinates":{"lng":7.80777,"lat":51.678131},"ril100":"EHM"},"arrival":{"platform":"10","scheduledTime":"2023-10-18T17:14:00.000Z","time":"2023-10-18T17:14:00.000Z","reihung":false},"departure":{"platform":"10","scheduledTime":"2023-10-18T17:16:00.000Z","time":"2023-10-18T17:16:00.000Z","reihung":false},"auslastung":{"first":1,"second":1}},{"station":{"evaNumber":"8000080","name":"Dortmund Hbf","coordinates":{"lng":7.459276,"lat":51.517872},"ril100":"EDO"},"arrival":{"platform":"11","scheduledTime":"2023-10-18T17:31:00.000Z","time":"2023-10-18T17:31:00.000Z","reihung":false},"departure":{"platform":"11","scheduledTime":"2023-10-18T17:34:00.000Z","time":"2023-10-18T17:34:00.000Z","reihung":false},"auslastung":{"first":1,"second":1}},{"station":{"evaNumber":"8000041","name":"Bochum Hbf","coordinates":{"lng":7.223264,"lat":51.47849},"ril100":"EBO"},"arrival":{"platform":"4","scheduledTime":"2023-10-18T17:45:00.000Z","time":"2023-10-18T17:45:00.000Z","reihung":false},"departure":{"platform":"4","scheduledTime":"2023-10-18T17:46:00.000Z","time":"2023-10-18T17:46:00.000Z","reihung":false},"auslastung":{"first":1,"second":1}},{"station":{"evaNumber":"8000098","name":"Essen Hbf","coordinates":{"lng":7.01386,"lat":51.451378},"ril100":"EE"},"arrival":{"platform":"2","scheduledTime":"2023-10-18T17:57:00.000Z","time":"2023-10-18T17:57:00.000Z","reihung":false},"departure":{"platform":"2","scheduledTime":"2023-10-18T17:59:00.000Z","time":"2023-10-18T17:59:00.000Z","reihung":false},"auslastung":{"first":1,"second":1}},{"station":{"evaNumber":"8000086","name":"Duisburg Hbf","coordinates":{"lng":6.77606,"lat":51.429615},"ril100":"EDG"},"arrival":{"platform":"4","scheduledTime":"2023-10-18T18:09:00.000Z","time":"2023-10-18T18:09:00.000Z","reihung":false},"departure":{"platform":"4","scheduledTime":"2023-10-18T18:11:00.000Z","time":"2023-10-18T18:11:00.000Z","reihung":false},"auslastung":{"first":1,"second":1}},{"station":{"evaNumber":"8000085","name":"Düsseldorf Hbf","coordinates":{"lng":6.794011,"lat":51.219708},"ril100":"KD"},"arrival":{"platform":"16","scheduledTime":"2023-10-18T18:24:00.000Z","time":"2023-10-18T18:24:00.000Z","reihung":false},"departure":{"platform":"16","scheduledTime":"2023-10-18T18:26:00.000Z","time":"2023-10-18T18:26:00.000Z","reihung":false},"auslastung":{"first":1,"second":1}},{"station":{"evaNumber":"8073368","name":"Köln Messe/Deutz Gl.11-12","coordinates":{"lng":6.975162,"lat":50.940602},"ril100":"KKDT"},"arrival":{"platform":"11","scheduledTime":"2023-10-18T18:45:00.000Z","time":"2023-10-18T18:45:00.000Z","reihung":false},"departure":{"platform":"11","scheduledTime":"2023-10-18T18:47:00.000Z","time":"2023-10-18T18:47:00.000Z","reihung":false},"auslastung":{"first":1,"second":1}},{"station":{"evaNumber":"8001083","name":"Bonn-Beuel","coordinates":{"lng":7.127691,"lat":50.738534},"ril100":"KBB"},"arrival":{"platform":"1","scheduledTime":"2023-10-18T19:03:00.000Z","time":"2023-10-18T19:03:00.000Z","reihung":false},"departure":{"platform":"1","scheduledTime":"2023-10-18T19:05:00.000Z","time":"2023-10-18T19:05:00.000Z","reihung":false},"auslastung":{"first":1,"second":1}},{"station":{"evaNumber":"8000206","name":"Koblenz Hbf","coordinates":{"lng":7.588343,"lat":50.350775},"ril100":"KKO"},"arrival":{"platform":"4","scheduledTime":"2023-10-18T19:46:00.000Z","time":"2023-10-18T19:46:00.000Z","reihung":false}}],"finalDestination":"Koblenz Hbf","jid":"1|203393|0|80|18102023","auslastung":{"first":2,"second":1},"messages":[{"type":"A","code":"CK","prio":200,"icoX":3,"txtN":"Sicher & kontaktlos ohne Ticketkontrolle reisen mit Komfort Check-in"},{"type":"A","code":"FR","prio":260,"icoX":4,"txtN":"Fahrradmitnahme reservierungspflichtig"},{"type":"A","code":"FB","prio":260,"icoX":5,"txtN":"Fahrradmitnahme begrenzt möglich"},{"type":"A","code":"MP","prio":460,"icoX":3,"txtN":"Snacks und Getränke am Platz"},{"type":"A","code":"EH","prio":560,"icoX":3,"txtN":"Fahrzeuggebundene Einstiegshilfe vorhanden"},{"type":"A","code":"IZ","prio":800,"icoX":3,"txtN":"Intercity 2: Info unter www.bahn.de/ic2"},{"type":"A","code":"text.journeystop.product.or.direction.changes.journey.message","icoX":3,"txtN":"Verkehrt ab Minden(Westf) als IC 2442 in Richtung Frankfurt(Main)Hbf"}],"type":"JNY"},{"arrival":{"platform":"11 Süd","scheduledTime":"2023-10-18T21:40:00.000Z","time":"2023-10-18T21:40:00.000Z","reihung":false},"departure":{"platform":"9","scheduledTime":"2023-10-18T20:19:00.000Z","time":"2023-10-18T20:19:00.000Z","reihung":false},"duration":4860000,"wings":[{"train":{"name":"RE 11","line":"11","admin":"800640","number":"5132","type":"RE","operator":{"name":"DB Regio AG Mitte SÜWEX","icoX":9}},"segmentStart":{"name":"Koblenz Hbf","evaNumber":"8000206"},"segmentDestination":{"name":"Trier Hbf","evaNumber":"8000134"},"stops":[{"station":{"evaNumber":"8000206","name":"Koblenz Hbf","coordinates":{"lng":7.588343,"lat":50.350775},"ril100":"KKO"},"departure":{"platform":"9","scheduledTime":"2023-10-18T20:19:00.000Z","time":"2023-10-18T20:19:00.000Z","reihung":false}},{"station":{"evaNumber":"8003350","name":"Kobern-Gondorf","coordinates":{"lng":7.460642,"lat":50.300579},"ril100":"SKG"},"arrival":{"platform":"2","scheduledTime":"2023-10-18T20:30:00.000Z","time":"2023-10-18T20:30:00.000Z","reihung":false}},{"station":{"evaNumber":"8003179","name":"Treis-Karden","coordinates":{"lng":7.299744,"lat":50.180061},"ril100":"STK"},"arrival":{"platform":"2","scheduledTime":"2023-10-18T20:46:00.000Z","time":"2023-10-18T20:46:00.000Z","reihung":false}},{"station":{"evaNumber":"8001340","name":"Cochem(Mosel)","coordinates":{"lng":7.166902,"lat":50.153102},"ril100":"SCOC"},"arrival":{"platform":"2","scheduledTime":"2023-10-18T20:53:00.000Z","time":"2023-10-18T20:53:00.000Z","reihung":false}},{"station":{"evaNumber":"8001267","name":"Bullay(DB)","coordinates":{"lng":7.134702,"lat":50.053789},"ril100":"SBY"},"arrival":{"platform":"2","scheduledTime":"2023-10-18T21:02:00.000Z","time":"2023-10-18T21:02:00.000Z","reihung":false}},{"station":{"evaNumber":"8000379","name":"Wittlich Hbf","coordinates":{"lng":6.943574,"lat":49.973102},"ril100":"SWIH"},"arrival":{"platform":"2","scheduledTime":"2023-10-18T21:14:00.000Z","time":"2023-10-18T21:14:00.000Z","reihung":false}},{"station":{"evaNumber":"8005476","name":"Schweich(DB)","coordinates":{"lng":6.740328,"lat":49.831145},"ril100":"SSWE"},"arrival":{"platform":"3","scheduledTime":"2023-10-18T21:28:00.000Z","time":"2023-10-18T21:28:00.000Z","reihung":false}},{"station":{"evaNumber":"8000134","name":"Trier Hbf","coordinates":{"lng":6.652395,"lat":49.756795},"ril100":"STR"},"arrival":{"platform":"11 Süd","scheduledTime":"2023-10-18T21:40:00.000Z","time":"2023-10-18T21:40:00.000Z","reihung":false}}],"finalDestination":"Luxembourg","jid":"1|361414|0|80|18102023"}],"train":{"name":"RE 1","line":"1","admin":"800640","number":"4134","type":"RE","operator":{"name":"DB Regio AG Mitte SÜWEX","icoX":9}},"segmentStart":{"name":"Koblenz Hbf","evaNumber":"8000206"},"segmentDestination":{"name":"Trier Hbf","evaNumber":"8000134"},"stops":[{"station":{"evaNumber":"8000206","name":"Koblenz Hbf","coordinates":{"lng":7.588343,"lat":50.350775},"ril100":"KKO"},"departure":{"platform":"9","scheduledTime":"2023-10-18T20:19:00.000Z","time":"2023-10-18T20:19:00.000Z","reihung":false}},{"station":{"evaNumber":"8003350","name":"Kobern-Gondorf","coordinates":{"lng":7.460642,"lat":50.300579},"ril100":"SKG"},"arrival":{"platform":"2","scheduledTime":"2023-10-18T20:30:00.000Z","time":"2023-10-18T20:30:00.000Z","reihung":false},"departure":{"platform":"2","scheduledTime":"2023-10-18T20:31:00.000Z","time":"2023-10-18T20:31:00.000Z","reihung":false}},{"station":{"evaNumber":"8003179","name":"Treis-Karden","coordinates":{"lng":7.299744,"lat":50.180061},"ril100":"STK"},"arrival":{"platform":"2","scheduledTime":"2023-10-18T20:46:00.000Z","time":"2023-10-18T20:46:00.000Z","reihung":false},"departure":{"platform":"2","scheduledTime":"2023-10-18T20:46:00.000Z","time":"2023-10-18T20:46:00.000Z","reihung":false}},{"station":{"evaNumber":"8001340","name":"Cochem(Mosel)","coordinates":{"lng":7.166902,"lat":50.153102},"ril100":"SCOC"},"arrival":{"platform":"2","scheduledTime":"2023-10-18T20:53:00.000Z","time":"2023-10-18T20:53:00.000Z","reihung":false},"departure":{"platform":"2","scheduledTime":"2023-10-18T20:54:00.000Z","time":"2023-10-18T20:54:00.000Z","reihung":false}},{"station":{"evaNumber":"8001267","name":"Bullay(DB)","coordinates":{"lng":7.134702,"lat":50.053789},"ril100":"SBY"},"arrival":{"platform":"2","scheduledTime":"2023-10-18T21:02:00.000Z","time":"2023-10-18T21:02:00.000Z","reihung":false},"departure":{"platform":"2","scheduledTime":"2023-10-18T21:02:00.000Z","time":"2023-10-18T21:02:00.000Z","reihung":false}},{"station":{"evaNumber":"8000379","name":"Wittlich Hbf","coordinates":{"lng":6.943574,"lat":49.973102},"ril100":"SWIH"},"arrival":{"platform":"2","scheduledTime":"2023-10-18T21:14:00.000Z","time":"2023-10-18T21:14:00.000Z","reihung":false},"departure":{"platform":"2","scheduledTime":"2023-10-18T21:14:00.000Z","time":"2023-10-18T21:14:00.000Z","reihung":false}},{"station":{"evaNumber":"8005476","name":"Schweich(DB)","coordinates":{"lng":6.740328,"lat":49.831145},"ril100":"SSWE"},"arrival":{"platform":"3","scheduledTime":"2023-10-18T21:28:00.000Z","time":"2023-10-18T21:28:00.000Z","reihung":false},"departure":{"platform":"3","scheduledTime":"2023-10-18T21:29:00.000Z","time":"2023-10-18T21:29:00.000Z","reihung":false}},{"station":{"evaNumber":"8000134","name":"Trier Hbf","coordinates":{"lng":6.652395,"lat":49.756795},"ril100":"STR"},"arrival":{"platform":"11 Süd","scheduledTime":"2023-10-18T21:40:00.000Z","time":"2023-10-18T21:40:00.000Z","reihung":false}}],"finalDestination":"Saarbrücken Hbf","jid":"1|255386|0|80|18102023","messages":[{"type":"A","code":"FB","prio":260,"icoX":5,"txtN":"Fahrradmitnahme begrenzt möglich"},{"type":"A","code":"RC","prio":320,"icoX":3,"txtN":"Reservierung an DB-Automaten/Reisezentren/vielen DB-Agenturen möglich"},{"type":"A","code":"EH","prio":560,"icoX":3,"txtN":"Fahrzeuggebundene Einstiegshilfe vorhanden"},{"type":"A","code":"LS","prio":605,"icoX":3,"txtN":"Laptop-Steckdosen"}],"type":"JNY"}],"segmentTypes":["IC","IC","RE"]},{"checksum":"3471041c_3","cid":"C-1","date":"2023-10-17T22:00:00.000Z","duration":34380000,"changes":1,"isRideable":true,"arrival":{"platform":"11 Nord","scheduledTime":"2023-10-18T22:19:00.000Z","time":"2023-10-18T22:19:00.000Z","reihung":false},"departure":{"platform":"14","scheduledTime":"2023-10-18T12:46:00.000Z","time":"2023-10-18T12:46:00.000Z","reihung":false},"segments":[{"arrival":{"platform":"4","scheduledTime":"2023-10-18T20:18:00.000Z","time":"2023-10-18T20:18:00.000Z","reihung":false},"departure":{"platform":"14","scheduledTime":"2023-10-18T12:46:00.000Z","time":"2023-10-18T12:46:00.000Z","reihung":false},"duration":27120000,"train":{"name":"ICE 546","line":"10","admin":"80","number":"546","type":"ICE","operator":{"name":"DB Fernverkehr AG","icoX":2}},"changeDuration":7,"segmentStart":{"name":"Berlin Hbf","evaNumber":"8011160"},"segmentDestination":{"name":"Koblenz Hbf","evaNumber":"8000206"},"stops":[{"station":{"evaNumber":"8011160","name":"Berlin Hbf","coordinates":{"lng":13.369629,"lat":52.524924},"ril100":"BLS"},"departure":{"platform":"14","scheduledTime":"2023-10-18T12:46:00.000Z","time":"2023-10-18T12:46:00.000Z","reihung":false},"messages":[{"type":"A","code":"text.journeystop.product.or.direction.changes.stop.message","icoX":3,"txtN":"Verkehrt ab hier als ICE 546 in Richtung Düsseldorf Hbf"}]},{"station":{"evaNumber":"8010404","name":"Berlin-Spandau","coordinates":{"lng":13.200947,"lat":52.533787},"ril100":"BSPD"},"departure":{"platform":"4","scheduledTime":"2023-10-18T13:01:00.000Z","time":"2023-10-18T13:01:00.000Z","reihung":false},"auslastung":{"first":3,"second":2}},{"station":{"evaNumber":"8000152","name":"Hannover Hbf","coordinates":{"lng":9.741763,"lat":52.377079},"ril100":"HH"},"arrival":{"platform":"12","scheduledTime":"2023-10-18T14:28:00.000Z","time":"2023-10-18T14:28:00.000Z","reihung":false},"departure":{"platform":"12","scheduledTime":"2023-10-18T14:31:00.000Z","time":"2023-10-18T14:31:00.000Z","reihung":false},"auslastung":{"first":3,"second":2}},{"station":{"evaNumber":"8000036","name":"Bielefeld Hbf","coordinates":{"lng":8.532777,"lat":52.029421},"ril100":"EBILP"},"arrival":{"platform":"4","scheduledTime":"2023-10-18T15:20:00.000Z","time":"2023-10-18T15:20:00.000Z","reihung":false},"departure":{"platform":"4","scheduledTime":"2023-10-18T15:22:00.000Z","time":"2023-10-18T15:22:00.000Z","reihung":false},"auslastung":{"first":3,"second":2}},{"station":{"evaNumber":"8000149","name":"Hamm(Westf)Hbf","coordinates":{"lng":7.80777,"lat":51.678131},"ril100":"EHM"},"arrival":{"platform":"10","scheduledTime":"2023-10-18T15:48:00.000Z","time":"2023-10-18T15:48:00.000Z","reihung":false},"departure":{"platform":"10","scheduledTime":"2023-10-18T15:51:00.000Z","time":"2023-10-18T15:51:00.000Z","reihung":false},"auslastung":{"first":3,"second":2}},{"station":{"evaNumber":"8000080","name":"Dortmund Hbf","coordinates":{"lng":7.459276,"lat":51.517872},"ril100":"EDO"},"arrival":{"platform":"11","scheduledTime":"2023-10-18T16:10:00.000Z","time":"2023-10-18T16:10:00.000Z","reihung":false},"departure":{"platform":"11","scheduledTime":"2023-10-18T16:13:00.000Z","time":"2023-10-18T16:13:00.000Z","reihung":false},"auslastung":{"first":3,"second":1},"messages":[{"type":"A","code":"text.journeystop.product.or.direction.changes.stop.message","icoX":3,"txtN":"Verkehrt ab hier als ICE 546 in Richtung Koblenz Hbf"}]},{"station":{"evaNumber":"8000041","name":"Bochum Hbf","coordinates":{"lng":7.223264,"lat":51.47849},"ril100":"EBO"},"arrival":{"platform":"3","scheduledTime":"2023-10-18T16:23:00.000Z","time":"2023-10-18T16:23:00.000Z","reihung":false},"departure":{"platform":"3","scheduledTime":"2023-10-18T16:24:00.000Z","time":"2023-10-18T16:24:00.000Z","reihung":false},"auslastung":{"first":3,"second":1}},{"station":{"evaNumber":"8000098","name":"Essen Hbf","coordinates":{"lng":7.01386,"lat":51.451378},"ril100":"EE"},"arrival":{"platform":"1","scheduledTime":"2023-10-18T16:35:00.000Z","time":"2023-10-18T16:35:00.000Z","reihung":false},"departure":{"platform":"1","scheduledTime":"2023-10-18T16:37:00.000Z","time":"2023-10-18T16:37:00.000Z","reihung":false},"auslastung":{"first":2,"second":1}},{"station":{"evaNumber":"8000086","name":"Duisburg Hbf","coordinates":{"lng":6.77606,"lat":51.429615},"ril100":"EDG"},"arrival":{"platform":"3","scheduledTime":"2023-10-18T16:48:00.000Z","time":"2023-10-18T16:48:00.000Z","reihung":false},"departure":{"platform":"3","scheduledTime":"2023-10-18T16:50:00.000Z","time":"2023-10-18T16:50:00.000Z","reihung":false},"auslastung":{"first":2,"second":1}},{"station":{"evaNumber":"8000082","name":"Düsseldorf Flughafen","coordinates":{"lng":6.786973,"lat":51.291568},"ril100":"KDFF"},"arrival":{"platform":"4","scheduledTime":"2023-10-18T16:58:00.000Z","time":"2023-10-18T16:58:00.000Z","reihung":false},"departure":{"platform":"4","scheduledTime":"2023-10-18T17:03:00.000Z","time":"2023-10-18T17:03:00.000Z","reihung":false}},{"station":{"evaNumber":"8000085","name":"Düsseldorf Hbf","coordinates":{"lng":6.794011,"lat":51.219708},"ril100":"KD"},"arrival":{"platform":"15","scheduledTime":"2023-10-18T17:10:00.000Z","time":"2023-10-18T17:10:00.000Z","reihung":false},"departure":{"platform":"15","scheduledTime":"2023-10-18T17:12:00.000Z","time":"2023-10-18T17:12:00.000Z","reihung":false},"auslastung":{"first":1,"second":1}},{"station":{"evaNumber":"8000207","name":"Köln Hbf","coordinates":{"lng":6.959197,"lat":50.942823},"ril100":"KK"},"arrival":{"platform":"7","scheduledTime":"2023-10-18T17:35:00.000Z","time":"2023-10-18T17:35:00.000Z","reihung":false},"departure":{"platform":"7","scheduledTime":"2023-10-18T17:38:00.000Z","time":"2023-10-18T17:38:00.000Z","reihung":false},"auslastung":{"first":1,"second":1}},{"station":{"evaNumber":"8000044","name":"Bonn Hbf","coordinates":{"lng":7.096678,"lat":50.731963},"ril100":"KB"},"arrival":{"platform":"2","scheduledTime":"2023-10-18T18:22:00.000Z","time":"2023-10-18T18:22:00.000Z","reihung":false},"departure":{"platform":"2","scheduledTime":"2023-10-18T18:33:00.000Z","time":"2023-10-18T18:33:00.000Z","reihung":false},"auslastung":{"first":1,"second":1}},{"station":{"evaNumber":"8000310","name":"Remagen","coordinates":{"lng":7.2297,"lat":50.577222},"ril100":"KRE"},"arrival":{"platform":"3","scheduledTime":"2023-10-18T19:49:00.000Z","time":"2023-10-18T19:49:00.000Z","reihung":false},"auslastung":{"first":1,"second":1}},{"station":{"evaNumber":"8000331","name":"Andernach","coordinates":{"lng":7.404442,"lat":50.434743},"ril100":"KAND"},"arrival":{"platform":"1","scheduledTime":"2023-10-18T20:02:00.000Z","time":"2023-10-18T20:02:00.000Z","reihung":false},"auslastung":{"first":1,"second":1}},{"station":{"evaNumber":"8000206","name":"Koblenz Hbf","coordinates":{"lng":7.588343,"lat":50.350775},"ril100":"KKO"},"arrival":{"platform":"4","scheduledTime":"2023-10-18T20:18:00.000Z","time":"2023-10-18T20:18:00.000Z","reihung":false}}],"finalDestination":"Düsseldorf Hbf","jid":"1|206050|0|80|18102023","auslastung":{"first":3,"second":2},"messages":[{"type":"A","code":"CK","prio":200,"icoX":3,"txtN":"Sicher & kontaktlos ohne Ticketkontrolle reisen mit Komfort Check-in"},{"type":"A","code":"BR","prio":450,"icoX":11,"txtN":"Bordrestaurant"},{"type":"A","code":"text.journeystop.product.or.direction.changes.journey.message","icoX":3,"txtN":"Verkehrt ab Dortmund Hbf als ICE 546 in Richtung Koblenz Hbf"}],"type":"JNY"},{"arrival":{"platform":"11 Nord","scheduledTime":"2023-10-18T22:19:00.000Z","time":"2023-10-18T22:19:00.000Z","reihung":false},"departure":{"platform":"9","scheduledTime":"2023-10-18T20:25:00.000Z","time":"2023-10-18T20:25:00.000Z","reihung":false},"duration":6840000,"train":{"name":"RB 81","line":"81","admin":"801512","number":"12132","type":"RB","operator":{"name":"DB Regio AG Mitte","icoX":13}},"segmentStart":{"name":"Koblenz Hbf","evaNumber":"8000206"},"segmentDestination":{"name":"Trier Hbf","evaNumber":"8000134"},"stops":[{"station":{"evaNumber":"8000206","name":"Koblenz Hbf","coordinates":{"lng":7.588343,"lat":50.350775},"ril100":"KKO"},"departure":{"platform":"9","scheduledTime":"2023-10-18T20:25:00.000Z","time":"2023-10-18T20:25:00.000Z","reihung":false}},{"station":{"evaNumber":"8003354","name":"Koblenz-Moselweiß","coordinates":{"lng":7.56018,"lat":50.349094},"ril100":"SKOW"},"arrival":{"platform":"2","scheduledTime":"2023-10-18T20:28:00.000Z","time":"2023-10-18T20:28:00.000Z","reihung":false},"departure":{"platform":"2","scheduledTime":"2023-10-18T20:29:00.000Z","time":"2023-10-18T20:29:00.000Z","reihung":false}},{"station":{"evaNumber":"8002454","name":"Koblenz-Güls","coordinates":{"lng":7.549096,"lat":50.340375},"ril100":"SGS"},"arrival":{"platform":"1","scheduledTime":"2023-10-18T20:31:00.000Z","time":"2023-10-18T20:31:00.000Z","reihung":false},"departure":{"platform":"1","scheduledTime":"2023-10-18T20:31:00.000Z","time":"2023-10-18T20:31:00.000Z","reihung":false}},{"station":{"evaNumber":"8006481","name":"Winningen(Mosel)","coordinates":{"lng":7.523432,"lat":50.315771},"ril100":"SWI"},"arrival":{"platform":"1","scheduledTime":"2023-10-18T20:35:00.000Z","time":"2023-10-18T20:35:00.000Z","reihung":false},"departure":{"platform":"1","scheduledTime":"2023-10-18T20:35:00.000Z","time":"2023-10-18T20:35:00.000Z","reihung":false}},{"station":{"evaNumber":"8003350","name":"Kobern-Gondorf","coordinates":{"lng":7.460642,"lat":50.300579},"ril100":"SKG"},"arrival":{"platform":"2","scheduledTime":"2023-10-18T20:40:00.000Z","time":"2023-10-18T20:40:00.000Z","reihung":false},"departure":{"platform":"2","scheduledTime":"2023-10-18T20:41:00.000Z","time":"2023-10-18T20:41:00.000Z","reihung":false}},{"station":{"evaNumber":"8003611","name":"Lehmen","coordinates":{"lng":7.455231,"lat":50.284812},"ril100":"SLE"},"arrival":{"platform":"1","scheduledTime":"2023-10-18T20:43:00.000Z","time":"2023-10-18T20:43:00.000Z","reihung":false},"departure":{"platform":"1","scheduledTime":"2023-10-18T20:43:00.000Z","time":"2023-10-18T20:43:00.000Z","reihung":false}},{"station":{"evaNumber":"8003211","name":"Kattenes","coordinates":{"lng":7.439203,"lat":50.254285},"ril100":"SKTS"},"arrival":{"platform":"2","scheduledTime":"2023-10-18T20:46:00.000Z","time":"2023-10-18T20:46:00.000Z","reihung":false},"departure":{"platform":"2","scheduledTime":"2023-10-18T20:47:00.000Z","time":"2023-10-18T20:47:00.000Z","reihung":false}},{"station":{"evaNumber":"8003723","name":"Löf","coordinates":{"lng":7.443689,"lat":50.23076},"ril100":"SLF"},"arrival":{"platform":"2","scheduledTime":"2023-10-18T20:50:00.000Z","time":"2023-10-18T20:50:00.000Z","reihung":false},"departure":{"platform":"2","scheduledTime":"2023-10-18T20:50:00.000Z","time":"2023-10-18T20:50:00.000Z","reihung":false}},{"station":{"evaNumber":"8002643","name":"Hatzenport","coordinates":{"lng":7.413943,"lat":50.227767},"ril100":"SHZ"},"arrival":{"platform":"2","scheduledTime":"2023-10-18T20:52:00.000Z","time":"2023-10-18T20:52:00.000Z","reihung":false},"departure":{"platform":"2","scheduledTime":"2023-10-18T20:53:00.000Z","time":"2023-10-18T20:53:00.000Z","reihung":false}},{"station":{"evaNumber":"8004096","name":"Moselkern","coordinates":{"lng":7.37146,"lat":50.195648},"ril100":"SMK"},"arrival":{"platform":"4","scheduledTime":"2023-10-18T20:57:00.000Z","time":"2023-10-18T20:57:00.000Z","reihung":false},"departure":{"platform":"4","scheduledTime":"2023-10-18T20:57:00.000Z","time":"2023-10-18T20:57:00.000Z","reihung":false}},{"station":{"evaNumber":"8004101","name":"Müden(Mosel)","coordinates":{"lng":7.340789,"lat":50.184951},"ril100":"SMD"},"arrival":{"platform":"1","scheduledTime":"2023-10-18T21:00:00.000Z","time":"2023-10-18T21:00:00.000Z","reihung":false},"departure":{"platform":"1","scheduledTime":"2023-10-18T21:00:00.000Z","time":"2023-10-18T21:00:00.000Z","reihung":false}},{"station":{"evaNumber":"8003179","name":"Treis-Karden","coordinates":{"lng":7.299744,"lat":50.180061},"ril100":"STK"},"arrival":{"platform":"2","scheduledTime":"2023-10-18T21:03:00.000Z","time":"2023-10-18T21:03:00.000Z","reihung":false},"departure":{"platform":"2","scheduledTime":"2023-10-18T21:04:00.000Z","time":"2023-10-18T21:04:00.000Z","reihung":false}},{"station":{"evaNumber":"8004859","name":"Pommern(Mosel)","coordinates":{"lng":7.269855,"lat":50.169301},"ril100":"SPOM"},"arrival":{"platform":"1","scheduledTime":"2023-10-18T21:06:00.000Z","time":"2023-10-18T21:06:00.000Z","reihung":false},"departure":{"platform":"1","scheduledTime":"2023-10-18T21:07:00.000Z","time":"2023-10-18T21:07:00.000Z","reihung":false}},{"station":{"evaNumber":"8003344","name":"Klotten","coordinates":{"lng":7.203227,"lat":50.165301},"ril100":"SKT"},"arrival":{"platform":"1","scheduledTime":"2023-10-18T21:10:00.000Z","time":"2023-10-18T21:10:00.000Z","reihung":false},"departure":{"platform":"1","scheduledTime":"2023-10-18T21:11:00.000Z","time":"2023-10-18T21:11:00.000Z","reihung":false}},{"station":{"evaNumber":"8001340","name":"Cochem(Mosel)","coordinates":{"lng":7.166902,"lat":50.153102},"ril100":"SCOC"},"arrival":{"platform":"2","scheduledTime":"2023-10-18T21:14:00.000Z","time":"2023-10-18T21:14:00.000Z","reihung":false},"departure":{"platform":"2","scheduledTime":"2023-10-18T21:15:00.000Z","time":"2023-10-18T21:15:00.000Z","reihung":false}},{"station":{"evaNumber":"8001666","name":"Ediger-Eller","coordinates":{"lng":7.139242,"lat":50.103994}},"arrival":{"platform":"2","scheduledTime":"2023-10-18T21:19:00.000Z","time":"2023-10-18T21:19:00.000Z","reihung":false},"departure":{"platform":"2","scheduledTime":"2023-10-18T21:19:00.000Z","time":"2023-10-18T21:19:00.000Z","reihung":false}},{"station":{"evaNumber":"8004223","name":"Neef","coordinates":{"lng":7.13926,"lat":50.090699},"ril100":"SNF"},"arrival":{"platform":"2","scheduledTime":"2023-10-18T21:21:00.000Z","time":"2023-10-18T21:21:00.000Z","reihung":false},"departure":{"platform":"2","scheduledTime":"2023-10-18T21:22:00.000Z","time":"2023-10-18T21:22:00.000Z","reihung":false}},{"station":{"evaNumber":"8001267","name":"Bullay(DB)","coordinates":{"lng":7.134702,"lat":50.053789},"ril100":"SBY"},"arrival":{"platform":"2","scheduledTime":"2023-10-18T21:25:00.000Z","time":"2023-10-18T21:25:00.000Z","reihung":false},"departure":{"platform":"2","scheduledTime":"2023-10-18T21:26:00.000Z","time":"2023-10-18T21:26:00.000Z","reihung":false}},{"station":{"evaNumber":"8000870","name":"Bengel","coordinates":{"lng":7.057997,"lat":50.010425},"ril100":"SBG"},"arrival":{"platform":"2","scheduledTime":"2023-10-18T21:32:00.000Z","time":"2023-10-18T21:32:00.000Z","reihung":false},"departure":{"platform":"2","scheduledTime":"2023-10-18T21:33:00.000Z","time":"2023-10-18T21:33:00.000Z","reihung":false}},{"station":{"evaNumber":"8005945","name":"Ürzig(DB)","coordinates":{"lng":7.004988,"lat":49.996016},"ril100":"SUG"},"arrival":{"platform":"2","scheduledTime":"2023-10-18T21:36:00.000Z","time":"2023-10-18T21:36:00.000Z","reihung":false},"departure":{"platform":"2","scheduledTime":"2023-10-18T21:37:00.000Z","time":"2023-10-18T21:37:00.000Z","reihung":false}},{"station":{"evaNumber":"8000379","name":"Wittlich Hbf","coordinates":{"lng":6.943574,"lat":49.973102},"ril100":"SWIH"},"arrival":{"platform":"2","scheduledTime":"2023-10-18T21:42:00.000Z","time":"2023-10-18T21:42:00.000Z","reihung":false},"departure":{"platform":"2","scheduledTime":"2023-10-18T21:42:00.000Z","time":"2023-10-18T21:42:00.000Z","reihung":false}},{"station":{"evaNumber":"8005260","name":"Salmtal","coordinates":{"lng":6.83991,"lat":49.921873},"ril100":"SSMT"},"arrival":{"platform":"2","scheduledTime":"2023-10-18T21:48:00.000Z","time":"2023-10-18T21:48:00.000Z","reihung":false},"departure":{"platform":"2","scheduledTime":"2023-10-18T21:49:00.000Z","time":"2023-10-18T21:49:00.000Z","reihung":false}},{"station":{"evaNumber":"8005510","name":"Sehlem(Kr Wittlich)","coordinates":{"lng":6.823541,"lat":49.906924}},"arrival":{"platform":"2","scheduledTime":"2023-10-18T21:51:00.000Z","time":"2023-10-18T21:51:00.000Z","reihung":false},"departure":{"platform":"2","scheduledTime":"2023-10-18T21:52:00.000Z","time":"2023-10-18T21:52:00.000Z","reihung":false}},{"station":{"evaNumber":"8002817","name":"Hetzerath","coordinates":{"lng":6.798416,"lat":49.878113},"ril100":"SHR"},"arrival":{"platform":"2","scheduledTime":"2023-10-18T21:55:00.000Z","time":"2023-10-18T21:55:00.000Z","reihung":false},"departure":{"platform":"2","scheduledTime":"2023-10-18T21:55:00.000Z","time":"2023-10-18T21:55:00.000Z","reihung":false}},{"station":{"evaNumber":"8002018","name":"Föhren","coordinates":{"lng":6.767799,"lat":49.857528},"ril100":"SFOE"},"arrival":{"platform":"2","scheduledTime":"2023-10-18T21:58:00.000Z","time":"2023-10-18T21:58:00.000Z","reihung":false},"departure":{"platform":"2","scheduledTime":"2023-10-18T21:59:00.000Z","time":"2023-10-18T21:59:00.000Z","reihung":false}},{"station":{"evaNumber":"8005476","name":"Schweich(DB)","coordinates":{"lng":6.740328,"lat":49.831145},"ril100":"SSWE"},"arrival":{"platform":"3","scheduledTime":"2023-10-18T22:02:00.000Z","time":"2023-10-18T22:02:00.000Z","reihung":false},"departure":{"platform":"3","scheduledTime":"2023-10-18T22:03:00.000Z","time":"2023-10-18T22:03:00.000Z","reihung":false}},{"station":{"evaNumber":"8004910","name":"Quint","coordinates":{"lng":6.704667,"lat":49.82603},"ril100":"SQI"},"arrival":{"platform":"1","scheduledTime":"2023-10-18T22:06:00.000Z","time":"2023-10-18T22:06:00.000Z","reihung":false},"departure":{"platform":"1","scheduledTime":"2023-10-18T22:06:00.000Z","time":"2023-10-18T22:06:00.000Z","reihung":false}},{"station":{"evaNumber":"8001688","name":"Ehrang Ort","coordinates":{"lng":6.688325,"lat":49.809373}},"arrival":{"platform":"1","scheduledTime":"2023-10-18T22:08:00.000Z","time":"2023-10-18T22:08:00.000Z","reihung":false},"departure":{"platform":"1","scheduledTime":"2023-10-18T22:09:00.000Z","time":"2023-10-18T22:09:00.000Z","reihung":false}},{"station":{"evaNumber":"8000134","name":"Trier Hbf","coordinates":{"lng":6.652395,"lat":49.756795},"ril100":"STR"},"arrival":{"platform":"11 Nord","scheduledTime":"2023-10-18T22:19:00.000Z","time":"2023-10-18T22:19:00.000Z","reihung":false}}],"finalDestination":"Trier Hbf","jid":"1|249485|0|80|18102023","messages":[{"type":"A","code":"FB","prio":260,"icoX":5,"txtN":"Fahrradmitnahme begrenzt möglich"},{"type":"A","code":"EH","prio":560,"icoX":3,"txtN":"Fahrzeuggebundene Einstiegshilfe vorhanden"},{"type":"A","code":"KL","prio":610,"icoX":3,"txtN":"Klimaanlage"}],"type":"JNY"}],"segmentTypes":["ICE","RB"]},{"checksum":"f30a7132_3","cid":"C-2","date":"2023-10-17T22:00:00.000Z","duration":27300000,"changes":2,"isRideable":true,"arrival":{"platform":"11 Süd","scheduledTime":"2023-10-18T20:40:00.000Z","time":"2023-10-18T20:40:00.000Z","reihung":false},"departure":{"platform":"2","scheduledTime":"2023-10-18T13:05:00.000Z","time":"2023-10-18T13:05:00.000Z","reihung":false},"segments":[{"arrival":{"platform":"6","scheduledTime":"2023-10-18T16:59:00.000Z","time":"2023-10-18T16:59:00.000Z","reihung":false},"departure":{"platform":"2","scheduledTime":"2023-10-18T13:05:00.000Z","time":"2023-10-18T13:05:00.000Z","reihung":false},"duration":14040000,"train":{"name":"ICE 771","line":"22","admin":"80","number":"771","type":"ICE","operator":{"name":"DB Fernverkehr AG","icoX":2}},"changeDuration":43,"segmentStart":{"name":"Berlin Hbf (tief)","evaNumber":"8098160"},"segmentDestination":{"name":"Frankfurt(Main)Hbf","evaNumber":"8000105"},"stops":[{"station":{"evaNumber":"8098160","name":"Berlin Hbf (tief)","coordinates":{"lng":13.368892,"lat":52.52585},"ril100":"BL"},"departure":{"platform":"2","scheduledTime":"2023-10-18T13:05:00.000Z","time":"2023-10-18T13:05:00.000Z","reihung":false}},{"station":{"evaNumber":"8011113","name":"Berlin Südkreuz","coordinates":{"lng":13.365863,"lat":52.47623},"ril100":"BPAF"},"departure":{"platform":"3","scheduledTime":"2023-10-18T13:11:00.000Z","time":"2023-10-18T13:11:00.000Z","reihung":false},"auslastung":{"first":3,"second":2}},{"station":{"evaNumber":"8010159","name":"Halle(Saale)Hbf","coordinates":{"lng":11.98699,"lat":51.477079},"ril100":"LH"},"arrival":{"platform":"6","scheduledTime":"2023-10-18T14:13:00.000Z","time":"2023-10-18T14:13:00.000Z","reihung":false},"departure":{"platform":"6","scheduledTime":"2023-10-18T14:18:00.000Z","time":"2023-10-18T14:18:00.000Z","reihung":false},"auslastung":{"first":3,"second":2}},{"station":{"evaNumber":"8010101","name":"Erfurt Hbf","coordinates":{"lng":11.038502,"lat":50.97255},"ril100":"UE  P"},"arrival":{"platform":"1","scheduledTime":"2023-10-18T14:48:00.000Z","time":"2023-10-18T14:48:00.000Z","reihung":false},"departure":{"platform":"1","scheduledTime":"2023-10-18T14:50:00.000Z","time":"2023-10-18T14:50:00.000Z","reihung":false},"auslastung":{"first":3,"second":2}},{"station":{"evaNumber":"8000105","name":"Frankfurt(Main)Hbf","coordinates":{"lng":8.663003,"lat":50.106817},"ril100":"FF"},"arrival":{"platform":"6","scheduledTime":"2023-10-18T16:59:00.000Z","time":"2023-10-18T16:59:00.000Z","reihung":false}}],"finalDestination":"Stuttgart Hbf","jid":"1|209870|0|80|18102023","auslastung":{"first":3,"second":2},"messages":[{"type":"A","code":"CK","prio":200,"icoX":3,"txtN":"Sicher & kontaktlos ohne Ticketkontrolle reisen mit Komfort Check-in"},{"type":"A","code":"FR","prio":260,"icoX":4,"txtN":"Fahrradmitnahme reservierungspflichtig"},{"type":"A","code":"FB","prio":260,"icoX":5,"txtN":"Fahrradmitnahme begrenzt möglich"},{"type":"A","code":"BR","prio":450,"icoX":11,"txtN":"Bordrestaurant"},{"type":"A","code":"EH","prio":560,"icoX":3,"txtN":"Fahrzeuggebundene Einstiegshilfe vorhanden"},{"type":"A","code":"IT","prio":100,"icoX":16,"txtN":"ICE Sprinter"}],"type":"JNY"},{"arrival":{"platform":"3","scheduledTime":"2023-10-18T19:11:00.000Z","time":"2023-10-18T19:11:00.000Z","reihung":false},"departure":{"platform":"7","scheduledTime":"2023-10-18T17:42:00.000Z","time":"2023-10-18T17:42:00.000Z","reihung":false},"duration":5340000,"train":{"name":"ICE 90","line":"91","admin":"80","number":"90","type":"ICE","operator":{"name":"DB Fernverkehr AG","icoX":2}},"changeDuration":8,"segmentStart":{"name":"Frankfurt(Main)Hbf","evaNumber":"8000105"},"segmentDestination":{"name":"Koblenz Hbf","evaNumber":"8000206"},"stops":[{"station":{"evaNumber":"8000105","name":"Frankfurt(Main)Hbf","coordinates":{"lng":8.663003,"lat":50.106817},"ril100":"FF"},"departure":{"platform":"7","scheduledTime":"2023-10-18T17:42:00.000Z","time":"2023-10-18T17:42:00.000Z","reihung":false}},{"station":{"evaNumber":"8070003","name":"Frankfurt(M) Flughafen Fernbf","coordinates":{"lng":8.569776,"lat":50.052926},"ril100":"FFLF"},"arrival":{"platform":"Fern 7","scheduledTime":"2023-10-18T17:55:00.000Z","time":"2023-10-18T17:55:00.000Z","reihung":false},"departure":{"platform":"Fern 7","scheduledTime":"2023-10-18T17:57:00.000Z","time":"2023-10-18T17:57:00.000Z","reihung":false},"auslastung":{"first":1,"second":1}},{"station":{"evaNumber":"8000240","name":"Mainz Hbf","coordinates":{"lng":8.258453,"lat":50.001239},"ril100":"FMZ"},"arrival":{"platform":"3a/b","scheduledTime":"2023-10-18T18:18:00.000Z","time":"2023-10-18T18:18:00.000Z","reihung":false},"departure":{"platform":"3a/b","scheduledTime":"2023-10-18T18:20:00.000Z","time":"2023-10-18T18:20:00.000Z","reihung":false},"auslastung":{"first":1,"second":1}},{"station":{"evaNumber":"8000206","name":"Koblenz Hbf","coordinates":{"lng":7.588343,"lat":50.350775},"ril100":"KKO"},"arrival":{"platform":"3","scheduledTime":"2023-10-18T19:11:00.000Z","time":"2023-10-18T19:11:00.000Z","reihung":false}}],"finalDestination":"Dortmund Hbf","jid":"1|365901|0|80|18102023","auslastung":{"first":1,"second":1},"messages":[{"type":"A","code":"CK","prio":200,"icoX":3,"txtN":"Sicher & kontaktlos ohne Ticketkontrolle reisen mit Komfort Check-in"},{"type":"A","code":"FR","prio":260,"icoX":4,"txtN":"Fahrradmitnahme reservierungspflichtig"},{"type":"A","code":"FB","prio":260,"icoX":5,"txtN":"Fahrradmitnahme begrenzt möglich"},{"type":"A","code":"BR","prio":450,"icoX":11,"txtN":"Bordrestaurant"}],"type":"JNY"},{"arrival":{"platform":"11 Süd","scheduledTime":"2023-10-18T20:40:00.000Z","time":"2023-10-18T20:40:00.000Z","reihung":false},"departure":{"platform":"9","scheduledTime":"2023-10-18T19:19:00.000Z","time":"2023-10-18T19:19:00.000Z","reihung":false},"duration":4860000,"train":{"name":"RE 1","line":"1","admin":"800640","number":"4130","type":"RE","operator":{"name":"DB Regio AG Mitte SÜWEX","icoX":9}},"segmentStart":{"name":"Koblenz Hbf","evaNumber":"8000206"},"segmentDestination":{"name":"Trier Hbf","evaNumber":"8000134"},"stops":[{"station":{"evaNumber":"8000206","name":"Koblenz Hbf","coordinates":{"lng":7.588343,"lat":50.350775},"ril100":"KKO"},"departure":{"platform":"9","scheduledTime":"2023-10-18T19:19:00.000Z","time":"2023-10-18T19:19:00.000Z","reihung":false}},{"station":{"evaNumber":"8003350","name":"Kobern-Gondorf","coordinates":{"lng":7.460642,"lat":50.300579},"ril100":"SKG"},"arrival":{"platform":"2","scheduledTime":"2023-10-18T19:30:00.000Z","time":"2023-10-18T19:30:00.000Z","reihung":false},"departure":{"platform":"2","scheduledTime":"2023-10-18T19:31:00.000Z","time":"2023-10-18T19:31:00.000Z","reihung":false}},{"station":{"evaNumber":"8003179","name":"Treis-Karden","coordinates":{"lng":7.299744,"lat":50.180061},"ril100":"STK"},"arrival":{"platform":"2","scheduledTime":"2023-10-18T19:46:00.000Z","time":"2023-10-18T19:46:00.000Z","reihung":false},"departure":{"platform":"2","scheduledTime":"2023-10-18T19:46:00.000Z","time":"2023-10-18T19:46:00.000Z","reihung":false}},{"station":{"evaNumber":"8001340","name":"Cochem(Mosel)","coordinates":{"lng":7.166902,"lat":50.153102},"ril100":"SCOC"},"arrival":{"platform":"2","scheduledTime":"2023-10-18T19:53:00.000Z","time":"2023-10-18T19:53:00.000Z","reihung":false},"departure":{"platform":"2","scheduledTime":"2023-10-18T19:54:00.000Z","time":"2023-10-18T19:54:00.000Z","reihung":false}},{"station":{"evaNumber":"8001267","name":"Bullay(DB)","coordinates":{"lng":7.134702,"lat":50.053789},"ril100":"SBY"},"arrival":{"platform":"2","scheduledTime":"2023-10-18T20:02:00.000Z","time":"2023-10-18T20:02:00.000Z","reihung":false},"departure":{"platform":"2","scheduledTime":"2023-10-18T20:02:00.000Z","time":"2023-10-18T20:02:00.000Z","reihung":false}},{"station":{"evaNumber":"8000379","name":"Wittlich Hbf","coordinates":{"lng":6.943574,"lat":49.973102},"ril100":"SWIH"},"arrival":{"platform":"2","scheduledTime":"2023-10-18T20:14:00.000Z","time":"2023-10-18T20:14:00.000Z","reihung":false},"departure":{"platform":"2","scheduledTime":"2023-10-18T20:14:00.000Z","time":"2023-10-18T20:14:00.000Z","reihung":false}},{"station":{"evaNumber":"8005476","name":"Schweich(DB)","coordinates":{"lng":6.740328,"lat":49.831145},"ril100":"SSWE"},"arrival":{"platform":"3","scheduledTime":"2023-10-18T20:28:00.000Z","time":"2023-10-18T20:28:00.000Z","reihung":false},"departure":{"platform":"3","scheduledTime":"2023-10-18T20:29:00.000Z","time":"2023-10-18T20:29:00.000Z","reihung":false}},{"station":{"evaNumber":"8000134","name":"Trier Hbf","coordinates":{"lng":6.652395,"lat":49.756795},"ril100":"STR"},"arrival":{"platform":"11 Süd","scheduledTime":"2023-10-18T20:40:00.000Z","time":"2023-10-18T20:40:00.000Z","reihung":false}}],"finalDestination":"Saarbrücken Hbf","jid":"1|255363|0|80|18102023","messages":[{"type":"A","code":"FB","prio":260,"icoX":5,"txtN":"Fahrradmitnahme begrenzt möglich"},{"type":"A","code":"RC","prio":320,"icoX":3,"txtN":"Reservierung an DB-Automaten/Reisezentren/vielen DB-Agenturen möglich"},{"type":"A","code":"EH","prio":560,"icoX":3,"txtN":"Fahrzeuggebundene Einstiegshilfe vorhanden"},{"type":"A","code":"LS","prio":605,"icoX":3,"txtN":"Laptop-Steckdosen"}],"type":"JNY"}],"segmentTypes":["ICE","ICE","RE"]},{"checksum":"ca16f08b_3","cid":"C-3","date":"2023-10-17T22:00:00.000Z","duration":28860000,"changes":3,"isRideable":true,"arrival":{"platform":"13 Süd","scheduledTime":"2023-10-18T21:28:00.000Z","time":"2023-10-18T21:28:00.000Z","reihung":false},"departure":{"platform":"4","scheduledTime":"2023-10-18T13:27:00.000Z","time":"2023-10-18T13:27:00.000Z","reihung":false},"segments":[{"arrival":{"platform":"3","scheduledTime":"2023-10-18T16:41:00.000Z","time":"2023-10-18T16:41:00.000Z","reihung":false},"departure":{"platform":"4","scheduledTime":"2023-10-18T13:27:00.000Z","time":"2023-10-18T13:27:00.000Z","reihung":false},"duration":11640000,"train":{"name":"FLX 1247","line":"10","admin":"FLX10","number":"1247","type":"FLX","operator":{"name":"FlixTrain","icoX":19}},"changeDuration":7,"segmentStart":{"name":"Berlin Hbf (tief)","evaNumber":"8098160"},"segmentDestination":{"name":"Fulda","evaNumber":"8000115"},"stops":[{"station":{"evaNumber":"8098160","name":"Berlin Hbf (tief)","coordinates":{"lng":13.368892,"lat":52.52585},"ril100":"BL"},"departure":{"platform":"4","scheduledTime":"2023-10-18T13:27:00.000Z","time":"2023-10-18T13:27:00.000Z","reihung":false}},{"station":{"evaNumber":"8010159","name":"Halle(Saale)Hbf","coordinates":{"lng":11.98699,"lat":51.477079},"ril100":"LH"},"arrival":{"platform":"6","scheduledTime":"2023-10-18T14:42:00.000Z","time":"2023-10-18T14:42:00.000Z","reihung":false},"departure":{"platform":"6","scheduledTime":"2023-10-18T14:44:00.000Z","time":"2023-10-18T14:44:00.000Z","reihung":false}},{"station":{"evaNumber":"8010101","name":"Erfurt Hbf","coordinates":{"lng":11.038502,"lat":50.97255},"ril100":"UE  P"},"arrival":{"platform":"1","scheduledTime":"2023-10-18T15:18:00.000Z","time":"2023-10-18T15:18:00.000Z","reihung":false},"departure":{"platform":"1","scheduledTime":"2023-10-18T15:20:00.000Z","time":"2023-10-18T15:20:00.000Z","reihung":false}},{"station":{"evaNumber":"8010136","name":"Gotha","coordinates":{"lng":10.712688,"lat":50.939029},"ril100":"UGO"},"arrival":{"platform":"2","scheduledTime":"2023-10-18T15:38:00.000Z","time":"2023-10-18T15:38:00.000Z","reihung":false},"departure":{"platform":"2","scheduledTime":"2023-10-18T15:39:00.000Z","time":"2023-10-18T15:39:00.000Z","reihung":false}},{"station":{"evaNumber":"8000115","name":"Fulda","coordinates":{"lng":9.684178,"lat":50.554794},"ril100":"FFU"},"arrival":{"platform":"3","scheduledTime":"2023-10-18T16:41:00.000Z","time":"2023-10-18T16:41:00.000Z","reihung":false}}],"finalDestination":"Stuttgart Hbf","jid":"1|286358|0|80|18102023","messages":[{"type":"A","code":"DU","prio":110,"icoX":3,"txtN":"DB-Fahrscheine gelten nicht"},{"type":"A","code":"RP","prio":185,"icoX":20,"txtN":"Reservierungspflicht"},{"type":"A","code":"9N","prio":186,"icoX":3,"txtN":"Deutschland-Ticket nicht gültig"},{"type":"A","code":"FN","prio":555,"icoX":3,"txtN":"Einstieg nur mit gültigem FlixTrain- oder FlixBus Ticket"},{"type":"A","code":"FX","prio":560,"icoX":3,"txtN":"Tickets unter www.flixtrain.de"},{"type":"A","code":"FG","prio":603,"icoX":3,"txtN":"Sitzplatzgarantie"},{"type":"A","code":"LS","prio":605,"icoX":3,"txtN":"Laptop-Steckdosen"},{"type":"A","code":"WV","prio":710,"icoX":3,"txtN":"WLAN verfügbar"}],"type":"JNY"},{"arrival":{"platform":"5","scheduledTime":"2023-10-18T18:27:00.000Z","time":"2023-10-18T18:27:00.000Z","reihung":false},"departure":{"platform":"4","scheduledTime":"2023-10-18T16:48:00.000Z","time":"2023-10-18T16:48:00.000Z","reihung":false},"duration":5940000,"train":{"name":"ICE 693","line":"11","admin":"80","number":"693","type":"ICE","operator":{"name":"DB Fernverkehr AG","icoX":2}},"changeDuration":22,"segmentStart":{"name":"Fulda","evaNumber":"8000115"},"segmentDestination":{"name":"Mannheim Hbf","evaNumber":"8000244"},"stops":[{"station":{"evaNumber":"8000115","name":"Fulda","coordinates":{"lng":9.684178,"lat":50.554794},"ril100":"FFU"},"departure":{"platform":"4","scheduledTime":"2023-10-18T16:48:00.000Z","time":"2023-10-18T16:48:00.000Z","reihung":false},"auslastung":{"first":2,"second":1},"messages":[{"type":"A","code":"text.journeystop.product.or.direction.changes.stop.message","icoX":3,"txtN":"Verkehrt ab hier als ICE 693 in Richtung Ulm Hbf"}]},{"station":{"evaNumber":"8000105","name":"Frankfurt(Main)Hbf","coordinates":{"lng":8.663003,"lat":50.106817},"ril100":"FF"},"arrival":{"platform":"9","scheduledTime":"2023-10-18T17:44:00.000Z","time":"2023-10-18T17:44:00.000Z","reihung":false},"departure":{"platform":"9","scheduledTime":"2023-10-18T17:50:00.000Z","time":"2023-10-18T17:50:00.000Z","reihung":false},"auslastung":{"first":2,"second":1},"messages":[{"type":"A","code":"text.journeystop.product.or.direction.changes.stop.message","icoX":3,"txtN":"Verkehrt ab hier als ICE 693 in Richtung München Hbf"}]},{"station":{"evaNumber":"8000244","name":"Mannheim Hbf","coordinates":{"lng":8.469268,"lat":49.479181},"ril100":"RM"},"arrival":{"platform":"5","scheduledTime":"2023-10-18T18:27:00.000Z","time":"2023-10-18T18:27:00.000Z","reihung":false}}],"finalDestination":"Ulm Hbf","jid":"1|208720|0|80|18102023","auslastung":{"first":2,"second":1},"messages":[{"type":"A","code":"CK","prio":200,"icoX":3,"txtN":"Sicher & kontaktlos ohne Ticketkontrolle reisen mit Komfort Check-in"},{"type":"A","code":"FR","prio":260,"icoX":4,"txtN":"Fahrradmitnahme reservierungspflichtig"},{"type":"A","code":"FB","prio":260,"icoX":5,"txtN":"Fahrradmitnahme begrenzt möglich"},{"type":"A","code":"BR","prio":450,"icoX":11,"txtN":"Bordrestaurant"},{"type":"A","code":"EH","prio":560,"icoX":3,"txtN":"Fahrzeuggebundene Einstiegshilfe vorhanden"},{"type":"A","code":"text.journeystop.product.or.direction.changes.journey.message","icoX":3,"txtN":"Verkehrt ab Frankfurt(Main)Hbf als ICE 693 in Richtung München Hbf"}],"type":"JNY"},{"arrival":{"scheduledTime":"2023-10-18T20:16:00.000Z","time":"2023-10-18T20:16:00.000Z","reihung":false},"departure":{"platform":"2","scheduledTime":"2023-10-18T18:49:00.000Z","time":"2023-10-18T18:49:00.000Z","reihung":false},"duration":5220000,"train":{"name":"IC 2516","line":"62","admin":"80","number":"2516","type":"IC","operator":{"name":"DB Fernverkehr AG","icoX":2}},"changeDuration":6,"segmentStart":{"name":"Mannheim Hbf","evaNumber":"8000244"},"segmentDestination":{"name":"Saarbrücken Hbf","evaNumber":"8000323"},"stops":[{"station":{"evaNumber":"8000244","name":"Mannheim Hbf","coordinates":{"lng":8.469268,"lat":49.479181},"ril100":"RM"},"departure":{"platform":"2","scheduledTime":"2023-10-18T18:49:00.000Z","time":"2023-10-18T18:49:00.000Z","reihung":false},"auslastung":{"first":1,"second":1}},{"station":{"evaNumber":"8000275","name":"Neustadt(Weinstr)Hbf","coordinates":{"lng":8.14038,"lat":49.349601},"ril100":"RN"},"arrival":{"platform":"2","scheduledTime":"2023-10-18T19:09:00.000Z","time":"2023-10-18T19:09:00.000Z","reihung":false},"departure":{"platform":"2","scheduledTime":"2023-10-18T19:11:00.000Z","time":"2023-10-18T19:11:00.000Z","reihung":false},"auslastung":{"first":1,"second":1}},{"station":{"evaNumber":"8000189","name":"Kaiserslautern Hbf","coordinates":{"lng":7.768765,"lat":49.436042},"ril100":"SKL"},"arrival":{"platform":"3","scheduledTime":"2023-10-18T19:32:00.000Z","time":"2023-10-18T19:32:00.000Z","reihung":false},"departure":{"platform":"3","scheduledTime":"2023-10-18T19:34:00.000Z","time":"2023-10-18T19:34:00.000Z","reihung":false},"auslastung":{"first":1,"second":1}},{"station":{"evaNumber":"8000176","name":"Homburg(Saar)Hbf","coordinates":{"lng":7.336978,"lat":49.328117},"ril100":"SHO"},"arrival":{"platform":"5","scheduledTime":"2023-10-18T19:53:00.000Z","time":"2023-10-18T19:53:00.000Z","reihung":false},"departure":{"platform":"5","scheduledTime":"2023-10-18T19:55:00.000Z","time":"2023-10-18T19:55:00.000Z","reihung":false},"auslastung":{"first":1,"second":1}},{"station":{"evaNumber":"8000323","name":"Saarbrücken Hbf","coordinates":{"lng":6.991055,"lat":49.241371},"ril100":"SSH"},"arrival":{"platform":"5","scheduledTime":"2023-10-18T20:16:00.000Z","time":"2023-10-18T20:16:00.000Z","reihung":false}}],"finalDestination":"Saarbrücken Hbf","jid":"1|203713|0|80|18102023","auslastung":{"first":1,"second":1},"messages":[{"type":"A","code":"EZ","prio":400,"icoX":3,"txtN":"Ersatzzug"}],"type":"JNY"},{"arrival":{"platform":"13 Süd","scheduledTime":"2023-10-18T21:28:00.000Z","time":"2023-10-18T21:28:00.000Z","reihung":false},"departure":{"platform":"5","scheduledTime":"2023-10-18T20:22:00.000Z","time":"2023-10-18T20:22:00.000Z","reihung":false},"duration":3960000,"train":{"name":"RE 1","line":"1","admin":"800640","number":"4143","type":"RE","operator":{"name":"DB Regio AG Mitte SÜWEX","icoX":9}},"segmentStart":{"name":"Saarbrücken Hbf","evaNumber":"8000323"},"segmentDestination":{"name":"Trier Hbf","evaNumber":"8000134"},"stops":[{"station":{"evaNumber":"8000323","name":"Saarbrücken Hbf","coordinates":{"lng":6.991055,"lat":49.241371},"ril100":"SSH"},"departure":{"platform":"5","scheduledTime":"2023-10-18T20:22:00.000Z","time":"2023-10-18T20:22:00.000Z","reihung":false}},{"station":{"evaNumber":"8000175","name":"Völklingen","coordinates":{"lng":6.848081,"lat":49.249039},"ril100":"SVL"},"arrival":{"platform":"1","scheduledTime":"2023-10-18T20:30:00.000Z","time":"2023-10-18T20:30:00.000Z","reihung":false},"departure":{"platform":"1","scheduledTime":"2023-10-18T20:31:00.000Z","time":"2023-10-18T20:31:00.000Z","reihung":false}},{"station":{"evaNumber":"8005247","name":"Saarlouis Hbf","coordinates":{"lng":6.750171,"lat":49.327785},"ril100":"SSLS"},"arrival":{"platform":"2","scheduledTime":"2023-10-18T20:38:00.000Z","time":"2023-10-18T20:38:00.000Z","reihung":false},"departure":{"platform":"2","scheduledTime":"2023-10-18T20:39:00.000Z","time":"2023-10-18T20:39:00.000Z","reihung":false}},{"station":{"evaNumber":"8000075","name":"Dillingen(Saar)","coordinates":{"lng":6.722196,"lat":49.352487},"ril100":"SDL"},"arrival":{"platform":"4","scheduledTime":"2023-10-18T20:42:00.000Z","time":"2023-10-18T20:42:00.000Z","reihung":false},"departure":{"platform":"4","scheduledTime":"2023-10-18T20:42:00.000Z","time":"2023-10-18T20:42:00.000Z","reihung":false}},{"station":{"evaNumber":"8003992","name":"Merzig(Saar)","coordinates":{"lng":6.634183,"lat":49.436446},"ril100":"SMZG"},"arrival":{"platform":"1","scheduledTime":"2023-10-18T20:50:00.000Z","time":"2023-10-18T20:50:00.000Z","reihung":false},"departure":{"platform":"1","scheduledTime":"2023-10-18T20:50:00.000Z","time":"2023-10-18T20:50:00.000Z","reihung":false}},{"station":{"evaNumber":"8004004","name":"Mettlach","coordinates":{"lng":6.598325,"lat":49.495451},"ril100":"SMT"},"arrival":{"platform":"12","scheduledTime":"2023-10-18T20:55:00.000Z","time":"2023-10-18T20:55:00.000Z","reihung":false},"departure":{"platform":"12","scheduledTime":"2023-10-18T20:56:00.000Z","time":"2023-10-18T20:56:00.000Z","reihung":false}},{"station":{"evaNumber":"8005245","name":"Saarburg(Bz Trier)","coordinates":{"lng":6.55693,"lat":49.606226},"ril100":"SSAB"},"arrival":{"platform":"1","scheduledTime":"2023-10-18T21:08:00.000Z","time":"2023-10-18T21:08:00.000Z","reihung":false},"departure":{"platform":"1","scheduledTime":"2023-10-18T21:09:00.000Z","time":"2023-10-18T21:09:00.000Z","reihung":false}},{"station":{"evaNumber":"8003402","name":"Konz","coordinates":{"lng":6.573164,"lat":49.695291},"ril100":"SKZ"},"arrival":{"platform":"3","scheduledTime":"2023-10-18T21:19:00.000Z","time":"2023-10-18T21:19:00.000Z","reihung":false},"departure":{"platform":"3","scheduledTime":"2023-10-18T21:20:00.000Z","time":"2023-10-18T21:20:00.000Z","reihung":false}},{"station":{"evaNumber":"8000134","name":"Trier Hbf","coordinates":{"lng":6.652395,"lat":49.756795},"ril100":"STR"},"arrival":{"platform":"13 Süd","scheduledTime":"2023-10-18T21:28:00.000Z","time":"2023-10-18T21:28:00.000Z","reihung":false}}],"finalDestination":"Trier Hbf","jid":"1|255427|0|80|18102023","messages":[{"type":"A","code":"FB","prio":260,"icoX":5,"txtN":"Fahrradmitnahme begrenzt möglich"},{"type":"A","code":"RC","prio":320,"icoX":3,"txtN":"Reservierung an DB-Automaten/Reisezentren/vielen DB-Agenturen möglich"},{"type":"A","code":"EH","prio":560,"icoX":3,"txtN":"Fahrzeuggebundene Einstiegshilfe vorhanden"},{"type":"A","code":"LS","prio":605,"icoX":3,"txtN":"Laptop-Steckdosen"}],"type":"JNY"}],"segmentTypes":["FLX","ICE","IC","RE"]},{"checksum":"36d1f2bc_3","cid":"C-4","date":"2023-10-17T22:00:00.000Z","duration":29580000,"changes":3,"isRideable":true,"arrival":{"platform":"11 Süd","scheduledTime":"2023-10-18T21:40:00.000Z","time":"2023-10-18T21:40:00.000Z","reihung":false},"departure":{"platform":"4","scheduledTime":"2023-10-18T13:27:00.000Z","time":"2023-10-18T13:27:00.000Z","reihung":false},"segments":[{"arrival":{"platform":"10","scheduledTime":"2023-10-18T17:52:00.000Z","time":"2023-10-18T17:52:00.000Z","reihung":false},"departure":{"platform":"4","scheduledTime":"2023-10-18T13:27:00.000Z","time":"2023-10-18T13:27:00.000Z","reihung":false},"duration":15900000,"train":{"name":"FLX 1247","line":"10","admin":"FLX10","number":"1247","type":"FLX","operator":{"name":"FlixTrain","icoX":19}},"changeDuration":46,"segmentStart":{"name":"Berlin Hbf (tief)","evaNumber":"8098160"},"segmentDestination":{"name":"Darmstadt Hbf","evaNumber":"8000068"},"stops":[{"station":{"evaNumber":"8098160","name":"Berlin Hbf (tief)","coordinates":{"lng":13.368892,"lat":52.52585},"ril100":"BL"},"departure":{"platform":"4","scheduledTime":"2023-10-18T13:27:00.000Z","time":"2023-10-18T13:27:00.000Z","reihung":false}},{"station":{"evaNumber":"8010159","name":"Halle(Saale)Hbf","coordinates":{"lng":11.98699,"lat":51.477079},"ril100":"LH"},"arrival":{"platform":"6","scheduledTime":"2023-10-18T14:42:00.000Z","time":"2023-10-18T14:42:00.000Z","reihung":false},"departure":{"platform":"6","scheduledTime":"2023-10-18T14:44:00.000Z","time":"2023-10-18T14:44:00.000Z","reihung":false}},{"station":{"evaNumber":"8010101","name":"Erfurt Hbf","coordinates":{"lng":11.038502,"lat":50.97255},"ril100":"UE  P"},"arrival":{"platform":"1","scheduledTime":"2023-10-18T15:18:00.000Z","time":"2023-10-18T15:18:00.000Z","reihung":false},"departure":{"platform":"1","scheduledTime":"2023-10-18T15:20:00.000Z","time":"2023-10-18T15:20:00.000Z","reihung":false}},{"station":{"evaNumber":"8010136","name":"Gotha","coordinates":{"lng":10.712688,"lat":50.939029},"ril100":"UGO"},"arrival":{"platform":"2","scheduledTime":"2023-10-18T15:38:00.000Z","time":"2023-10-18T15:38:00.000Z","reihung":false},"departure":{"platform":"2","scheduledTime":"2023-10-18T15:39:00.000Z","time":"2023-10-18T15:39:00.000Z","reihung":false}},{"station":{"evaNumber":"8000115","name":"Fulda","coordinates":{"lng":9.684178,"lat":50.554794},"ril100":"FFU"},"arrival":{"platform":"3","scheduledTime":"2023-10-18T16:41:00.000Z","time":"2023-10-18T16:41:00.000Z","reihung":false},"departure":{"platform":"3","scheduledTime":"2023-10-18T16:43:00.000Z","time":"2023-10-18T16:43:00.000Z","reihung":false}},{"station":{"evaNumber":"8002041","name":"Frankfurt(Main)Süd","coordinates":{"lng":8.686187,"lat":50.099302},"ril100":"FFS"},"arrival":{"platform":"9","scheduledTime":"2023-10-18T17:32:00.000Z","time":"2023-10-18T17:32:00.000Z","reihung":false},"departure":{"platform":"9","scheduledTime":"2023-10-18T17:36:00.000Z","time":"2023-10-18T17:36:00.000Z","reihung":false}},{"station":{"evaNumber":"8000068","name":"Darmstadt Hbf","coordinates":{"lng":8.629707,"lat":49.872549},"ril100":"FD"},"arrival":{"platform":"10","scheduledTime":"2023-10-18T17:52:00.000Z","time":"2023-10-18T17:52:00.000Z","reihung":false}}],"finalDestination":"Stuttgart Hbf","jid":"1|286358|0|80|18102023","messages":[{"type":"A","code":"DU","prio":110,"icoX":3,"txtN":"DB-Fahrscheine gelten nicht"},{"type":"A","code":"RP","prio":185,"icoX":20,"txtN":"Reservierungspflicht"},{"type":"A","code":"9N","prio":186,"icoX":3,"txtN":"Deutschland-Ticket nicht gültig"},{"type":"A","code":"FN","prio":555,"icoX":3,"txtN":"Einstieg nur mit gültigem FlixTrain- oder FlixBus Ticket"},{"type":"A","code":"FX","prio":560,"icoX":3,"txtN":"Tickets unter www.flixtrain.de"},{"type":"A","code":"FG","prio":603,"icoX":3,"txtN":"Sitzplatzgarantie"},{"type":"A","code":"LS","prio":605,"icoX":3,"txtN":"Laptop-Steckdosen"},{"type":"A","code":"WV","prio":710,"icoX":3,"txtN":"WLAN verfügbar"}],"type":"JNY"},{"arrival":{"platform":"3a","scheduledTime":"2023-10-18T19:11:00.000Z","time":"2023-10-18T19:11:00.000Z","reihung":false},"departure":{"platform":"9","scheduledTime":"2023-10-18T18:38:00.000Z","time":"2023-10-18T18:38:00.000Z","reihung":false},"duration":1980000,"train":{"name":"HLB RB75","line":"RB75","admin":"K4RB","number":"28732","type":"HLB","operator":{"name":"HLB Hessenbahn GmbH","icoX":23}},"changeDuration":9,"segmentStart":{"name":"Darmstadt Hbf","evaNumber":"8000068"},"segmentDestination":{"name":"Mainz Hbf","evaNumber":"8000240"},"stops":[{"station":{"evaNumber":"8000068","name":"Darmstadt Hbf","coordinates":{"lng":8.629707,"lat":49.872549},"ril100":"FD"},"departure":{"platform":"9","scheduledTime":"2023-10-18T18:38:00.000Z","time":"2023-10-18T18:38:00.000Z","reihung":false}},{"station":{"evaNumber":"8006306","name":"Weiterstadt","coordinates":{"lng":8.579341,"lat":49.909701},"ril100":"FWI"},"arrival":{"platform":"2","scheduledTime":"2023-10-18T18:45:00.000Z","time":"2023-10-18T18:45:00.000Z","reihung":false},"departure":{"platform":"2","scheduledTime":"2023-10-18T18:45:00.000Z","time":"2023-10-18T18:45:00.000Z","reihung":false}},{"station":{"evaNumber":"8003313","name":"Klein Gerau","coordinates":{"lng":8.516749,"lat":49.91985},"ril100":"FKGE"},"arrival":{"platform":"2","scheduledTime":"2023-10-18T18:49:00.000Z","time":"2023-10-18T18:49:00.000Z","reihung":false},"departure":{"platform":"2","scheduledTime":"2023-10-18T18:49:00.000Z","time":"2023-10-18T18:49:00.000Z","reihung":false}},{"station":{"evaNumber":"8000136","name":"Groß Gerau","coordinates":{"lng":8.486024,"lat":49.924803}},"arrival":{"platform":"2","scheduledTime":"2023-10-18T18:52:00.000Z","time":"2023-10-18T18:52:00.000Z","reihung":false},"departure":{"platform":"2","scheduledTime":"2023-10-18T18:52:00.000Z","time":"2023-10-18T18:52:00.000Z","reihung":false}},{"station":{"evaNumber":"8004210","name":"Nauheim(b Gr.Gerau)","coordinates":{"lng":8.449896,"lat":49.942098},"ril100":"FNU"},"arrival":{"platform":"1","scheduledTime":"2023-10-18T18:55:00.000Z","time":"2023-10-18T18:55:00.000Z","reihung":false},"departure":{"platform":"1","scheduledTime":"2023-10-18T18:55:00.000Z","time":"2023-10-18T18:55:00.000Z","reihung":false}},{"station":{"evaNumber":"8000241","name":"Mainz-Bischofsheim","coordinates":{"lng":8.358062,"lat":49.992941},"ril100":"FMB"},"arrival":{"platform":"3","scheduledTime":"2023-10-18T19:01:00.000Z","time":"2023-10-18T19:01:00.000Z","reihung":false},"departure":{"platform":"3","scheduledTime":"2023-10-18T19:01:00.000Z","time":"2023-10-18T19:01:00.000Z","reihung":false}},{"station":{"evaNumber":"8003818","name":"Mainz-Gustavsburg","coordinates":{"lng":8.314222,"lat":49.994056},"ril100":"FMG"},"arrival":{"platform":"1","scheduledTime":"2023-10-18T19:04:00.000Z","time":"2023-10-18T19:04:00.000Z","reihung":false},"departure":{"platform":"1","scheduledTime":"2023-10-18T19:04:00.000Z","time":"2023-10-18T19:04:00.000Z","reihung":false}},{"station":{"evaNumber":"8003816","name":"Mainz Römisches Theater","coordinates":{"lng":8.277393,"lat":49.993517},"ril100":"FMS"},"arrival":{"platform":"2","scheduledTime":"2023-10-18T19:07:00.000Z","time":"2023-10-18T19:07:00.000Z","reihung":false},"departure":{"platform":"2","scheduledTime":"2023-10-18T19:09:00.000Z","time":"2023-10-18T19:09:00.000Z","reihung":false}},{"station":{"evaNumber":"8000240","name":"Mainz Hbf","coordinates":{"lng":8.258453,"lat":50.001239},"ril100":"FMZ"},"arrival":{"platform":"3a","scheduledTime":"2023-10-18T19:11:00.000Z","time":"2023-10-18T19:11:00.000Z","reihung":false}}],"finalDestination":"Wiesbaden Hbf","jid":"1|293342|0|80|18102023","messages":[{"type":"A","code":"FB","prio":260,"icoX":5,"txtN":"Fahrradmitnahme begrenzt möglich"}],"type":"JNY"},{"arrival":{"platform":"3","scheduledTime":"2023-10-18T20:11:00.000Z","time":"2023-10-18T20:11:00.000Z","reihung":false},"departure":{"platform":"3a/b","scheduledTime":"2023-10-18T19:20:00.000Z","time":"2023-10-18T19:20:00.000Z","reihung":false},"duration":3060000,"train":{"name":"IC 2343","line":"55","admin":"80","number":"2343","type":"IC","operator":{"name":"DB Fernverkehr AG","icoX":2}},"changeDuration":8,"segmentStart":{"name":"Mainz Hbf","evaNumber":"8000240"},"segmentDestination":{"name":"Koblenz Hbf","evaNumber":"8000206"},"stops":[{"station":{"evaNumber":"8000240","name":"Mainz Hbf","coordinates":{"lng":8.258453,"lat":50.001239},"ril100":"FMZ"},"departure":{"platform":"3a/b","scheduledTime":"2023-10-18T19:20:00.000Z","time":"2023-10-18T19:20:00.000Z","reihung":false},"auslastung":{"first":1,"second":1}},{"station":{"evaNumber":"8000206","name":"Koblenz Hbf","coordinates":{"lng":7.588343,"lat":50.350775},"ril100":"KKO"},"arrival":{"platform":"3","scheduledTime":"2023-10-18T20:11:00.000Z","time":"2023-10-18T20:11:00.000Z","reihung":false}}],"finalDestination":"Köln Hbf","jid":"1|202858|0|80|18102023","auslastung":{"first":1,"second":1},"messages":[{"type":"A","code":"CK","prio":200,"icoX":3,"txtN":"Sicher & kontaktlos ohne Ticketkontrolle reisen mit Komfort Check-in"},{"type":"A","code":"FR","prio":260,"icoX":4,"txtN":"Fahrradmitnahme reservierungspflichtig"},{"type":"A","code":"FB","prio":260,"icoX":5,"txtN":"Fahrradmitnahme begrenzt möglich"},{"type":"A","code":"MP","prio":460,"icoX":3,"txtN":"Snacks und Getränke am Platz"},{"type":"A","code":"EH","prio":560,"icoX":3,"txtN":"Fahrzeuggebundene Einstiegshilfe vorhanden"},{"type":"A","code":"IZ","prio":800,"icoX":3,"txtN":"Intercity 2: Info unter www.bahn.de/ic2"}],"type":"JNY"},{"arrival":{"platform":"11 Süd","scheduledTime":"2023-10-18T21:40:00.000Z","time":"2023-10-18T21:40:00.000Z","reihung":false},"departure":{"platform":"9","scheduledTime":"2023-10-18T20:19:00.000Z","time":"2023-10-18T20:19:00.000Z","reihung":false},"duration":4860000,"wings":[{"train":{"name":"RE 11","line":"11","admin":"800640","number":"5132","type":"RE","operator":{"name":"DB Regio AG Mitte SÜWEX","icoX":9}},"segmentStart":{"name":"Koblenz Hbf","evaNumber":"8000206"},"segmentDestination":{"name":"Trier Hbf","evaNumber":"8000134"},"stops":[{"station":{"evaNumber":"8000206","name":"Koblenz Hbf","coordinates":{"lng":7.588343,"lat":50.350775},"ril100":"KKO"},"departure":{"platform":"9","scheduledTime":"2023-10-18T20:19:00.000Z","time":"2023-10-18T20:19:00.000Z","reihung":false}},{"station":{"evaNumber":"8003350","name":"Kobern-Gondorf","coordinates":{"lng":7.460642,"lat":50.300579},"ril100":"SKG"},"arrival":{"platform":"2","scheduledTime":"2023-10-18T20:30:00.000Z","time":"2023-10-18T20:30:00.000Z","reihung":false}},{"station":{"evaNumber":"8003179","name":"Treis-Karden","coordinates":{"lng":7.299744,"lat":50.180061},"ril100":"STK"},"arrival":{"platform":"2","scheduledTime":"2023-10-18T20:46:00.000Z","time":"2023-10-18T20:46:00.000Z","reihung":false}},{"station":{"evaNumber":"8001340","name":"Cochem(Mosel)","coordinates":{"lng":7.166902,"lat":50.153102},"ril100":"SCOC"},"arrival":{"platform":"2","scheduledTime":"2023-10-18T20:53:00.000Z","time":"2023-10-18T20:53:00.000Z","reihung":false}},{"station":{"evaNumber":"8001267","name":"Bullay(DB)","coordinates":{"lng":7.134702,"lat":50.053789},"ril100":"SBY"},"arrival":{"platform":"2","scheduledTime":"2023-10-18T21:02:00.000Z","time":"2023-10-18T21:02:00.000Z","reihung":false}},{"station":{"evaNumber":"8000379","name":"Wittlich Hbf","coordinates":{"lng":6.943574,"lat":49.973102},"ril100":"SWIH"},"arrival":{"platform":"2","scheduledTime":"2023-10-18T21:14:00.000Z","time":"2023-10-18T21:14:00.000Z","reihung":false}},{"station":{"evaNumber":"8005476","name":"Schweich(DB)","coordinates":{"lng":6.740328,"lat":49.831145},"ril100":"SSWE"},"arrival":{"platform":"3","scheduledTime":"2023-10-18T21:28:00.000Z","time":"2023-10-18T21:28:00.000Z","reihung":false}},{"station":{"evaNumber":"8000134","name":"Trier Hbf","coordinates":{"lng":6.652395,"lat":49.756795},"ril100":"STR"},"arrival":{"platform":"11 Süd","scheduledTime":"2023-10-18T21:40:00.000Z","time":"2023-10-18T21:40:00.000Z","reihung":false}}],"finalDestination":"Luxembourg","jid":"1|361414|0|80|18102023"}],"train":{"name":"RE 1","line":"1","admin":"800640","number":"4134","type":"RE","operator":{"name":"DB Regio AG Mitte SÜWEX","icoX":9}},"segmentStart":{"name":"Koblenz Hbf","evaNumber":"8000206"},"segmentDestination":{"name":"Trier Hbf","evaNumber":"8000134"},"stops":[{"station":{"evaNumber":"8000206","name":"Koblenz Hbf","coordinates":{"lng":7.588343,"lat":50.350775},"ril100":"KKO"},"departure":{"platform":"9","scheduledTime":"2023-10-18T20:19:00.000Z","time":"2023-10-18T20:19:00.000Z","reihung":false}},{"station":{"evaNumber":"8003350","name":"Kobern-Gondorf","coordinates":{"lng":7.460642,"lat":50.300579},"ril100":"SKG"},"arrival":{"platform":"2","scheduledTime":"2023-10-18T20:30:00.000Z","time":"2023-10-18T20:30:00.000Z","reihung":false},"departure":{"platform":"2","scheduledTime":"2023-10-18T20:31:00.000Z","time":"2023-10-18T20:31:00.000Z","reihung":false}},{"station":{"evaNumber":"8003179","name":"Treis-Karden","coordinates":{"lng":7.299744,"lat":50.180061},"ril100":"STK"},"arrival":{"platform":"2","scheduledTime":"2023-10-18T20:46:00.000Z","time":"2023-10-18T20:46:00.000Z","reihung":false},"departure":{"platform":"2","scheduledTime":"2023-10-18T20:46:00.000Z","time":"2023-10-18T20:46:00.000Z","reihung":false}},{"station":{"evaNumber":"8001340","name":"Cochem(Mosel)","coordinates":{"lng":7.166902,"lat":50.153102},"ril100":"SCOC"},"arrival":{"platform":"2","scheduledTime":"2023-10-18T20:53:00.000Z","time":"2023-10-18T20:53:00.000Z","reihung":false},"departure":{"platform":"2","scheduledTime":"2023-10-18T20:54:00.000Z","time":"2023-10-18T20:54:00.000Z","reihung":false}},{"station":{"evaNumber":"8001267","name":"Bullay(DB)","coordinates":{"lng":7.134702,"lat":50.053789},"ril100":"SBY"},"arrival":{"platform":"2","scheduledTime":"2023-10-18T21:02:00.000Z","time":"2023-10-18T21:02:00.000Z","reihung":false},"departure":{"platform":"2","scheduledTime":"2023-10-18T21:02:00.000Z","time":"2023-10-18T21:02:00.000Z","reihung":false}},{"station":{"evaNumber":"8000379","name":"Wittlich Hbf","coordinates":{"lng":6.943574,"lat":49.973102},"ril100":"SWIH"},"arrival":{"platform":"2","scheduledTime":"2023-10-18T21:14:00.000Z","time":"2023-10-18T21:14:00.000Z","reihung":false},"departure":{"platform":"2","scheduledTime":"2023-10-18T21:14:00.000Z","time":"2023-10-18T21:14:00.000Z","reihung":false}},{"station":{"evaNumber":"8005476","name":"Schweich(DB)","coordinates":{"lng":6.740328,"lat":49.831145},"ril100":"SSWE"},"arrival":{"platform":"3","scheduledTime":"2023-10-18T21:28:00.000Z","time":"2023-10-18T21:28:00.000Z","reihung":false},"departure":{"platform":"3","scheduledTime":"2023-10-18T21:29:00.000Z","time":"2023-10-18T21:29:00.000Z","reihung":false}},{"station":{"evaNumber":"8000134","name":"Trier Hbf","coordinates":{"lng":6.652395,"lat":49.756795},"ril100":"STR"},"arrival":{"platform":"11 Süd","scheduledTime":"2023-10-18T21:40:00.000Z","time":"2023-10-18T21:40:00.000Z","reihung":false}}],"finalDestination":"Saarbrücken Hbf","jid":"1|255386|0|80|18102023","messages":[{"type":"A","code":"FB","prio":260,"icoX":5,"txtN":"Fahrradmitnahme begrenzt möglich"},{"type":"A","code":"RC","prio":320,"icoX":3,"txtN":"Reservierung an DB-Automaten/Reisezentren/vielen DB-Agenturen möglich"},{"type":"A","code":"EH","prio":560,"icoX":3,"txtN":"Fahrzeuggebundene Einstiegshilfe vorhanden"},{"type":"A","code":"LS","prio":605,"icoX":3,"txtN":"Laptop-Steckdosen"}],"type":"JNY"}],"segmentTypes":["FLX","HLB","IC","RE"]},{"checksum":"291b634b_3","cid":"C-5","date":"2023-10-17T22:00:00.000Z","duration":28440000,"changes":2,"isRideable":true,"arrival":{"platform":"11 Süd","scheduledTime":"2023-10-18T21:40:00.000Z","time":"2023-10-18T21:40:00.000Z","reihung":false},"departure":{"platform":"14","scheduledTime":"2023-10-18T13:46:00.000Z","time":"2023-10-18T13:46:00.000Z","reihung":false},"segments":[{"arrival":{"platform":"8 D-G","scheduledTime":"2023-10-18T18:09:00.000Z","time":"2023-10-18T18:09:00.000Z","reihung":false},"departure":{"platform":"14","scheduledTime":"2023-10-18T13:46:00.000Z","time":"2023-10-18T13:46:00.000Z","reihung":false},"duration":15780000,"train":{"name":"ICE 856","line":"10","admin":"80","number":"856","type":"ICE","operator":{"name":"DB Fernverkehr AG","icoX":2}},"changeDuration":23,"segmentStart":{"name":"Berlin Hbf","evaNumber":"8011160"},"segmentDestination":{"name":"Köln Hbf","evaNumber":"8000207"},"stops":[{"station":{"evaNumber":"8011160","name":"Berlin Hbf","coordinates":{"lng":13.369629,"lat":52.524924},"ril100":"BLS"},"departure":{"platform":"14","scheduledTime":"2023-10-18T13:46:00.000Z","time":"2023-10-18T13:46:00.000Z","reihung":false}},{"station":{"evaNumber":"8010404","name":"Berlin-Spandau","coordinates":{"lng":13.200947,"lat":52.533787},"ril100":"BSPD"},"departure":{"platform":"4","scheduledTime":"2023-10-18T14:00:00.000Z","time":"2023-10-18T14:00:00.000Z","reihung":false},"auslastung":{"first":3,"second":2}},{"station":{"evaNumber":"8006552","name":"Wolfsburg Hbf","coordinates":{"lng":10.787757,"lat":52.429495},"ril100":"HWOB"},"arrival":{"platform":"1","scheduledTime":"2023-10-18T14:52:00.000Z","time":"2023-10-18T14:52:00.000Z","reihung":false},"departure":{"platform":"1","scheduledTime":"2023-10-18T14:53:00.000Z","time":"2023-10-18T14:53:00.000Z","reihung":false},"auslastung":{"first":3,"second":2}},{"station":{"evaNumber":"8000152","name":"Hannover Hbf","coordinates":{"lng":9.741763,"lat":52.377079},"ril100":"HH"},"arrival":{"platform":"12","scheduledTime":"2023-10-18T15:28:00.000Z","time":"2023-10-18T15:28:00.000Z","reihung":false},"departure":{"platform":"12","scheduledTime":"2023-10-18T15:31:00.000Z","time":"2023-10-18T15:31:00.000Z","reihung":false},"auslastung":{"first":3,"second":2}},{"station":{"evaNumber":"8000036","name":"Bielefeld Hbf","coordinates":{"lng":8.532777,"lat":52.029421},"ril100":"EBILP"},"arrival":{"platform":"4","scheduledTime":"2023-10-18T16:20:00.000Z","time":"2023-10-18T16:20:00.000Z","reihung":false},"departure":{"platform":"4","scheduledTime":"2023-10-18T16:22:00.000Z","time":"2023-10-18T16:22:00.000Z","reihung":false},"auslastung":{"first":3,"second":1}},{"station":{"evaNumber":"8000149","name":"Hamm(Westf)Hbf","coordinates":{"lng":7.80777,"lat":51.678131},"ril100":"EHM"},"arrival":{"platform":"10","scheduledTime":"2023-10-18T16:47:00.000Z","time":"2023-10-18T16:47:00.000Z","reihung":false},"departure":{"platform":"10","scheduledTime":"2023-10-18T16:54:00.000Z","time":"2023-10-18T16:54:00.000Z","reihung":false},"auslastung":{"first":3,"second":2}},{"station":{"evaNumber":"8000142","name":"Hagen Hbf","coordinates":{"lng":7.460391,"lat":51.362727},"ril100":"EHG"},"arrival":{"platform":"7/8","scheduledTime":"2023-10-18T17:21:00.000Z","time":"2023-10-18T17:21:00.000Z","reihung":false},"departure":{"platform":"7/8","scheduledTime":"2023-10-18T17:23:00.000Z","time":"2023-10-18T17:23:00.000Z","reihung":false},"auslastung":{"first":3,"second":2}},{"station":{"evaNumber":"8000266","name":"Wuppertal Hbf","coordinates":{"lng":7.150155,"lat":51.254443},"ril100":"KW"},"arrival":{"platform":"1","scheduledTime":"2023-10-18T17:38:00.000Z","time":"2023-10-18T17:38:00.000Z","reihung":false},"departure":{"platform":"1","scheduledTime":"2023-10-18T17:40:00.000Z","time":"2023-10-18T17:40:00.000Z","reihung":false},"auslastung":{"first":3,"second":1}},{"station":{"evaNumber":"8000207","name":"Köln Hbf","coordinates":{"lng":6.959197,"lat":50.942823},"ril100":"KK"},"arrival":{"platform":"8 D-G","scheduledTime":"2023-10-18T18:09:00.000Z","time":"2023-10-18T18:09:00.000Z","reihung":false}}],"finalDestination":"Köln Hbf","jid":"1|211241|0|80|18102023","auslastung":{"first":3,"second":2},"messages":[{"type":"A","code":"CK","prio":200,"icoX":3,"txtN":"Sicher & kontaktlos ohne Ticketkontrolle reisen mit Komfort Check-in"},{"type":"A","code":"FR","prio":260,"icoX":4,"txtN":"Fahrradmitnahme reservierungspflichtig"},{"type":"A","code":"FB","prio":260,"icoX":5,"txtN":"Fahrradmitnahme begrenzt möglich"},{"type":"A","code":"BR","prio":450,"icoX":11,"txtN":"Bordrestaurant"},{"type":"A","code":"EH","prio":560,"icoX":3,"txtN":"Fahrzeuggebundene Einstiegshilfe vorhanden"}],"type":"JNY"},{"arrival":{"platform":"2","scheduledTime":"2023-10-18T19:42:00.000Z","time":"2023-10-18T19:42:00.000Z","reihung":false},"departure":{"platform":"9 D-G","scheduledTime":"2023-10-18T18:32:00.000Z","time":"2023-10-18T18:32:00.000Z","reihung":false},"duration":4200000,"train":{"name":"RE 5","line":"5","admin":"NXRE","number":"28531","type":"RE","operator":{"name":"National Express","icoX":25}},"changeDuration":37,"segmentStart":{"name":"Köln Hbf","evaNumber":"8000207"},"segmentDestination":{"name":"Koblenz Hbf","evaNumber":"8000206"},"stops":[{"station":{"evaNumber":"8000207","name":"Köln Hbf","coordinates":{"lng":6.959197,"lat":50.942823},"ril100":"KK"},"departure":{"platform":"9 D-G","scheduledTime":"2023-10-18T18:32:00.000Z","time":"2023-10-18T18:32:00.000Z","reihung":false}},{"station":{"evaNumber":"8003361","name":"Köln Süd","coordinates":{"lng":6.938486,"lat":50.927002},"ril100":"KKS"},"arrival":{"platform":"1","scheduledTime":"2023-10-18T18:38:00.000Z","time":"2023-10-18T18:38:00.000Z","reihung":false},"departure":{"platform":"1","scheduledTime":"2023-10-18T18:39:00.000Z","time":"2023-10-18T18:39:00.000Z","reihung":false}},{"station":{"evaNumber":"8001215","name":"Brühl","coordinates":{"lng":6.91266,"lat":50.829262},"ril100":"KBR"},"arrival":{"platform":"1","scheduledTime":"2023-10-18T18:45:00.000Z","time":"2023-10-18T18:45:00.000Z","reihung":false},"departure":{"platform":"1","scheduledTime":"2023-10-18T18:46:00.000Z","time":"2023-10-18T18:46:00.000Z","reihung":false}},{"station":{"evaNumber":"8000044","name":"Bonn Hbf","coordinates":{"lng":7.096678,"lat":50.731963},"ril100":"KB"},"arrival":{"platform":"3","scheduledTime":"2023-10-18T18:55:00.000Z","time":"2023-10-18T18:55:00.000Z","reihung":false},"departure":{"platform":"3","scheduledTime":"2023-10-18T18:57:00.000Z","time":"2023-10-18T18:57:00.000Z","reihung":false}},{"station":{"evaNumber":"8001091","name":"Bonn UN Campus","coordinates":{"lng":7.118009,"lat":50.714542},"ril100":"KBUN"},"arrival":{"platform":"2","scheduledTime":"2023-10-18T18:59:00.000Z","time":"2023-10-18T18:59:00.000Z","reihung":false},"departure":{"platform":"2","scheduledTime":"2023-10-18T18:59:00.000Z","time":"2023-10-18T18:59:00.000Z","reihung":false}},{"station":{"evaNumber":"8001082","name":"Bonn-Bad Godesberg","coordinates":{"lng":7.159692,"lat":50.683816},"ril100":"KBBG"},"arrival":{"platform":"1","scheduledTime":"2023-10-18T19:02:00.000Z","time":"2023-10-18T19:02:00.000Z","reihung":false},"departure":{"platform":"1","scheduledTime":"2023-10-18T19:03:00.000Z","time":"2023-10-18T19:03:00.000Z","reihung":false}},{"station":{"evaNumber":"8004604","name":"Oberwinter","coordinates":{"lng":7.207785,"lat":50.611363},"ril100":"KOWI"},"arrival":{"platform":"1","scheduledTime":"2023-10-18T19:10:00.000Z","time":"2023-10-18T19:10:00.000Z","reihung":false},"departure":{"platform":"1","scheduledTime":"2023-10-18T19:11:00.000Z","time":"2023-10-18T19:11:00.000Z","reihung":false}},{"station":{"evaNumber":"8000310","name":"Remagen","coordinates":{"lng":7.2297,"lat":50.577222},"ril100":"KRE"},"arrival":{"platform":"3","scheduledTime":"2023-10-18T19:15:00.000Z","time":"2023-10-18T19:15:00.000Z","reihung":false},"departure":{"platform":"3","scheduledTime":"2023-10-18T19:16:00.000Z","time":"2023-10-18T19:16:00.000Z","reihung":false}},{"station":{"evaNumber":"8005580","name":"Sinzig(Rhein)","coordinates":{"lng":7.258124,"lat":50.546893},"ril100":"KSIZ"},"arrival":{"platform":"1","scheduledTime":"2023-10-18T19:19:00.000Z","time":"2023-10-18T19:19:00.000Z","reihung":false},"departure":{"platform":"1","scheduledTime":"2023-10-18T19:19:00.000Z","time":"2023-10-18T19:19:00.000Z","reihung":false}},{"station":{"evaNumber":"8000694","name":"Bad Breisig","coordinates":{"lng":7.304832,"lat":50.504059},"ril100":"KBRE"},"arrival":{"platform":"2","scheduledTime":"2023-10-18T19:23:00.000Z","time":"2023-10-18T19:23:00.000Z","reihung":false},"departure":{"platform":"2","scheduledTime":"2023-10-18T19:23:00.000Z","time":"2023-10-18T19:23:00.000Z","reihung":false}},{"station":{"evaNumber":"8000331","name":"Andernach","coordinates":{"lng":7.404442,"lat":50.434743},"ril100":"KAND"},"arrival":{"platform":"1","scheduledTime":"2023-10-18T19:29:00.000Z","time":"2023-10-18T19:29:00.000Z","reihung":false},"departure":{"platform":"1","scheduledTime":"2023-10-18T19:30:00.000Z","time":"2023-10-18T19:30:00.000Z","reihung":false}},{"station":{"evaNumber":"8003341","name":"Koblenz Stadtmitte","coordinates":{"lng":7.590051,"lat":50.358137},"ril100":"KKSM"},"arrival":{"platform":"2","scheduledTime":"2023-10-18T19:39:00.000Z","time":"2023-10-18T19:39:00.000Z","reihung":false},"departure":{"platform":"2","scheduledTime":"2023-10-18T19:39:00.000Z","time":"2023-10-18T19:39:00.000Z","reihung":false}},{"station":{"evaNumber":"8000206","name":"Koblenz Hbf","coordinates":{"lng":7.588343,"lat":50.350775},"ril100":"KKO"},"arrival":{"platform":"2","scheduledTime":"2023-10-18T19:42:00.000Z","time":"2023-10-18T19:42:00.000Z","reihung":false}}],"finalDestination":"Koblenz Hbf","jid":"1|292895|0|80|18102023","messages":[{"type":"A","code":"N ","prio":5,"icoX":3,"txtN":"\"RRX Rhein-Ruhr-Express\""},{"type":"A","code":"FB","prio":260,"icoX":5,"txtN":"Fahrradmitnahme begrenzt möglich"},{"type":"A","code":"RG","prio":560,"icoX":3,"txtN":"Behindertengerechtes Fahrzeug"},{"type":"A","code":"RO","prio":560,"icoX":26,"txtN":"Rollstuhlstellplatz"},{"type":"A","code":"LS","prio":605,"icoX":3,"txtN":"Laptop-Steckdosen"},{"type":"A","code":"KL","prio":610,"icoX":3,"txtN":"Klimaanlage"},{"type":"A","code":"WV","prio":710,"icoX":3,"txtN":"WLAN verfügbar"},{"type":"M","code":"","icoX":27,"txtS":"RE 28531: Remagen->Koblenz Hbf: Bauarbeiten. (Quelle: zuginfo.nrw)","txtN":"Von Freitag, den 13. Oktober 2023, 21 Uhr bis Freitag, den 03. November 2023, 05:00 Uhr werden die Arbeiten für das neue Elektronische Stellwerk Köln Hbf sowie nächtliche Kampfmittelsondierungen für den Ausbau fortgesetzt. Die umfangreichen Arbeiten führen zu Beeinträchtigungen im Regionalverkehr in und rund um Köln.","sIdx":1}],"type":"JNY"},{"arrival":{"platform":"11 Süd","scheduledTime":"2023-10-18T21:40:00.000Z","time":"2023-10-18T21:40:00.000Z","reihung":false},"departure":{"platform":"9","scheduledTime":"2023-10-18T20:19:00.000Z","time":"2023-10-18T20:19:00.000Z","reihung":false},"duration":4860000,"wings":[{"train":{"name":"RE 11","line":"11","admin":"800640","number":"5132","type":"RE","operator":{"name":"DB Regio AG Mitte SÜWEX","icoX":9}},"segmentStart":{"name":"Koblenz Hbf","evaNumber":"8000206"},"segmentDestination":{"name":"Trier Hbf","evaNumber":"8000134"},"stops":[{"station":{"evaNumber":"8000206","name":"Koblenz Hbf","coordinates":{"lng":7.588343,"lat":50.350775},"ril100":"KKO"},"departure":{"platform":"9","scheduledTime":"2023-10-18T20:19:00.000Z","time":"2023-10-18T20:19:00.000Z","reihung":false}},{"station":{"evaNumber":"8003350","name":"Kobern-Gondorf","coordinates":{"lng":7.460642,"lat":50.300579},"ril100":"SKG"},"arrival":{"platform":"2","scheduledTime":"2023-10-18T20:30:00.000Z","time":"2023-10-18T20:30:00.000Z","reihung":false}},{"station":{"evaNumber":"8003179","name":"Treis-Karden","coordinates":{"lng":7.299744,"lat":50.180061},"ril100":"STK"},"arrival":{"platform":"2","scheduledTime":"2023-10-18T20:46:00.000Z","time":"2023-10-18T20:46:00.000Z","reihung":false}},{"station":{"evaNumber":"8001340","name":"Cochem(Mosel)","coordinates":{"lng":7.166902,"lat":50.153102},"ril100":"SCOC"},"arrival":{"platform":"2","scheduledTime":"2023-10-18T20:53:00.000Z","time":"2023-10-18T20:53:00.000Z","reihung":false}},{"station":{"evaNumber":"8001267","name":"Bullay(DB)","coordinates":{"lng":7.134702,"lat":50.053789},"ril100":"SBY"},"arrival":{"platform":"2","scheduledTime":"2023-10-18T21:02:00.000Z","time":"2023-10-18T21:02:00.000Z","reihung":false}},{"station":{"evaNumber":"8000379","name":"Wittlich Hbf","coordinates":{"lng":6.943574,"lat":49.973102},"ril100":"SWIH"},"arrival":{"platform":"2","scheduledTime":"2023-10-18T21:14:00.000Z","time":"2023-10-18T21:14:00.000Z","reihung":false}},{"station":{"evaNumber":"8005476","name":"Schweich(DB)","coordinates":{"lng":6.740328,"lat":49.831145},"ril100":"SSWE"},"arrival":{"platform":"3","scheduledTime":"2023-10-18T21:28:00.000Z","time":"2023-10-18T21:28:00.000Z","reihung":false}},{"station":{"evaNumber":"8000134","name":"Trier Hbf","coordinates":{"lng":6.652395,"lat":49.756795},"ril100":"STR"},"arrival":{"platform":"11 Süd","scheduledTime":"2023-10-18T21:40:00.000Z","time":"2023-10-18T21:40:00.000Z","reihung":false}}],"finalDestination":"Luxembourg","jid":"1|361414|0|80|18102023"}],"train":{"name":"RE 1","line":"1","admin":"800640","number":"4134","type":"RE","operator":{"name":"DB Regio AG Mitte SÜWEX","icoX":9}},"segmentStart":{"name":"Koblenz Hbf","evaNumber":"8000206"},"segmentDestination":{"name":"Trier Hbf","evaNumber":"8000134"},"stops":[{"station":{"evaNumber":"8000206","name":"Koblenz Hbf","coordinates":{"lng":7.588343,"lat":50.350775},"ril100":"KKO"},"departure":{"platform":"9","scheduledTime":"2023-10-18T20:19:00.000Z","time":"2023-10-18T20:19:00.000Z","reihung":false}},{"station":{"evaNumber":"8003350","name":"Kobern-Gondorf","coordinates":{"lng":7.460642,"lat":50.300579},"ril100":"SKG"},"arrival":{"platform":"2","scheduledTime":"2023-10-18T20:30:00.000Z","time":"2023-10-18T20:30:00.000Z","reihung":false},"departure":{"platform":"2","scheduledTime":"2023-10-18T20:31:00.000Z","time":"2023-10-18T20:31:00.000Z","reihung":false}},{"station":{"evaNumber":"8003179","name":"Treis-Karden","coordinates":{"lng":7.299744,"lat":50.180061},"ril100":"STK"},"arrival":{"platform":"2","scheduledTime":"2023-10-18T20:46:00.000Z","time":"2023-10-18T20:46:00.000Z","reihung":false},"departure":{"platform":"2","scheduledTime":"2023-10-18T20:46:00.000Z","time":"2023-10-18T20:46:00.000Z","reihung":false}},{"station":{"evaNumber":"8001340","name":"Cochem(Mosel)","coordinates":{"lng":7.166902,"lat":50.153102},"ril100":"SCOC"},"arrival":{"platform":"2","scheduledTime":"2023-10-18T20:53:00.000Z","time":"2023-10-18T20:53:00.000Z","reihung":false},"departure":{"platform":"2","scheduledTime":"2023-10-18T20:54:00.000Z","time":"2023-10-18T20:54:00.000Z","reihung":false}},{"station":{"evaNumber":"8001267","name":"Bullay(DB)","coordinates":{"lng":7.134702,"lat":50.053789},"ril100":"SBY"},"arrival":{"platform":"2","scheduledTime":"2023-10-18T21:02:00.000Z","time":"2023-10-18T21:02:00.000Z","reihung":false},"departure":{"platform":"2","scheduledTime":"2023-10-18T21:02:00.000Z","time":"2023-10-18T21:02:00.000Z","reihung":false}},{"station":{"evaNumber":"8000379","name":"Wittlich Hbf","coordinates":{"lng":6.943574,"lat":49.973102},"ril100":"SWIH"},"arrival":{"platform":"2","scheduledTime":"2023-10-18T21:14:00.000Z","time":"2023-10-18T21:14:00.000Z","reihung":false},"departure":{"platform":"2","scheduledTime":"2023-10-18T21:14:00.000Z","time":"2023-10-18T21:14:00.000Z","reihung":false}},{"station":{"evaNumber":"8005476","name":"Schweich(DB)","coordinates":{"lng":6.740328,"lat":49.831145},"ril100":"SSWE"},"arrival":{"platform":"3","scheduledTime":"2023-10-18T21:28:00.000Z","time":"2023-10-18T21:28:00.000Z","reihung":false},"departure":{"platform":"3","scheduledTime":"2023-10-18T21:29:00.000Z","time":"2023-10-18T21:29:00.000Z","reihung":false}},{"station":{"evaNumber":"8000134","name":"Trier Hbf","coordinates":{"lng":6.652395,"lat":49.756795},"ril100":"STR"},"arrival":{"platform":"11 Süd","scheduledTime":"2023-10-18T21:40:00.000Z","time":"2023-10-18T21:40:00.000Z","reihung":false}}],"finalDestination":"Saarbrücken Hbf","jid":"1|255386|0|80|18102023","messages":[{"type":"A","code":"FB","prio":260,"icoX":5,"txtN":"Fahrradmitnahme begrenzt möglich"},{"type":"A","code":"RC","prio":320,"icoX":3,"txtN":"Reservierung an DB-Automaten/Reisezentren/vielen DB-Agenturen möglich"},{"type":"A","code":"EH","prio":560,"icoX":3,"txtN":"Fahrzeuggebundene Einstiegshilfe vorhanden"},{"type":"A","code":"LS","prio":605,"icoX":3,"txtN":"Laptop-Steckdosen"}],"type":"JNY"}],"segmentTypes":["ICE","RE","RE"]},{"checksum":"bfa25a08_3","cid":"C-6","date":"2023-10-17T22:00:00.000Z","duration":27360000,"changes":3,"isRideable":true,"arrival":{"platform":"11 Süd","scheduledTime":"2023-10-18T21:40:00.000Z","time":"2023-10-18T21:40:00.000Z","reihung":false},"departure":{"platform":"2","scheduledTime":"2023-10-18T14:04:00.000Z","time":"2023-10-18T14:04:00.000Z","reihung":false},"segments":[{"arrival":{"platform":"1","scheduledTime":"2023-10-18T15:45:00.000Z","time":"2023-10-18T15:45:00.000Z","reihung":false},"departure":{"platform":"2","scheduledTime":"2023-10-18T14:04:00.000Z","time":"2023-10-18T14:04:00.000Z","reihung":false},"duration":6060000,"train":{"name":"ICE 1007","line":"29","admin":"80","number":"1007","type":"ICE","operator":{"name":"DB Fernverkehr AG","icoX":2}},"changeDuration":33,"segmentStart":{"name":"Berlin Hbf (tief)","evaNumber":"8098160"},"segmentDestination":{"name":"Erfurt Hbf","evaNumber":"8010101"},"stops":[{"station":{"evaNumber":"8098160","name":"Berlin Hbf (tief)","coordinates":{"lng":13.368892,"lat":52.52585},"ril100":"BL"},"departure":{"platform":"2","scheduledTime":"2023-10-18T14:04:00.000Z","time":"2023-10-18T14:04:00.000Z","reihung":false}},{"station":{"evaNumber":"8011113","name":"Berlin Südkreuz","coordinates":{"lng":13.365863,"lat":52.47623},"ril100":"BPAF"},"arrival":{"platform":"3","scheduledTime":"2023-10-18T14:09:00.000Z","time":"2023-10-18T14:09:00.000Z","reihung":false},"departure":{"platform":"3","scheduledTime":"2023-10-18T14:11:00.000Z","time":"2023-10-18T14:11:00.000Z","reihung":false},"auslastung":{"first":3,"second":2}},{"station":{"evaNumber":"8010159","name":"Halle(Saale)Hbf","coordinates":{"lng":11.98699,"lat":51.477079},"ril100":"LH"},"arrival":{"platform":"6","scheduledTime":"2023-10-18T15:16:00.000Z","time":"2023-10-18T15:16:00.000Z","reihung":false},"departure":{"platform":"6","scheduledTime":"2023-10-18T15:18:00.000Z","time":"2023-10-18T15:18:00.000Z","reihung":false},"auslastung":{"first":3,"second":2}},{"station":{"evaNumber":"8010101","name":"Erfurt Hbf","coordinates":{"lng":11.038502,"lat":50.97255},"ril100":"UE  P"},"arrival":{"platform":"1","scheduledTime":"2023-10-18T15:45:00.000Z","time":"2023-10-18T15:45:00.000Z","reihung":false}}],"finalDestination":"München Hbf","jid":"1|195221|0|80|18102023","auslastung":{"first":3,"second":2},"messages":[{"type":"A","code":"CK","prio":200,"icoX":3,"txtN":"Sicher & kontaktlos ohne Ticketkontrolle reisen mit Komfort Check-in"},{"type":"A","code":"BR","prio":450,"icoX":11,"txtN":"Bordrestaurant"}],"type":"JNY"},{"arrival":{"platform":"2a/b","scheduledTime":"2023-10-18T19:15:00.000Z","time":"2023-10-18T19:15:00.000Z","reihung":false},"departure":{"platform":"2","scheduledTime":"2023-10-18T16:18:00.000Z","time":"2023-10-18T16:18:00.000Z","reihung":false},"duration":10620000,"train":{"name":"ICE 1564","line":"50","admin":"80","number":"1564","type":"ICE","operator":{"name":"DB Fernverkehr AG","icoX":2}},"changeDuration":5,"segmentStart":{"name":"Erfurt Hbf","evaNumber":"8010101"},"segmentDestination":{"name":"Mainz Hbf","evaNumber":"8000240"},"stops":[{"station":{"evaNumber":"8010101","name":"Erfurt Hbf","coordinates":{"lng":11.038502,"lat":50.97255},"ril100":"UE  P"},"departure":{"platform":"2","scheduledTime":"2023-10-18T16:18:00.000Z","time":"2023-10-18T16:18:00.000Z","reihung":false},"auslastung":{"first":2,"second":2}},{"station":{"evaNumber":"8010136","name":"Gotha","coordinates":{"lng":10.712688,"lat":50.939029},"ril100":"UGO"},"arrival":{"platform":"2","scheduledTime":"2023-10-18T16:32:00.000Z","time":"2023-10-18T16:32:00.000Z","reihung":false},"departure":{"platform":"2","scheduledTime":"2023-10-18T16:33:00.000Z","time":"2023-10-18T16:33:00.000Z","reihung":false},"auslastung":{"first":2,"second":2}},{"station":{"evaNumber":"8010097","name":"Eisenach","coordinates":{"lng":10.33212,"lat":50.976928},"ril100":"UEI"},"arrival":{"platform":"5","scheduledTime":"2023-10-18T16:46:00.000Z","time":"2023-10-18T16:46:00.000Z","reihung":false},"departure":{"platform":"5","scheduledTime":"2023-10-18T16:48:00.000Z","time":"2023-10-18T16:48:00.000Z","reihung":false},"auslastung":{"first":2,"second":2}},{"station":{"evaNumber":"8000020","name":"Bad Hersfeld","coordinates":{"lng":9.716611,"lat":50.86992},"ril100":"FBHF"},"arrival":{"platform":"2","scheduledTime":"2023-10-18T17:15:00.000Z","time":"2023-10-18T17:15:00.000Z","reihung":false},"departure":{"platform":"2","scheduledTime":"2023-10-18T17:16:00.000Z","time":"2023-10-18T17:16:00.000Z","reihung":false},"auslastung":{"first":2,"second":2}},{"station":{"evaNumber":"8000115","name":"Fulda","coordinates":{"lng":9.684178,"lat":50.554794},"ril100":"FFU"},"arrival":{"platform":"3","scheduledTime":"2023-10-18T17:41:00.000Z","time":"2023-10-18T17:41:00.000Z","reihung":false},"departure":{"platform":"3","scheduledTime":"2023-10-18T17:43:00.000Z","time":"2023-10-18T17:43:00.000Z","reihung":false},"auslastung":{"first":2,"second":1}},{"station":{"evaNumber":"8000105","name":"Frankfurt(Main)Hbf","coordinates":{"lng":8.663003,"lat":50.106817},"ril100":"FF"},"arrival":{"platform":"9","scheduledTime":"2023-10-18T18:36:00.000Z","time":"2023-10-18T18:36:00.000Z","reihung":false},"departure":{"platform":"9","scheduledTime":"2023-10-18T18:43:00.000Z","time":"2023-10-18T18:43:00.000Z","reihung":false}},{"station":{"evaNumber":"8070003","name":"Frankfurt(M) Flughafen Fernbf","coordinates":{"lng":8.569776,"lat":50.052926},"ril100":"FFLF"},"arrival":{"platform":"Fern 7","scheduledTime":"2023-10-18T18:56:00.000Z","time":"2023-10-18T18:56:00.000Z","reihung":false},"departure":{"platform":"Fern 7","scheduledTime":"2023-10-18T18:58:00.000Z","time":"2023-10-18T18:58:00.000Z","reihung":false},"auslastung":{"first":1,"second":1}},{"station":{"evaNumber":"8000240","name":"Mainz Hbf","coordinates":{"lng":8.258453,"lat":50.001239},"ril100":"FMZ"},"arrival":{"platform":"2a/b","scheduledTime":"2023-10-18T19:15:00.000Z","time":"2023-10-18T19:15:00.000Z","reihung":false}}],"finalDestination":"Wiesbaden Hbf","jid":"1|198081|0|80|18102023","auslastung":{"first":2,"second":2},"messages":[{"type":"A","code":"CK","prio":200,"icoX":3,"txtN":"Sicher & kontaktlos ohne Ticketkontrolle reisen mit Komfort Check-in"},{"type":"A","code":"BR","prio":450,"icoX":11,"txtN":"Bordrestaurant"}],"type":"JNY"},{"arrival":{"platform":"3","scheduledTime":"2023-10-18T20:11:00.000Z","time":"2023-10-18T20:11:00.000Z","reihung":false},"departure":{"platform":"3a/b","scheduledTime":"2023-10-18T19:20:00.000Z","time":"2023-10-18T19:20:00.000Z","reihung":false},"duration":3060000,"train":{"name":"IC 2343","line":"55","admin":"80","number":"2343","type":"IC","operator":{"name":"DB Fernverkehr AG","icoX":2}},"changeDuration":8,"segmentStart":{"name":"Mainz Hbf","evaNumber":"8000240"},"segmentDestination":{"name":"Koblenz Hbf","evaNumber":"8000206"},"stops":[{"station":{"evaNumber":"8000240","name":"Mainz Hbf","coordinates":{"lng":8.258453,"lat":50.001239},"ril100":"FMZ"},"departure":{"platform":"3a/b","scheduledTime":"2023-10-18T19:20:00.000Z","time":"2023-10-18T19:20:00.000Z","reihung":false},"auslastung":{"first":1,"second":1}},{"station":{"evaNumber":"8000206","name":"Koblenz Hbf","coordinates":{"lng":7.588343,"lat":50.350775},"ril100":"KKO"},"arrival":{"platform":"3","scheduledTime":"2023-10-18T20:11:00.000Z","time":"2023-10-18T20:11:00.000Z","reihung":false}}],"finalDestination":"Köln Hbf","jid":"1|202858|0|80|18102023","auslastung":{"first":1,"second":1},"messages":[{"type":"A","code":"CK","prio":200,"icoX":3,"txtN":"Sicher & kontaktlos ohne Ticketkontrolle reisen mit Komfort Check-in"},{"type":"A","code":"FR","prio":260,"icoX":4,"txtN":"Fahrradmitnahme reservierungspflichtig"},{"type":"A","code":"FB","prio":260,"icoX":5,"txtN":"Fahrradmitnahme begrenzt möglich"},{"type":"A","code":"MP","prio":460,"icoX":3,"txtN":"Snacks und Getränke am Platz"},{"type":"A","code":"EH","prio":560,"icoX":3,"txtN":"Fahrzeuggebundene Einstiegshilfe vorhanden"},{"type":"A","code":"IZ","prio":800,"icoX":3,"txtN":"Intercity 2: Info unter www.bahn.de/ic2"}],"type":"JNY"},{"arrival":{"platform":"11 Süd","scheduledTime":"2023-10-18T21:40:00.000Z","time":"2023-10-18T21:40:00.000Z","reihung":false},"departure":{"platform":"9","scheduledTime":"2023-10-18T20:19:00.000Z","time":"2023-10-18T20:19:00.000Z","reihung":false},"duration":4860000,"wings":[{"train":{"name":"RE 11","line":"11","admin":"800640","number":"5132","type":"RE","operator":{"name":"DB Regio AG Mitte SÜWEX","icoX":9}},"segmentStart":{"name":"Koblenz Hbf","evaNumber":"8000206"},"segmentDestination":{"name":"Trier Hbf","evaNumber":"8000134"},"stops":[{"station":{"evaNumber":"8000206","name":"Koblenz Hbf","coordinates":{"lng":7.588343,"lat":50.350775},"ril100":"KKO"},"departure":{"platform":"9","scheduledTime":"2023-10-18T20:19:00.000Z","time":"2023-10-18T20:19:00.000Z","reihung":false}},{"station":{"evaNumber":"8003350","name":"Kobern-Gondorf","coordinates":{"lng":7.460642,"lat":50.300579},"ril100":"SKG"},"arrival":{"platform":"2","scheduledTime":"2023-10-18T20:30:00.000Z","time":"2023-10-18T20:30:00.000Z","reihung":false}},{"station":{"evaNumber":"8003179","name":"Treis-Karden","coordinates":{"lng":7.299744,"lat":50.180061},"ril100":"STK"},"arrival":{"platform":"2","scheduledTime":"2023-10-18T20:46:00.000Z","time":"2023-10-18T20:46:00.000Z","reihung":false}},{"station":{"evaNumber":"8001340","name":"Cochem(Mosel)","coordinates":{"lng":7.166902,"lat":50.153102},"ril100":"SCOC"},"arrival":{"platform":"2","scheduledTime":"2023-10-18T20:53:00.000Z","time":"2023-10-18T20:53:00.000Z","reihung":false}},{"station":{"evaNumber":"8001267","name":"Bullay(DB)","coordinates":{"lng":7.134702,"lat":50.053789},"ril100":"SBY"},"arrival":{"platform":"2","scheduledTime":"2023-10-18T21:02:00.000Z","time":"2023-10-18T21:02:00.000Z","reihung":false}},{"station":{"evaNumber":"8000379","name":"Wittlich Hbf","coordinates":{"lng":6.943574,"lat":49.973102},"ril100":"SWIH"},"arrival":{"platform":"2","scheduledTime":"2023-10-18T21:14:00.000Z","time":"2023-10-18T21:14:00.000Z","reihung":false}},{"station":{"evaNumber":"8005476","name":"Schweich(DB)","coordinates":{"lng":6.740328,"lat":49.831145},"ril100":"SSWE"},"arrival":{"platform":"3","scheduledTime":"2023-10-18T21:28:00.000Z","time":"2023-10-18T21:28:00.000Z","reihung":false}},{"station":{"evaNumber":"8000134","name":"Trier Hbf","coordinates":{"lng":6.652395,"lat":49.756795},"ril100":"STR"},"arrival":{"platform":"11 Süd","scheduledTime":"2023-10-18T21:40:00.000Z","time":"2023-10-18T21:40:00.000Z","reihung":false}}],"finalDestination":"Luxembourg","jid":"1|361414|0|80|18102023"}],"train":{"name":"RE 1","line":"1","admin":"800640","number":"4134","type":"RE","operator":{"name":"DB Regio AG Mitte SÜWEX","icoX":9}},"segmentStart":{"name":"Koblenz Hbf","evaNumber":"8000206"},"segmentDestination":{"name":"Trier Hbf","evaNumber":"8000134"},"stops":[{"station":{"evaNumber":"8000206","name":"Koblenz Hbf","coordinates":{"lng":7.588343,"lat":50.350775},"ril100":"KKO"},"departure":{"platform":"9","scheduledTime":"2023-10-18T20:19:00.000Z","time":"2023-10-18T20:19:00.000Z","reihung":false}},{"station":{"evaNumber":"8003350","name":"Kobern-Gondorf","coordinates":{"lng":7.460642,"lat":50.300579},"ril100":"SKG"},