{"context":{"earlier":"3|OB|MT#14#451625#451625#451954#451954#0#0#565#451576#1#0#27#0#0#-2147483648#1#2|PDH#bbe10b32f5270e429a5a473728022d1b|RD#18102023|RT#141653|US#0|RS#INIT","later":"3|OF|MT#14#451684#451684#452063#452063#0#0#565#451655#6#0#19#0#0#-2147483648#1#2|PDH#bbe10b32f5270e429a5a473728022d1b|RD#18102023|RT#141653|US#0|RS#INIT"},"routes":[{"checksum":"c918915f_3","cid":"C-0","date":"2023-10-17T22:00:00.000Z","duration":19740000,"changes":1,"isRideable":true,"arrival":{"platform":"4","scheduledTime":"2023-10-18T18:34:00.000Z","time":"2023-10-18T18:34:00.000Z","reihung":false},"departure":{"platform":"2","scheduledTime":"2023-10-18T13:05:00.000Z","time":"2023-10-18T13:05:00.000Z","reihung":false},"segments":[{"arrival":{"platform":"6","scheduledTime":"2023-10-18T16:59:00.000Z","time":"2023-10-18T16:59:00.000Z","reihung":false},"departure":{"platform":"2","scheduledTime":"2023-10-18T13:05:00.000Z","time":"2023-10-18T13:05:00.000Z","reihung":false},"duration":14040000,"train":{"name":"ICE 771","line":"22","admin":"80","number":"771","type":"ICE","operator":{"name":"DB Fernverkehr AG","icoX":1}},"changeDuration":21,"segmentStart":{"name":"Berlin Hbf (tief)","evaNumber":"8098160"},"segmentDestination":{"name":"Frankfurt(Main)Hbf","evaNumber":"8000105"},"stops":[{"station":{"evaNumber":"8098160","name":"Berlin Hbf (tief)","coordinates":{"lng":13.368892,"lat":52.52585},"ril100":"BL"},"departure":{"platform":"2","scheduledTime":"2023-10-18T13:05:00.000Z","time":"2023-10-18T13:05:00.000Z","reihung":false}},{"station":{"evaNumber":"8011113","name":"Berlin Südkreuz","coordinates":{"lng":13.365863,"lat":52.47623},"ril100":"BPAF"},"departure":{"platform":"3","scheduledTime":"2023-10-18T13:11:00.000Z","time":"2023-10-18T13:11:00.000Z","reihung":false},"auslastung":{"first":3,"second":2}},{"station":{"evaNumber":"8010159","name":"Halle(Saale)Hbf","coordinates":{"lng":11.98699,"lat":51.477079},"ril100":"LH"},"arrival":{"platform":"6","scheduledTime":"2023-10-18T14:13:00.000Z","time":"2023-10-18T14:13:00.000Z","reihung":false},"departure":{"platform":"6","scheduledTime":"2023-10-18T14:18:00.000Z","time":"2023-10-18T14:18:00.000Z","reihung":false},"auslastung":{"first":3,"second":2}},{"station":{"evaNumber":"8010101","name":"Erfurt Hbf","coordinates":{"lng":11.038502,"lat":50.97255},"ril100":"UE  P"},"arrival":{"platform":"1","scheduledTime":"2023-10-18T14:48:00.000Z","time":"2023-10-18T14:48:00.000Z","reihung":false},"departure":{"platform":"1","scheduledTime":"2023-10-18T14:50:00.000Z","time":"2023-10-18T14:50:00.000Z","reihung":false},"auslastung":{"first":3,"second":2}},{"station":{"evaNumber":"8000105","name":"Frankfurt(Main)Hbf","coordinates":{"lng":8.663003,"lat":50.106817},"ril100":"FF"},"arrival":{"platform":"6","scheduledTime":"2023-10-18T16:59:00.000Z","time":"2023-10-18T16:59:00.000Z","reihung":false}}],"finalDestination":"Stuttgart Hbf","jid":"1|209870|0|80|18102023","auslastung":{"first":3,"second":2},"messages":[{"type":"A","code":"CK","prio":200,"icoX":3,"txtN":"Sicher & kontaktlos ohne Ticketkontrolle reisen mit Komfort Check-in"},{"type":"A","code":"FR","prio":260,"icoX":4,"txtN":"Fahrradmitnahme reservierungspflichtig"},{"type":"A","code":"FB","prio":260,"icoX":5,"txtN":"Fahrradmitnahme begrenzt möglich"},{"type":"A","code":"BR","prio":450,"icoX":6,"txtN":"Bordrestaurant"},{"type":"A","code":"EH","prio":560,"icoX":3,"txtN":"Fahrzeuggebundene Einstiegshilfe vorhanden"},{"type":"A","code":"IT","prio":100,"icoX":7,"txtN":"ICE Sprinter"}],"type":"JNY"},{"arrival":{"platform":"4","scheduledTime":"2023-10-18T18:34:00.000Z","time":"2023-10-18T18:34:00.000Z","reihung":false},"departure":{"platform":"13","scheduledTime":"2023-10-18T17:20:00.000Z","time":"2023-10-18T17:20:00.000Z","reihung":false},"duration":4440000,"train":{"name":"IC 2375","line":"26","admin":"80","number":"2375","type":"IC","operator":{"name":"DB Fernverkehr AG","icoX":1}},"segmentStart":{"name":"Frankfurt(Main)Hbf","evaNumber":"8000105"},"segmentDestination":{"name":"Bruchsal","evaNumber":"8000055"},"stops":[{"station":{"evaNumber":"8000105","name":"Frankfurt(Main)Hbf","coordinates":{"lng":8.663003,"lat":50.106817},"ril100":"FF"},"departure":{"platform":"13","scheduledTime":"2023-10-18T17:20:00.000Z","time":"2023-10-18T17:20:00.000Z","reihung":false},"auslastung":{"first":2,"second":1}},{"station":{"evaNumber":"8000068","name":"Darmstadt Hbf","coordinates":{"lng":8.629707,"lat":49.872549},"ril100":"FD"},"arrival":{"platform":"10","scheduledTime":"2023-10-18T17:35:00.000Z","time":"2023-10-18T17:35:00.000Z","reihung":false},"departure":{"platform":"10","scheduledTime":"2023-10-18T17:37:00.000Z","time":"2023-10-18T17:37:00.000Z","reihung":false},"auslastung":{"first":2,"second":1}},{"station":{"evaNumber":"8000031","name":"Bensheim","coordinates":{"lng":8.616646,"lat":49.68142},"ril100":"FBH"},"arrival":{"platform":"2","scheduledTime":"2023-10-18T17:48:00.000Z","time":"2023-10-18T17:48:00.000Z","reihung":false},"departure":{"platform":"2","scheduledTime":"2023-10-18T17:50:00.000Z","time":"2023-10-18T17:50:00.000Z","reihung":false},"auslastung":{"first":2,"second":1}},{"station":{"evaNumber":"8000377","name":"Weinheim(Bergstr)Hbf","coordinates":{"lng":8.66561,"lat":49.553738},"ril100":"RWE"},"arrival":{"platform":"3","scheduledTime":"2023-10-18T17:58:00.000Z","time":"2023-10-18T17:58:00.000Z","reihung":false},"departure":{"platform":"3","scheduledTime":"2023-10-18T18:00:00.000Z","time":"2023-10-18T18:00:00.000Z","reihung":false},"auslastung":{"first":1,"second":1}},{"station":{"evaNumber":"8000156","name":"Heidelberg Hbf","coordinates":{"lng":8.67548,"lat":49.403582},"ril100":"RH"},"arrival":{"platform":"9","scheduledTime":"2023-10-18T18:13:00.000Z","time":"2023-10-18T18:13:00.000Z","reihung":false},"departure":{"platform":"9","scheduledTime":"2023-10-18T18:15:00.000Z","time":"2023-10-18T18:15:00.000Z","reihung":false},"auslastung":{"first":1,"second":1}},{"station":{"evaNumber":"8006421","name":"Wiesloch-Walldorf","coordinates":{"lng":8.664217,"lat":49.291028},"ril100":"RWS"},"arrival":{"platform":"2","scheduledTime":"2023-10-18T18:22:00.000Z","time":"2023-10-18T18:22:00.000Z","reihung":false},"departure":{"platform":"2","scheduledTime":"2023-10-18T18:23:00.000Z","time":"2023-10-18T18:23:00.000Z","reihung":false},"auslastung":{"first":1,"second":1}},{"station":{"evaNumber":"8000055","name":"Bruchsal","coordinates":{"lng":8.589687,"lat":49.124592},"ril100":"RBR"},"arrival":{"platform":"4","scheduledTime":"2023-10-18T18:34:00.000Z","time":"2023-10-18T18:34:00.000Z","reihung":false}}],"finalDestination":"Karlsruhe Hbf","jid":"1|202961|0|80|18102023","auslastung":{"first":2,"second":1},"messages":[{"type":"A","code":"CK","prio":200,"icoX":3,"txtN":"Sicher & kontaktlos ohne Ticketkontrolle reisen mit Komfort Check-in"},{"type":"A","code":"FR","prio":260,"icoX":4,"txtN":"Fahrradmitnahme reservierungspflichtig"},{"type":"A","code":"FB","prio":260,"icoX":5,"txtN":"Fahrradmitnahme begrenzt möglich"}],"type":"JNY"}],"segmentTypes":["ICE","IC"]},{"checksum":"6d0723bc_3","cid":"C-1","date":"2023-10-17T22:00:00.000Z","duration":20820000,"changes":1,"isRideable":true,"arrival":{"platform":"4","scheduledTime":"2023-10-18T19:14:00.000Z","time":"2023-10-18T19:14:00.000Z","reihung":false},"departure":{"platform":"4","scheduledTime":"2023-10-18T13:27:00.000Z","time":"2023-10-18T13:27:00.000Z","reihung":false},"segments":[{"arrival":{"platform":"8","scheduledTime":"2023-10-18T18:33:00.000Z","time":"2023-10-18T18:33:00.000Z","reihung":false},"departure":{"platform":"4","scheduledTime":"2023-10-18T13:27:00.000Z","time":"2023-10-18T13:27:00.000Z","reihung":false},"duration":18360000,"train":{"name":"FLX 1247","line":"10","admin":"FLX10","number":"1247","type":"FLX","operator":{"name":"FlixTrain","icoX":11}},"changeDuration":15,"segmentStart":{"name":"Berlin Hbf (tief)","evaNumber":"8098160"},"segmentDestination":{"name":"Heidelberg Hbf","evaNumber":"8000156"},"stops":[{"station":{"evaNumber":"8098160","name":"Berlin Hbf (tief)","coordinates":{"lng":13.368892,"lat":52.52585},"ril100":"BL"},"departure":{"platform":"4","scheduledTime":"2023-10-18T13:27:00.000Z","time":"2023-10-18T13:27:00.000Z","reihung":false}},{"station":{"evaNumber":"8010159","name":"Halle(Saale)Hbf","coordinates":{"lng":11.98699,"lat":51.477079},"ril100":"LH"},"arrival":{"platform":"6","scheduledTime":"2023-10-18T14:42:00.000Z","time":"2023-10-18T14:42:00.000Z","reihung":false},"departure":{"platform":"6","scheduledTime":"2023-10-18T14:44:00.000Z","time":"2023-10-18T14:44:00.000Z","reihung":false}},{"station":{"evaNumber":"8010101","name":"Erfurt Hbf","coordinates":{"lng":11.038502,"lat":50.97255},"ril100":"UE  P"},"arrival":{"platform":"1","scheduledTime":"2023-10-18T15:18:00.000Z","time":"2023-10-18T15:18:00.000Z","reihung":false},"departure":{"platform":"1","scheduledTime":"2023-10-18T15:20:00.000Z","time":"2023-10-18T15:20:00.000Z","reihung":false}},{"station":{"evaNumber":"8010136","name":"Gotha","coordinates":{"lng":10.712688,"lat":50.939029},"ril100":"UGO"},"arrival":{"platform":"2","scheduledTime":"2023-10-18T15:38:00.000Z","time":"2023-10-18T15:38:00.000Z","reihung":false},"departure":{"platform":"2","scheduledTime":"2023-10-18T15:39:00.000Z","time":"2023-10-18T15:39:00.000Z","reihung":false}},{"station":{"evaNumber":"8000115","name":"Fulda","coordinates":{"lng":9.684178,"lat":50.554794},"ril100":"FFU"},"arrival":{"platform":"3","scheduledTime":"2023-10-18T16:41:00.000Z","time":"2023-10-18T16:41:00.000Z","reihung":false},"departure":{"platform":"3","scheduledTime":"2023-10-18T16:43:00.000Z","time":"2023-10-18T16:43:00.000Z","reihung":false}},{"station":{"evaNumber":"8002041","name":"Frankfurt(Main)Süd","coordinates":{"lng":8.686187,"lat":50.099302},"ril100":"FFS"},"arrival":{"platform":"9","scheduledTime":"2023-10-18T17:32:00.000Z","time":"2023-10-18T17:32:00.000Z","reihung":false},"departure":{"platform":"9","scheduledTime":"2023-10-18T17:36:00.000Z","time":"2023-10-18T17:36:00.000Z","reihung":false}},{"station":{"evaNumber":"8000068","name":"Darmstadt Hbf","coordinates":{"lng":8.629707,"lat":49.872549},"ril100":"FD"},"arrival":{"platform":"10","scheduledTime":"2023-10-18T17:52:00.000Z","time":"2023-10-18T17:52:00.000Z","reihung":false},"departure":{"platform":"10","scheduledTime":"2023-10-18T17:54:00.000Z","time":"2023-10-18T17:54:00.000Z","reihung":false}},{"station":{"evaNumber":"8000156","name":"Heidelberg Hbf","coordinates":{"lng":8.67548,"lat":49.403582},"ril100":"RH"},"arrival":{"platform":"8","scheduledTime":"2023-10-18T18:33:00.000Z","time":"2023-10-18T18:33:00.000Z","reihung":false}}],"finalDestination":"Stuttgart Hbf","jid":"1|286358|0|80|18102023","messages":[{"type":"A","code":"DU","prio":110,"icoX":3,"txtN":"DB-Fahrscheine gelten nicht"},{"type":"A","code":"RP","prio":185,"icoX":12,"txtN":"Reservierungspflicht"},{"type":"A","code":"9N","prio":186,"icoX":3,"txtN":"Deutschland-Ticket nicht gültig"},{"type":"A","code":"FN","prio":555,"icoX":3,"txtN":"Einstieg nur mit gültigem FlixTrain- oder FlixBus Ticket"},{"type":"A","code":"FX","prio":560,"icoX":3,"txtN":"Tickets unter www.flixtrain.de"},{"type":"A","code":"FG","prio":603,"icoX":3,"txtN":"Sitzplatzgarantie"},{"type":"A","code":"LS","prio":605,"icoX":3,"txtN":"Laptop-Steckdosen"},{"type":"A","code":"WV","prio":710,"icoX":3,"txtN":"WLAN verfügbar"}],"type":"JNY"},{"arrival":{"platform":"4","scheduledTime":"2023-10-18T19:14:00.000Z","time":"2023-10-18T19:14:00.000Z","reihung":false},"departure":{"platform":"8","scheduledTime":"2023-10-18T18:48:00.000Z","time":"2023-10-18T18:48:00.000Z","reihung":false},"duration":1560000,"train":{"name":"S 3","line":"3","admin":"801539","number":"38371","type":"S","operator":{"name":"DB Regio AG Mitte","icoX":14}},"segmentStart":{"name":"Heidelberg Hbf","evaNumber":"8000156"},"segmentDestination":{"name":"Bruchsal","evaNumber":"8000055"},"stops":[{"station":{"evaNumber":"8000156","name":"Heidelberg Hbf","coordinates":{"lng":8.67548,"lat":49.403582},"ril100":"RH"},"departure":{"platform":"8","scheduledTime":"2023-10-18T18:48:00.000Z","time":"2023-10-18T18:48:00.000Z","reihung":false}},{"station":{"evaNumber":"8002686","name":"Heidelberg-Kirchheim/Rohrbach","coordinates":{"lng":8.675444,"lat":49.379913},"ril100":"RHKM"},"arrival":{"platform":"1","scheduledTime":"2023-10-18T18:50:00.000Z","time":"2023-10-18T18:50:00.000Z","reihung":false},"departure":{"platform":"1","scheduledTime":"2023-10-18T18:51:00.000Z","time":"2023-10-18T18:51:00.000Z","reihung":false}},{"station":{"evaNumber":"8005648","name":"St Ilgen-Sandhausen","coordinates":{"lng":8.668694,"lat":49.341125},"ril100":"RSIG"},"arrival":{"platform":"2","scheduledTime":"2023-10-18T18:54:00.000Z","time":"2023-10-18T18:54:00.000Z","reihung":false},"departure":{"platform":"2","scheduledTime":"2023-10-18T18:54:00.000Z","time":"2023-10-18T18:54:00.000Z","reihung":false}},{"station":{"evaNumber":"8006421","name":"Wiesloch-Walldorf","coordinates":{"lng":8.664217,"lat":49.291028},"ril100":"RWS"},"arrival":{"platform":"2","scheduledTime":"2023-10-18T18:57:00.000Z","time":"2023-10-18T18:57:00.000Z","reihung":false},"departure":{"platform":"2","scheduledTime":"2023-10-18T18:58:00.000Z","time":"2023-10-18T18:58:00.000Z","reihung":false}},{"station":{"evaNumber":"8005181","name":"Rot-Malsch","coordinates":{"lng":8.652216,"lat":49.243367},"ril100":"RRM"},"arrival":{"platform":"1","scheduledTime":"2023-10-18T19:01:00.000Z","time":"2023-10-18T19:01:00.000Z","reihung":false},"departure":{"platform":"1","scheduledTime":"2023-10-18T19:02:00.000Z","time":"2023-10-18T19:02:00.000Z","reihung":false}},{"station":{"evaNumber":"8004032","name":"Bad Schönborn-Kronau","coordinates":{"lng":8.646886,"lat":49.219564},"ril100":"RBSK"},"arrival":{"platform":"2","scheduledTime":"2023-10-18T19:04:00.000Z","time":"2023-10-18T19:04:00.000Z","reihung":false},"departure":{"platform":"2","scheduledTime":"2023-10-18T19:04:00.000Z","time":"2023-10-18T19:04:00.000Z","reihung":false}},{"station":{"evaNumber":"8003533","name":"Bad Schönborn Süd","coordinates":{"lng":8.641924,"lat":49.199994},"ril100":"RBS"},"arrival":{"platform":"2","scheduledTime":"2023-10-18T19:06:00.000Z","time":"2023-10-18T19:06:00.000Z","reihung":false},"departure":{"platform":"2","scheduledTime":"2023-10-18T19:07:00.000Z","time":"2023-10-18T19:07:00.000Z","reihung":false}},{"station":{"evaNumber":"8005933","name":"Stettfeld-Weiher","coordinates":{"lng":8.637159,"lat":49.183975},"ril100":"RSFW"},"arrival":{"platform":"2","scheduledTime":"2023-10-18T19:08:00.000Z","time":"2023-10-18T19:08:00.000Z","reihung":false},"departure":{"platform":"2","scheduledTime":"2023-10-18T19:09:00.000Z","time":"2023-10-18T19:09:00.000Z","reihung":false}},{"station":{"evaNumber":"8005931","name":"Ubstadt-Weiher","coordinates":{"lng":8.624017,"lat":49.167759},"ril100":"RUW"},"arrival":{"platform":"1","scheduledTime":"2023-10-18T19:11:00.000Z","time":"2023-10-18T19:11:00.000Z","reihung":false},"departure":{"platform":"1","scheduledTime":"2023-10-18T19:11:00.000Z","time":"2023-10-18T19:11:00.000Z","reihung":false}},{"station":{"evaNumber":"8000055","name":"Bruchsal","coordinates":{"lng":8.589687,"lat":49.124592},"ril100":"RBR"},"arrival":{"platform":"4","scheduledTime":"2023-10-18T19:14:00.000Z","time":"2023-10-18T19:14:00.000Z","reihung":false}}],"finalDestination":"Karlsruhe Hbf","jid":"1|254358|0|80|18102023","messages":[{"type":"A","code":"FB","prio":260,"icoX":5,"txtN":"Fahrradmitnahme begrenzt möglich"},{"type":"A","code":"EH","prio":560,"icoX":3,"txtN":"Fahrzeuggebundene Einstiegshilfe vorhanden"}],"type":"JNY"}],"segmentTypes":["FLX","S"]},{"checksum":"a1ec93a8_3","cid":"C-2","date":"2023-10-17T22:00:00.000Z","duration":21240000,"changes":2,"isRideable":true,"arrival":{"platform":"3b","scheduledTime":"2023-10-18T19:28:00.000Z","time":"2023-10-18T19:28:00.000Z","reihung":false},"departure":{"platform":"1","scheduledTime":"2023-10-18T13:34:00.000Z","time":"2023-10-18T13:34:00.000Z","reihung":false},"segments":[{"arrival":{"platform":"1","scheduledTime":"2023-10-18T15:24:00.000Z","time":"2023-10-18T15:24:00.000Z","reihung":false},"departure":{"platform":"1","scheduledTime":"2023-10-18T13:34:00.000Z","time":"2023-10-18T13:34:00.000Z","reihung":false},"duration":6600000,"train":{"name":"ICE 709","line":"18","admin":"80","number":"709","type":"ICE","operator":{"name":"DB Fernverkehr AG","icoX":1}},"changeDuration":6,"segmentStart":{"name":"Berlin Hbf (tief)","evaNumber":"8098160"},"segmentDestination":{"name":"Erfurt Hbf","evaNumber":"8010101"},"stops":[{"station":{"evaNumber":"8098160","name":"Berlin Hbf (tief)","coordinates":{"lng":13.368892,"lat":52.52585},"ril100":"BL"},"departure":{"platform":"1","scheduledTime":"2023-10-18T13:34:00.000Z","time":"2023-10-18T13:34:00.000Z","reihung":false}},{"station":{"evaNumber":"8011113","name":"Berlin Südkreuz","coordinates":{"lng":13.365863,"lat":52.47623},"ril100":"BPAF"},"arrival":{"platform":"3","scheduledTime":"2023-10-18T13:39:00.000Z","time":"2023-10-18T13:39:00.000Z","reihung":false},"departure":{"platform":"3","scheduledTime":"2023-10-18T13:41:00.000Z","time":"2023-10-18T13:41:00.000Z","reihung":false},"auslastung":{"first":1,"second":1}},{"station":{"evaNumber":"8010050","name":"Bitterfeld","coordinates":{"lng":12.316966,"lat":51.622911},"ril100":"LBT"},"arrival":{"platform":"3","scheduledTime":"2023-10-18T14:32:00.000Z","time":"2023-10-18T14:32:00.000Z","reihung":false},"departure":{"platform":"3","scheduledTime":"2023-10-18T14:33:00.000Z","time":"2023-10-18T14:33:00.000Z","reihung":false},"auslastung":{"first":1,"second":1}},{"station":{"evaNumber":"8010159","name":"Halle(Saale)Hbf","coordinates":{"lng":11.98699,"lat":51.477079},"ril100":"LH"},"arrival":{"platform":"8","scheduledTime":"2023-10-18T14:51:00.000Z","time":"2023-10-18T14:51:00.000Z","reihung":false},"departure":{"platform":"8","scheduledTime":"2023-10-18T14:53:00.000Z","time":"2023-10-18T14:53:00.000Z","reihung":false},"auslastung":{"first":1,"second":1}},{"station":{"evaNumber":"8010101","name":"Erfurt Hbf","coordinates":{"lng":11.038502,"lat":50.97255},"ril100":"UE  P"},"arrival":{"platform":"1","scheduledTime":"2023-10-18T15:24:00.000Z","time":"2023-10-18T15:24:00.000Z","reihung":false}}],"finalDestination":"München Hbf","jid":"1|209234|0|80|18102023","auslastung":{"first":1,"second":1},"messages":[{"type":"A","code":"CK","prio":200,"icoX":3,"txtN":"Sicher & kontaktlos ohne Ticketkontrolle reisen mit Komfort Check-in"},{"type":"A","code":"FR","prio":260,"icoX":4,"txtN":"Fahrradmitnahme reservierungspflichtig"},{"type":"A","code":"FB","prio":260,"icoX":5,"txtN":"Fahrradmitnahme begrenzt möglich"},{"type":"A","code":"BR","prio":450,"icoX":6,"txtN":"Bordrestaurant"},{"type":"A","code":"EH","prio":560,"icoX":3,"txtN":"Fahrzeuggebundene Einstiegshilfe vorhanden"}],"type":"JNY"},{"arrival":{"platform":"2","scheduledTime":"2023-10-18T19:09:00.000Z","time":"2023-10-18T19:09:00.000Z","reihung":false},"departure":{"platform":"2","scheduledTime":"2023-10-18T15:30:00.000Z","time":"2023-10-18T15:30:00.000Z","reihung":false},"duration":13140000,"train":{"name":"ICE 1171","line":"20","admin":"80","number":"1171","type":"ICE","operator":{"name":"DB Fernverkehr AG","icoX":1}},"changeDuration":6,"segmentStart":{"name":"Erfurt Hbf","evaNumber":"8010101"},"segmentDestination":{"name":"Karlsruhe Hbf","evaNumber":"8000191"},"stops":[{"station":{"evaNumber":"8010101","name":"Erfurt Hbf","coordinates":{"lng":11.038502,"lat":50.97255},"ril100":"UE  P"},"departure":{"platform":"2","scheduledTime":"2023-10-18T15:30:00.000Z","time":"2023-10-18T15:30:00.000Z","reihung":false},"auslastung":{"first":2,"second":2}},{"station":{"evaNumber":"8010097","name":"Eisenach","coordinates":{"lng":10.33212,"lat":50.976928},"ril100":"UEI"},"arrival":{"platform":"5","scheduledTime":"2023-10-18T15:54:00.000Z","time":"2023-10-18T15:54:00.000Z","reihung":false},"departure":{"platform":"5","scheduledTime":"2023-10-18T15:55:00.000Z","time":"2023-10-18T15:55:00.000Z","reihung":false},"auslastung":{"first":2,"second":2}},{"station":{"evaNumber":"8000115","name":"Fulda","coordinates":{"lng":9.684178,"lat":50.554794},"ril100":"FFU"},"arrival":{"platform":"3","scheduledTime":"2023-10-18T16:48:00.000Z","time":"2023-10-18T16:48:00.000Z","reihung":false},"departure":{"platform":"3","scheduledTime":"2023-10-18T16:50:00.000Z","time":"2023-10-18T16:50:00.000Z","reihung":false},"auslastung":{"first":2,"second":1}},{"station":{"evaNumber":"8000150","name":"Hanau Hbf","coordinates":{"lng":8.92921,"lat":50.120903},"ril100":"FH"},"arrival":{"platform":"6","scheduledTime":"2023-10-18T17:32:00.000Z","time":"2023-10-18T17:32:00.000Z","reihung":false},"departure":{"platform":"6","scheduledTime":"2023-10-18T17:34:00.000Z","time":"2023-10-18T17:34:00.000Z","reihung":false},"auslastung":{"first":2,"second":1}},{"station":{"evaNumber":"8000105","name":"Frankfurt(Main)Hbf","coordinates":{"lng":8.663003,"lat":50.106817},"ril100":"FF"},"arrival":{"platform":"6","scheduledTime":"2023-10-18T17:52:00.000Z","time":"2023-10-18T17:52:00.000Z","reihung":false},"departure":{"platform":"6","scheduledTime":"2023-10-18T18:06:00.000Z","time":"2023-10-18T18:06:00.000Z","reihung":false},"auslastung":{"first":2,"second":1}},{"station":{"evaNumber":"8000244","name":"Mannheim Hbf","coordinates":{"lng":8.469268,"lat":49.479181},"ril100":"RM"},"arrival":{"platform":"8","scheduledTime":"2023-10-18T18:44:00.000Z","time":"2023-10-18T18:44:00.000Z","reihung":false},"departure":{"platform":"8","scheduledTime":"2023-10-18T18:46:00.000Z","time":"2023-10-18T18:46:00.000Z","reihung":false},"auslastung":{"first":1,"second":1}},{"station":{"evaNumber":"8000191","name":"Karlsruhe Hbf","coordinates":{"lng":8.401939,"lat":48.99353},"ril100":"RK"},"arrival":{"platform":"2","scheduledTime":"2023-10-18T19:09:00.000Z","time":"2023-10-18T19:09:00.000Z","reihung":false}}],"finalDestination":"Basel SBB","jid":"1|197128|0|80|18102023","auslastung":{"first":2,"second":2},"messages":[{"type":"A","code":"CK","prio":200,"icoX":3,"txtN":"Sicher & kontaktlos ohne Ticketkontrolle reisen mit Komfort Check-in"},{"type":"A","code":"FR","prio":260,"icoX":4,"txtN":"Fahrradmitnahme reservierungspflichtig"},{"type":"A","code":"FB","prio":260,"icoX":5,"txtN":"Fahrradmitnahme begrenzt möglich"},{"type":"A","code":"BR","prio":450,"icoX":6,"txtN":"Bordrestaurant"},{"type":"A","code":"EH","prio":560,"icoX":3,"txtN":"Fahrzeuggebundene Einstiegshilfe vorhanden"}],"type":"JNY"},{"arrival":{"platform":"3b","scheduledTime":"2023-10-18T19:28:00.000Z","time":"2023-10-18T19:28:00.000Z","reihung":false},"departure":{"platform":"5","scheduledTime":"2023-10-18T19:15:00.000Z","time":"2023-10-18T19:15:00.000Z","reihung":false},"duration":780000,"train":{"name":"RE 73","line":"73","admin":"800572","number":"26154","type":"RE","operator":{"name":"DB Regio AG Mitte","icoX":14}},"segmentStart":{"name":"Karlsruhe Hbf","evaNumber":"8000191"},"segmentDestination":{"name":"Bruchsal","evaNumber":"8000055"},"stops":[{"station":{"evaNumber":"8000191","name":"Karlsruhe Hbf","coordinates":{"lng":8.401939,"lat":48.99353},"ril100":"RK"},"departure":{"platform":"5","scheduledTime":"2023-10-18T19:15:00.000Z","time":"2023-10-18T19:15:00.000Z","reihung":false}},{"station":{"evaNumber":"8003184","name":"Karlsruhe-Durlach","coordinates":{"lng":8.462292,"lat":49.002025},"ril100":"RKDU"},"arrival":{"platform":"5b","scheduledTime":"2023-10-18T19:18:00.000Z","time":"2023-10-18T19:18:00.000Z","reihung":false},"departure":{"platform":"5b","scheduledTime":"2023-10-18T19:19:00.000Z","time":"2023-10-18T19:19:00.000Z","reihung":false}},{"station":{"evaNumber":"8000055","name":"Bruchsal","coordinates":{"lng":8.589687,"lat":49.124592},"ril100":"RBR"},"arrival":{"platform":"3b","scheduledTime":"2023-10-18T19:28:00.000Z","time":"2023-10-18T19:28:00.000Z","reihung":false}}],"finalDestination":"Mannheim Hbf","jid":"1|253041|0|80|18102023","messages":[{"type":"A","code":"FB","prio":260,"icoX":5,"txtN":"Fahrradmitnahme begrenzt möglich"},{"type":"A","code":"EH","prio":560,"icoX":3,"txtN":"Fahrzeuggebundene Einstiegshilfe vorhanden"},{"type":"A","code":"LS","prio":605,"icoX":3,"txtN":"Laptop-Steckdosen"},{"type":"A","code":"KL","prio":610,"icoX":3,"txtN":"Klimaanlage"}],"type":"JNY"}],"segmentTypes":["ICE","ICE","RE"]},{"checksum":"f74be494_3","cid":"C-3","date":"2023-10-17T22:00:00.000Z","duration":22620000,"changes":2,"isRideable":true,"arrival":{"platform":"4","scheduledTime":"2023-10-18T19:51:00.000Z","time":"2023-10-18T19:51:00.000Z","reihung":false},"departure":{"platform":"1","scheduledTime":"2023-10-18T13:34:00.000Z","time":"2023-10-18T13:34:00.000Z","reihung":false},"segments":[{"arrival":{"platform":"1","scheduledTime":"2023-10-18T15:24:00.000Z","time":"2023-10-18T15:24:00.000Z","reihung":false},"departure":{"platform":"1","scheduledTime":"2023-10-18T13:34:00.000Z","time":"2023-10-18T13:34:00.000Z","reihung":false},"duration":6600000,"train":{"name":"ICE 709","line":"18","admin":"80","number":"709","type":"ICE","operator":{"name":"DB Fernverkehr AG","icoX":1}},"changeDuration":6,"segmentStart":{"name":"Berlin Hbf (tief)","evaNumber":"8098160"},"segmentDestination":{"name":"Erfurt Hbf","evaNumber":"8010101"},"stops":[{"station":{"evaNumber":"8098160","name":"Berlin Hbf (tief)","coordinates":{"lng":13.368892,"lat":52.52585},"ril100":"BL"},"departure":{"platform":"1","scheduledTime":"2023-10-18T13:34:00.000Z","time":"2023-10-18T13:34:00.000Z","reihung":false}},{"station":{"evaNumber":"8011113","name":"Berlin Südkreuz","coordinates":{"lng":13.365863,"lat":52.47623},"ril100":"BPAF"},"arrival":{"platform":"3","scheduledTime":"2023-10-18T13:39:00.000Z","time":"2023-10-18T13:39:00.000Z","reihung":false},"departure":{"platform":"3","scheduledTime":"2023-10-18T13:41:00.000Z","time":"2023-10-18T13:41:00.000Z","reihung":false},"auslastung":{"first":1,"second":1}},{"station":{"evaNumber":"8010050","name":"Bitterfeld","coordinates":{"lng":12.316966,"lat":51.622911},"ril100":"LBT"},"arrival":{"platform":"3","scheduledTime":"2023-10-18T14:32:00.000Z","time":"2023-10-18T14:32:00.000Z","reihung":false},"departure":{"platform":"3","scheduledTime":"2023-10-18T14:33:00.000Z","time":"2023-10-18T14:33:00.000Z","reihung":false},"auslastung":{"first":1,"second":1}},{"station":{"evaNumber":"8010159","name":"Halle(Saale)Hbf","coordinates":{"lng":11.98699,"lat":51.477079},"ril100":"LH"},"arrival":{"platform":"8","scheduledTime":"2023-10-18T14:51:00.000Z","time":"2023-10-18T14:51:00.000Z","reihung":false},"departure":{"platform":"8","scheduledTime":"2023-10-18T14:53:00.000Z","time":"2023-10-18T14:53:00.000Z","reihung":false},"auslastung":{"first":1,"second":1}},{"station":{"evaNumber":"8010101","name":"Erfurt Hbf","coordinates":{"lng":11.038502,"lat":50.97255},"ril100":"UE  P"},"arrival":{"platform":"1","scheduledTime":"2023-10-18T15:24:00.000Z","time":"2023-10-18T15:24:00.000Z","reihung":false}}],"finalDestination":"München Hbf","jid":"1|209234|0|80|18102023","auslastung":{"first":1,"second":1},"messages":[{"type":"A","code":"CK","prio":200,"icoX":3,"txtN":"Sicher & kontaktlos ohne Ticketkontrolle reisen mit Komfort Check-in"},{"type":"A","code":"FR","prio":260,"icoX":4,"txtN":"Fahrradmitnahme reservierungspflichtig"},{"type":"A","code":"FB","prio":260,"icoX":5,"txtN":"Fahrradmitnahme begrenzt möglich"},{"type":"A","code":"BR","prio":450,"icoX":6,"txtN":"Bordrestaurant"},{"type":"A","code":"EH","prio":560,"icoX":3,"txtN":"Fahrzeuggebundene Einstiegshilfe vorhanden"}],"type":"JNY"},{"arrival":{"platform":"8","scheduledTime":"2023-10-18T18:44:00.000Z","time":"2023-10-18T18:44:00.000Z","reihung":false},"departure":{"platform":"2","scheduledTime":"2023-10-18T15:30:00.000Z","time":"2023-10-18T15:30:00.000Z","reihung":false},"duration":11640000,"train":{"name":"ICE 1171","line":"20","admin":"80","number":"1171","type":"ICE","operator":{"name":"DB Fernverkehr AG","icoX":1}},"changeDuration":23,"segmentStart":{"name":"Erfurt Hbf","evaNumber":"8010101"},"segmentDestination":{"name":"Mannheim Hbf","evaNumber":"8000244"},"stops":[{"station":{"evaNumber":"8010101","name":"Erfurt Hbf","coordinates":{"lng":11.038502,"lat":50.97255},"ril100":"UE  P"},"departure":{"platform":"2","scheduledTime":"2023-10-18T15:30:00.000Z","time":"2023-10-18T15:30:00.000Z","reihung":false},"auslastung":{"first":2,"second":2}},{"station":{"evaNumber":"8010097","name":"Eisenach","coordinates":{"lng":10.33212,"lat":50.976928},"ril100":"UEI"},"arrival":{"platform":"5","scheduledTime":"2023-10-18T15:54:00.000Z","time":"2023-10-18T15:54:00.000Z","reihung":false},"departure":{"platform":"5","scheduledTime":"2023-10-18T15:55:00.000Z","time":"2023-10-18T15:55:00.000Z","reihung":false},"auslastung":{"first":2,"second":2}},{"station":{"evaNumber":"8000115","name":"Fulda","coordinates":{"lng":9.684178,"lat":50.554794},"ril100":"FFU"},"arrival":{"platform":"3","scheduledTime":"2023-10-18T16:48:00.000Z","time":"2023-10-18T16:48:00.000Z","reihung":false},"departure":{"platform":"3","scheduledTime":"2023-10-18T16:50:00.000Z","time":"2023-10-18T16:50:00.000Z","reihung":false},"auslastung":{"first":2,"second":1}},{"station":{"evaNumber":"8000150","name":"Hanau Hbf","coordinates":{"lng":8.92921,"lat":50.120903},"ril100":"FH"},"arrival":{"platform":"6","scheduledTime":"2023-10-18T17:32:00.000Z","time":"2023-10-18T17:32:00.000Z","reihung":false},"departure":{"platform":"6","scheduledTime":"2023-10-18T17:34:00.000Z","time":"2023-10-18T17:34:00.000Z","reihung":false},"auslastung":{"first":2,"second":1}},{"station":{"evaNumber":"8000105","name":"Frankfurt(Main)Hbf","coordinates":{"lng":8.663003,"lat":50.106817},"ril100":"FF"},"arrival":{"platform":"6","scheduledTime":"2023-10-18T17:52:00.000Z","time":"2023-10-18T17:52:00.000Z","reihung":false},"departure":{"platform":"6","scheduledTime":"2023-10-18T18:06:00.000Z","time":"2023-10-18T18:06:00.000Z","reihung":false},"auslastung":{"first":2,"second":1}},{"station":{"evaNumber":"8000244","name":"Mannheim Hbf","coordinates":{"lng":8.469268,"lat":49.479181},"ril100":"RM"},"arrival":{"platform":"8","scheduledTime":"2023-10-18T18:44:00.000Z","time":"2023-10-18T18:44:00.000Z","reihung":false}}],"finalDestination":"Basel SBB","jid":"1|197128|0|80|18102023","auslastung":{"first":2,"second":2},"messages":[{"type":"A","code":"CK","prio":200,"icoX":3,"txtN":"Sicher & kontaktlos ohne Ticketkontrolle reisen mit Komfort Check-in"},{"type":"A","code":"FR","prio":260,"icoX":4,"txtN":"Fahrradmitnahme reservierungspflichtig"},{"type":"A","code":"FB","prio":260,"icoX":5,"txtN":"Fahrradmitnahme begrenzt möglich"},{"type":"A","code":"BR","prio":450,"icoX":6,"txtN":"Bordrestaurant"},{"type":"A","code":"EH","prio":560,"icoX":3,"txtN":"Fahrzeuggebundene Einstiegshilfe vorhanden"}],"type":"JNY"},{"arrival":{"platform":"4","scheduledTime":"2023-10-18T19:51:00.000Z","time":"2023-10-18T19:51:00.000Z","reihung":false},"departure":{"platform":"8","scheduledTime":"2023-10-18T19:07:00.000Z","time":"2023-10-18T19:07:00.000Z","reihung":false},"duration":2640000,"train":{"name":"S 4","line":"4","admin":"801539","number":"38373","type":"S","operator":{"name":"DB Regio AG Mitte","icoX":14}},"segmentStart":{"name":"Mannheim Hbf","evaNumber":"8000244"},"segmentDestination":{"name":"Bruchsal","evaNumber":"8000055"},"stops":[{"station":{"evaNumber":"8000244","name":"Mannheim Hbf","coordinates":{"lng":8.469268,"lat":49.479181},"ril100":"RM"},"departure":{"platform":"8","scheduledTime":"2023-10-18T19:07:00.000Z","time":"2023-10-18T19:07:00.000Z","reihung":false}},{"station":{"evaNumber":"8003841","name":"Mannheim ARENA/Maimarkt","coordinates":{"lng":8.515922,"lat":49.45998},"ril100":"RMSM"},"arrival":{"platform":"2","scheduledTime":"2023-10-18T19:11:00.000Z","time":"2023-10-18T19:11:00.000Z","reihung":false},"departure":{"platform":"2","scheduledTime":"2023-10-18T19:11:00.000Z","time":"2023-10-18T19:11:00.000Z","reihung":false}},{"station":{"evaNumber":"8003847","name":"Mannheim-Seckenheim","coordinates":{"lng":8.538098,"lat":49.451413},"ril100":"RMSE"},"arrival":{"platform":"2","scheduledTime":"2023-10-18T19:13:00.000Z","time":"2023-10-18T19:13:00.000Z","reihung":false},"departure":{"platform":"2","scheduledTime":"2023-10-18T19:14:00.000Z","time":"2023-10-18T19:14:00.000Z","reihung":false}},{"station":{"evaNumber":"8003842","name":"Mannheim-Friedrichsfeld Süd","coordinates":{"lng":8.572239,"lat":49.438217},"ril100":"RMFS"},"arrival":{"platform":"2","scheduledTime":"2023-10-18T19:16:00.000Z","time":"2023-10-18T19:16:00.000Z","reihung":false},"departure":{"platform":"2","scheduledTime":"2023-10-18T19:16:00.000Z","time":"2023-10-18T19:16:00.000Z","reihung":false}},{"station":{"evaNumber":"8002687","name":"Heidelberg-Pfaffengrund/Wieblingen","coordinates":{"lng":8.641474,"lat":49.411969},"ril100":"RHBP"},"arrival":{"platform":"2","scheduledTime":"2023-10-18T19:20:00.000Z","time":"2023-10-18T19:20:00.000Z","reihung":false},"departure":{"platform":"2","scheduledTime":"2023-10-18T19:20:00.000Z","time":"2023-10-18T19:20:00.000Z","reihung":false}},{"station":{"evaNumber":"8000156","name":"Heidelberg Hbf","coordinates":{"lng":8.67548,"lat":49.403582},"ril100":"RH"},"arrival":{"platform":"8","scheduledTime":"2023-10-18T19:23:00.000Z","time":"2023-10-18T19:23:00.000Z","reihung":false},"departure":{"platform":"8","scheduledTime":"2023-10-18T19:24:00.000Z","time":"2023-10-18T19:24:00.000Z","reihung":false}},{"station":{"evaNumber":"8002686","name":"Heidelberg-Kirchheim/Rohrbach","coordinates":{"lng":8.675444,"lat":49.379913},"ril100":"RHKM"},"arrival":{"platform":"1","scheduledTime":"2023-10-18T19:26:00.000Z","time":"2023-10-18T19:26:00.000Z","reihung":false},"departure":{"platform":"1","scheduledTime":"2023-10-18T19:27:00.000Z","time":"2023-10-18T19:27:00.000Z","reihung":false}},{"station":{"evaNumber":"8005648","name":"St Ilgen-Sandhausen","coordinates":{"lng":8.668694,"lat":49.341125},"ril100":"RSIG"},"arrival":{"platform":"2","scheduledTime":"2023-10-18T19:29:00.000Z","time":"2023-10-18T19:29:00.000Z","reihung":false},"departure":{"platform":"2","scheduledTime":"2023-10-18T19:30:00.000Z","time":"2023-10-18T19:30:00.000Z","reihung":false}},{"station":{"evaNumber":"8006421","name":"Wiesloch-Walldorf","coordinates":{"lng":8.664217,"lat":49.291028},"ril100":"RWS"},"arrival":{"platform":"2","scheduledTime":"2023-10-18T19:34:00.000Z","time":"2023-10-18T19:34:00.000Z","reihung":false},"departure":{"platform":"2","scheduledTime":"2023-10-18T19:34:00.000Z","time":"2023-10-18T19:34:00.000Z","reihung":false}},{"station":{"evaNumber":"8005181","name":"Rot-Malsch","coordinates":{"lng":8.652216,"lat":49.243367},"ril100":"RRM"},"arrival":{"platform":"1","scheduledTime":"2023-10-18T19:37:00.000Z","time":"2023-10-18T19:37:00.000Z","reihung":false},"departure":{"platform":"1","scheduledTime":"2023-10-18T19:38:00.000Z","time":"2023-10-18T19:38:00.000Z","reihung":false}},{"station":{"evaNumber":"8004032","name":"Bad Schönborn-Kronau","coordinates":{"lng":8.646886,"lat":49.219564},"ril100":"RBSK"},"arrival":{"platform":"2","scheduledTime":"2023-10-18T19:40:00.000Z","time":"2023-10-18T19:40:00.000Z","reihung":false},"departure":{"platform":"2","scheduledTime":"2023-10-18T19:40:00.000Z","time":"2023-10-18T19:40:00.000Z","reihung":false}},{"station":{"evaNumber":"8003533","name":"Bad Schönborn Süd","coordinates":{"lng":8.641924,"lat":49.199994},"ril100":"RBS"},"arrival":{"platform":"2","scheduledTime":"2023-10-18T19:42:00.000Z","time":"2023-10-18T19:42:00.000Z","reihung":false},"departure":{"platform":"2","scheduledTime":"2023-10-18T19:42:00.000Z","time":"2023-10-18T19:42:00.000Z","reihung":false}},{"station":{"evaNumber":"8005933","name":"Stettfeld-Weiher","coordinates":{"lng":8.637159,"lat":49.183975},"ril100":"RSFW"},"arrival":{"platform":"2","scheduledTime":"2023-10-18T19:44:00.000Z","time":"2023-10-18T19:44:00.000Z","reihung":false},"departure":{"platform":"2","scheduledTime":"2023-10-18T19:45:00.000Z","time":"2023-10-18T19:45:00.000Z","reihung":false}},{"station":{"evaNumber":"8005931","name":"Ubstadt-Weiher","coordinates":{"lng":8.624017,"lat":49.167759},"ril100":"RUW"},"arrival":{"platform":"1","scheduledTime":"2023-10-18T19:46:00.000Z","time":"2023-10-18T19:46:00.000Z","reihung":false},"departure":{"platform":"1","scheduledTime":"2023-10-18T19:47:00.000Z","time":"2023-10-18T19:47:00.000Z","reihung":false}},{"station":{"evaNumber":"8000055","name":"Bruchsal","coordinates":{"lng":8.589687,"lat":49.124592},"ril100":"RBR"},"arrival":{"platform":"4","scheduledTime":"2023-10-18T19:51:00.000Z","time":"2023-10-18T19:51:00.000Z","reihung":false}}],"finalDestination":"Karlsruhe Hbf","jid":"1|254363|0|80|18102023","messages":[{"type":"A","code":"FB","prio":260,"icoX":5,"txtN":"Fahrradmitnahme begrenzt möglich"},{"type":"A","code":"EH","prio":560,"icoX":3,"txtN":"Fahrzeuggebundene Einstiegshilfe vorhanden"}],"type":"JNY"}],"segmentTypes":["ICE","ICE","S"]},{"checksum":"daf70261_3","cid":"C-4","date":"2023-10-17T22:00:00.000Z","duration":23820000,"changes":2,"isRideable":true,"arrival":{"platform":"2b","scheduledTime":"2023-10-18T20:23:00.000Z","time":"2023-10-18T20:23:00.000Z","reihung":false},"departure":{"platform":"14","scheduledTime":"2023-10-18T13:46:00.000Z","time":"2023-10-18T13:46:00.000Z","reihung":false},"segments":[{"arrival":{"platform":"12","scheduledTime":"2023-10-18T15:28:00.000Z","time":"2023-10-18T15:28:00.000Z","reihung":false},"departure":{"platform":"14","scheduledTime":"2023-10-18T13:46:00.000Z","time":"2023-10-18T13:46:00.000Z","reihung":false},"duration":6120000,"wings":[{"train":{"name":"ICE 856","line":"10","admin":"80","number":"856","type":"ICE","operator":{"name":"DB Fernverkehr AG","icoX":1}},"segmentStart":{"name":"Berlin Hbf","evaNumber":"8011160"},"segmentDestination":{"name":"Hannover Hbf","evaNumber":"8000152"},"stops":[{"station":{"evaNumber":"8011160","name":"Berlin Hbf","coordinates":{"lng":13.369629,"lat":52.524924},"ril100":"BLS"},"departure":{"platform":"14","scheduledTime":"2023-10-18T13:46:00.000Z","time":"2023-10-18T13:46:00.000Z","reihung":false}},{"station":{"evaNumber":"8010404","name":"Berlin-Spandau","coordinates":{"lng":13.200947,"lat":52.533787},"ril100":"BSPD"},"auslastung":{"first":3,"second":2}},{"station":{"evaNumber":"8006552","name":"Wolfsburg Hbf","coordinates":{"lng":10.787757,"lat":52.429495},"ril100":"HWOB"},"arrival":{"platform":"1","scheduledTime":"2023-10-18T14:52:00.000Z","time":"2023-10-18T14:52:00.000Z","reihung":false},"auslastung":{"first":3,"second":2}},{"station":{"evaNumber":"8000152","name":"Hannover Hbf","coordinates":{"lng":9.741763,"lat":52.377079},"ril100":"HH"},"arrival":{"platform":"12","scheduledTime":"2023-10-18T15:28:00.000Z","time":"2023-10-18T15:28:00.000Z","reihung":false}}],"finalDestination":"Köln Hbf","jid":"1|211241|0|80|18102023","auslastung":{"first":3,"second":2}}],"train":{"name":"ICE 846","line":"10","admin":"80","number":"846","type":"ICE","operator":{"name":"DB Fernverkehr AG","icoX":1}},"changeDuration":13,"segmentStart":{"name":"Berlin Hbf","evaNumber":"8011160"},"segmentDestination":{"name":"Hannover Hbf","evaNumber":"8000152"},"stops":[{"station":{"evaNumber":"8011160","name":"Berlin Hbf","coordinates":{"lng":13.369629,"lat":52.524924},"ril100":"BLS"},"departure":{"platform":"14","scheduledTime":"2023-10-18T13:46:00.000Z","time":"2023-10-18T13:46:00.000Z","reihung":false}},{"station":{"evaNumber":"8010404","name":"Berlin-Spandau","coordinates":{"lng":13.200947,"lat":52.533787},"ril100":"BSPD"},"departure":{"platform":"4","scheduledTime":"2023-10-18T14:00:00.000Z","time":"2023-10-18T14:00:00.000Z","reihung":false},"auslastung":{"first":3,"second":2}},{"station":{"evaNumber":"8006552","name":"Wolfsburg Hbf","coordinates":{"lng":10.787757,"lat":52.429495},"ril100":"HWOB"},"arrival":{"platform":"1","scheduledTime":"2023-10-18T14:52:00.000Z","time":"2023-10-18T14:52:00.000Z","reihung":false},"departure":{"platform":"1","scheduledTime":"2023-10-18T14:53:00.000Z","time":"2023-10-18T14:53:00.000Z","reihung":false},"auslastung":{"first":3,"second":2}},{"station":{"evaNumber":"8000152","name":"Hannover Hbf","coordinates":{"lng":9.741763,"lat":52.377079},"ril100":"HH"},"arrival":{"platform":"12","scheduledTime":"2023-10-18T15:28:00.000Z","time":"2023-10-18T15:28:00.000Z","reihung":false}}],"finalDestination":"Düsseldorf Hbf","jid":"1|211001|0|80|18102023","auslastung":{"first":3,"second":2},"messages":[{"type":"A","code":"CK","prio":200,"icoX":3,"txtN":"Sicher & kontaktlos ohne Ticketkontrolle reisen mit Komfort Check-in"},{"type":"A","code":"FR","prio":260,"icoX":4,"txtN":"Fahrradmitnahme reservierungspflichtig"},{"type":"A","code":"FB","prio":260,"icoX":5,"txtN":"Fahrradmitnahme begrenzt möglich"},{"type":"A","code":"BR","prio":450,"icoX":6,"txtN":"Bordrestaurant"},{"type":"A","code":"EH","prio":560,"icoX":3,"txtN":"Fahrzeuggebundene Einstiegshilfe vorhanden"}],"type":"JNY"},{"arrival":{"platform":"4","scheduledTime":"2023-10-18T19:27:00.000Z","time":"2023-10-18T19:27:00.000Z","reihung":false},"departure":{"platform":"3","scheduledTime":"2023-10-18T15:41:00.000Z","time":"2023-10-18T15:41:00.000Z","reihung":false},"duration":13560000,"train":{"name":"ICE 377","line":"12","admin":"80","number":"377","type":"ICE","operator":{"name":"DB Fernverkehr AG","icoX":1}},"changeDuration":10,"segmentStart":{"name":"Hannover Hbf","evaNumber":"8000152"},"segmentDestination":{"name":"Mannheim Hbf","evaNumber":"8000244"},"stops":[{"station":{"evaNumber":"8000152","name":"Hannover Hbf","coordinates":{"lng":9.741763,"lat":52.377079},"ril100":"HH"},"departure":{"platform":"3","scheduledTime":"2023-10-18T15:41:00.000Z","time":"2023-10-18T15:41:00.000Z","reihung":false},"auslastung":{"first":1,"second":1}},{"station":{"evaNumber":"8000128","name":"Göttingen","coordinates":{"lng":9.926257,"lat":51.536758},"ril100":"HG"},"arrival":{"platform":"10","scheduledTime":"2023-10-18T16:15:00.000Z","time":"2023-10-18T16:15:00.000Z","reihung":false},"departure":{"platform":"10","scheduledTime":"2023-10-18T16:16:00.000Z","time":"2023-10-18T16:16:00.000Z","reihung":false},"auslastung":{"first":1,"second":1}},{"station":{"evaNumber":"8003200","name":"Kassel-Wilhelmshöhe","coordinates":{"lng":9.446845,"lat":51.312998},"ril100":"FKW"},"arrival":{"platform":"2","scheduledTime":"2023-10-18T16:35:00.000Z","time":"2023-10-18T16:35:00.000Z","reihung":false},"departure":{"platform":"2","scheduledTime":"2023-10-18T16:37:00.000Z","time":"2023-10-18T16:37:00.000Z","reihung":false},"auslastung":{"first":1,"second":1}},{"station":{"evaNumber":"8000115","name":"Fulda","coordinates":{"lng":9.684178,"lat":50.554794},"ril100":"FFU"},"arrival":{"platform":"4","scheduledTime":"2023-10-18T17:46:00.000Z","time":"2023-10-18T17:46:00.000Z","reihung":false},"departure":{"platform":"4","scheduledTime":"2023-10-18T17:48:00.000Z","time":"2023-10-18T17:48:00.000Z","reihung":false},"auslastung":{"first":1,"second":1}},{"station":{"evaNumber":"8000150","name":"Hanau Hbf","coordinates":{"lng":8.92921,"lat":50.120903},"ril100":"FH"},"arrival":{"platform":"6","scheduledTime":"2023-10-18T18:26:00.000Z","time":"2023-10-18T18:26:00.000Z","reihung":false},"departure":{"platform":"6","scheduledTime":"2023-10-18T18:28:00.000Z","time":"2023-10-18T18:28:00.000Z","reihung":false},"auslastung":{"first":1,"second":1}},{"station":{"evaNumber":"8000105","name":"Frankfurt(Main)Hbf","coordinates":{"lng":8.663003,"lat":50.106817},"ril100":"FF"},"arrival":{"platform":"8","scheduledTime":"2023-10-18T18:44:00.000Z","time":"2023-10-18T18:44:00.000Z","reihung":false},"departure":{"platform":"8","scheduledTime":"2023-10-18T18:50:00.000Z","time":"2023-10-18T18:50:00.000Z","reihung":false},"auslastung":{"first":1,"second":1}},{"station":{"evaNumber":"8000244","name":"Mannheim Hbf","coordinates":{"lng":8.469268,"lat":49.479181},"ril100":"RM"},"arrival":{"platform":"4","scheduledTime":"2023-10-18T19:27:00.000Z","time":"2023-10-18T19:27:00.000Z","reihung":false}}],"finalDestination":"Basel SBB","jid":"1|204594|0|80|18102023","auslastung":{"first":1,"second":1},"messages":[{"type":"A","code":"CK","prio":200,"icoX":3,"txtN":"Sicher & kontaktlos ohne Ticketkontrolle reisen mit Komfort Check-in"},{"type":"A","code":"FR","prio":260,"icoX":4,"txtN":"Fahrradmitnahme reservierungspflichtig"},{"type":"A","code":"FB","prio":260,"icoX":5,"txtN":"Fahrradmitnahme begrenzt möglich"},{"type":"A","code":"BR","prio":450,"icoX":6,"txtN":"Bordrestaurant"},{"type":"A","code":"EH","prio":560,"icoX":3,"txtN":"Fahrzeuggebundene Einstiegshilfe vorhanden"}],"type":"JNY"},{"arrival":{"platform":"2b","scheduledTime":"2023-10-18T20:23:00.000Z","time":"2023-10-18T20:23:00.000Z","reihung":false},"departure":{"platform":"8","scheduledTime":"2023-10-18T19:37:00.000Z","time":"2023-10-18T19:37:00.000Z","reihung":false},"duration":2760000,"train":{"name":"S 3","line":"3","admin":"801539","number":"38479","type":"S","operator":{"name":"DB Regio AG Mitte","icoX":14}},"segmentStart":{"name":"Mannheim Hbf","evaNumber":"8000244"},"segmentDestination":{"name":"Bruchsal","evaNumber":"8000055"},"stops":[{"station":{"evaNumber":"8000244","name":"Mannheim Hbf","coordinates":{"lng":8.469268,"lat":49.479181},"ril100":"RM"},"departure":{"platform":"8","scheduledTime":"2023-10-18T19:37:00.000Z","time":"2023-10-18T19:37:00.000Z","reihung":false}},{"station":{"evaNumber":"8003841","name":"Mannheim ARENA/Maimarkt","coordinates":{"lng":8.515922,"lat":49.45998},"ril100":"RMSM"},"arrival":{"platform":"2","scheduledTime":"2023-10-18T19:41:00.000Z","time":"2023-10-18T19:41:00.000Z","reihung":false},"departure":{"platform":"2","scheduledTime":"2023-10-18T19:41:00.000Z","time":"2023-10-18T19:41:00.000Z","reihung":false}},{"station":{"evaNumber":"8003847","name":"Mannheim-Seckenheim","coordinates":{"lng":8.538098,"lat":49.451413},"ril100":"RMSE"},"arrival":{"platform":"2","scheduledTime":"2023-10-18T19:43:00.000Z","time":"2023-10-18T19:43:00.000Z","reihung":false},"departure":{"platform":"2","scheduledTime":"2023-10-18T19:43:00.000Z","time":"2023-10-18T19:43:00.000Z","reihung":false}},{"station":{"evaNumber":"8003842","name":"Mannheim-Friedrichsfeld Süd","coordinates":{"lng":8.572239,"lat":49.438217},"ril100":"RMFS"},"arrival":{"platform":"2","scheduledTime":"2023-10-18T19:45:00.000Z","time":"2023-10-18T19:45:00.000Z","reihung":false},"departure":{"platform":"2","scheduledTime":"2023-10-18T19:46:00.000Z","time":"2023-10-18T19:46:00.000Z","reihung":false}},{"station":{"evaNumber":"8002687","name":"Heidelberg-Pfaffengrund/Wieblingen","coordinates":{"lng":8.641474,"lat":49.411969},"ril100":"RHBP"},"arrival":{"platform":"2","scheduledTime":"2023-10-18T19:49:00.000Z","time":"2023-10-18T19:49:00.000Z","reihung":false},"departure":{"platform":"2","scheduledTime":"2023-10-18T19:50:00.000Z","time":"2023-10-18T19:50:00.000Z","reihung":false}},{"station":{"evaNumber":"8000156","name":"Heidelberg Hbf","coordinates":{"lng":8.67548,"lat":49.403582},"ril100":"RH"},"arrival":{"platform":"8","scheduledTime":"2023-10-18T19:54:00.000Z","time":"2023-10-18T19:54:00.000Z","reihung":false},"departure":{"platform":"8","scheduledTime":"2023-10-18T19:55:00.000Z","time":"2023-10-18T19:55:00.000Z","reihung":false}},{"station":{"evaNumber":"8002686","name":"Heidelberg-Kirchheim/Rohrbach","coordinates":{"lng":8.675444,"lat":49.379913},"ril100":"RHKM"},"arrival":{"platform":"1","scheduledTime":"2023-10-18T19:58:00.000Z","time":"2023-10-18T19:58:00.000Z","reihung":false},"departure":{"platform":"1","scheduledTime":"2023-10-18T19:58:00.000Z","time":"2023-10-18T19:58:00.000Z","reihung":false}},{"station":{"evaNumber":"8005648","name":"St Ilgen-Sandhausen","coordinates":{"lng":8.668694,"lat":49.341125},"ril100":"RSIG"},"arrival":{"platform":"2","scheduledTime":"2023-10-18T20:01:00.000Z","time":"2023-10-18T20:01:00.000Z","reihung":false},"departure":{"platform":"2","scheduledTime":"2023-10-18T20:02:00.000Z","time":"2023-10-18T20:02:00.000Z","reihung":false}},{"station":{"evaNumber":"8006421","name":"Wiesloch-Walldorf","coordinates":{"lng":8.664217,"lat":49.291028},"ril100":"RWS"},"arrival":{"platform":"2","scheduledTime":"2023-10-18T20:05:00.000Z","time":"2023-10-18T20:05:00.000Z","reihung":false},"departure":{"platform":"2","scheduledTime":"2023-10-18T20:05:00.000Z","time":"2023-10-18T20:05:00.000Z","reihung":false}},{"station":{"evaNumber":"8005181","name":"Rot-Malsch","coordinates":{"lng":8.652216,"lat":49.243367},"ril100":"RRM"},"arrival":{"platform":"1","scheduledTime":"2023-10-18T20:09:00.000Z","time":"2023-10-18T20:09:00.000Z","reihung":false},"departure":{"platform":"1","scheduledTime":"2023-10-18T20:09:00.000Z","time":"2023-10-18T20:09:00.000Z","reihung":false}},{"station":{"evaNumber":"8004032","name":"Bad Schönborn-Kronau","coordinates":{"lng":8.646886,"lat":49.219564},"ril100":"RBSK"},"arrival":{"platform":"2","scheduledTime":"2023-10-18T20:11:00.000Z","time":"2023-10-18T20:11:00.000Z","reihung":false},"departure":{"platform":"2","scheduledTime":"2023-10-18T20:12:00.000Z","time":"2023-10-18T20:12:00.000Z","reihung":false}},{"station":{"evaNumber":"8003533","name":"Bad Schönborn Süd","coordinates":{"lng":8.641924,"lat":49.199994},"ril100":"RBS"},"arrival":{"platform":"2","scheduledTime":"2023-10-18T20:14:00.000Z","time":"2023-10-18T20:14:00.000Z","reihung":false},"departure":{"platform":"2","scheduledTime":"2023-10-18T20:14:00.000Z","time":"2023-10-18T20:14:00.000Z","reihung":false}},{"station":{"evaNumber":"8005933","name":"Stettfeld-Weiher","coordinates":{"lng":8.637159,"lat":49.183975},"ril100":"RSFW"},"arrival":{"platform":"2","scheduledTime":"2023-10-18T20:16:00.000Z","time":"2023-10-18T20:16:00.000Z","reihung":false},"departure":{"platform":"2","scheduledTime":"2023-10-18T20:16:00.000Z","time":"2023-10-18T20:16:00.000Z","reihung":false}},{"station":{"evaNumber":"8005931","name":"Ubstadt-Weiher","coordinates":{"lng":8.624017,"lat":49.167759},"ril100":"RUW"},"arrival":{"platform":"1","scheduledTime":"2023-10-18T20:18:00.000Z","time":"2023-10-18T20:18:00.000Z","reihung":false},"departure":{"platform":"1","scheduledTime":"2023-10-18T20:19:00.000Z","time":"2023-10-18T20:19:00.000Z","reihung":false}},{"station":{"evaNumber":"8000055","name":"Bruchsal","coordinates":{"lng":8.589687,"lat":49.124592},"ril100":"RBR"},"arrival":{"platform":"2b","scheduledTime":"2023-10-18T20:23:00.000Z","time":"2023-10-18T20:23:00.000Z","reihung":false}}],"finalDestination":"Bruchsal","jid":"1|254571|0|80|18102023","messages":[{"type":"A","code":"FB","prio":260,"icoX":5,"txtN":"Fahrradmitnahme begrenzt möglich"},{"type":"A","code":"EH","prio":560,"icoX":3,"txtN":"Fahrzeuggebundene Einstiegshilfe vorhanden"}],"type":"JNY"}],"segmentTypes":["ICE","ICE","S"]},{"checksum":"7377343d_3","cid":"C-5","date":"2023-10-17T22:00:00.000Z","duration":22740000,"changes":3,"isRideable":true,"arrival":{"platform":"2b","scheduledTime":"2023-10-18T20:23:00.000Z","time":"2023-10-18T20:23:00.000Z","reihung":false},"departure":{"platform":"2","scheduledTime":"2023-10-18T14:04:00.000Z","time":"2023-10-18T14:04:00.000Z","reihung":false},"segments":[{"arrival":{"platform":"1","scheduledTime":"2023-10-18T15:45:00.000Z","time":"2023-10-18T15:45:00.000Z","reihung":false},"departure":{"platform":"2","scheduledTime":"2023-10-18T14:04:00.000Z","time":"2023-10-18T14:04:00.000Z","reihung":false},"duration":6060000,"train":{"name":"ICE 1007","line":"29","admin":"80","number":"1007","type":"ICE","operator":{"name":"DB Fernverkehr AG","icoX":1}},"changeDuration":33,"segmentStart":{"name":"Berlin Hbf (tief)","evaNumber":"8098160"},"segmentDestination":{"name":"Erfurt Hbf","evaNumber":"8010101"},"stops":[{"station":{"evaNumber":"8098160","name":"Berlin Hbf (tief)","coordinates":{"lng":13.368892,"lat":52.52585},"ril100":"BL"},"departure":{"platform":"2","scheduledTime":"2023-10-18T14:04:00.000Z","time":"2023-10-18T14:04:00.000Z","reihung":false}},{"station":{"evaNumber":"8011113","name":"Berlin Südkreuz","coordinates":{"lng":13.365863,"lat":52.47623},"ril100":"BPAF"},"arrival":{"platform":"3","scheduledTime":"2023-10-18T14:09:00.000Z","time":"2023-10-18T14:09:00.000Z","reihung":false},"departure":{"platform":"3","scheduledTime":"2023-10-18T14:11:00.000Z","time":"2023-10-18T14:11:00.000Z","reihung":false},"auslastung":{"first":3,"second":2}},{"station":{"evaNumber":"8010159","name":"Halle(Saale)Hbf","coordinates":{"lng":11.98699,"lat":51.477079},"ril100":"LH"},"arrival":{"platform":"6","scheduledTime":"2023-10-18T15:16:00.000Z","time":"2023-10-18T15:16:00.000Z","reihung":false},"departure":{"platform":"6","scheduledTime":"2023-10-18T15:18:00.000Z","time":"2023-10-18T15:18:00.000Z","reihung":false},"auslastung":{"first":3,"second":2}},{"station":{"evaNumber":"8010101","name":"Erfurt Hbf","coordinates":{"lng":11.038502,"lat":50.97255},"ril100":"UE  P"},"arrival":{"platform":"1","scheduledTime":"2023-10-18T15:45:00.000Z","time":"2023-10-18T15:45:00.000Z","reihung":false}}],"finalDestination":"München Hbf","jid":"1|195221|0|80|18102023","auslastung":{"first":3,"second":2},"messages":[{"type":"A","code":"CK","prio":200,"icoX":3,"txtN":"Sicher & kontaktlos ohne Ticketkontrolle reisen mit Komfort Check-in"},{"type":"A","code":"BR","prio":450,"icoX":6,"txtN":"Bordrestaurant"}],"type":"JNY"},{"arrival":{"platform":"9","scheduledTime":"2023-10-18T18:36:00.000Z","time":"2023-10-18T18:36:00.000Z","reihung":false},"departure":{"platform":"2","scheduledTime":"2023-10-18T16:18:00.000Z","time":"2023-10-18T16:18:00.000Z","reihung":false},"duration":8280000,"wings":[{"train":{"name":"ICE 1564","line":"50","admin":"80","number":"1564","type":"ICE","operator":{"name":"DB Fernverkehr AG","icoX":1}},"segmentStart":{"name":"Erfurt Hbf","evaNumber":"8010101"},"segmentDestination":{"name":"Frankfurt(Main)Hbf","evaNumber":"8000105"},"stops":[{"station":{"evaNumber":"8010101","name":"Erfurt Hbf","coordinates":{"lng":11.038502,"lat":50.97255},"ril100":"UE  P"},"departure":{"platform":"2","scheduledTime":"2023-10-18T16:18:00.000Z","time":"2023-10-18T16:18:00.000Z","reihung":false},"auslastung":{"first":2,"second":2}},{"station":{"evaNumber":"8010136","name":"Gotha","coordinates":{"lng":10.712688,"lat":50.939029},"ril100":"UGO"},"arrival":{"platform":"2","scheduledTime":"2023-10-18T16:32:00.000Z","time":"2023-10-18T16:32:00.000Z","reihung":false},"auslastung":{"first":2,"second":2}},{"station":{"evaNumber":"8010097","name":"Eisenach","coordinates":{"lng":10.33212,"lat":50.976928},"ril100":"UEI"},"arrival":{"platform":"5","scheduledTime":"2023-10-18T16:46:00.000Z","time":"2023-10-18T16:46:00.000Z","reihung":false},"auslastung":{"first":2,"second":2}},{"station":{"evaNumber":"8000020","name":"Bad Hersfeld","coordinates":{"lng":9.716611,"lat":50.86992},"ril100":"FBHF"},"arrival":{"platform":"2","scheduledTime":"2023-10-18T17:15:00.000Z","time":"2023-10-18T17:15:00.000Z","reihung":false},"auslastung":{"first":2,"second":2}},{"station":{"evaNumber":"8000115","name":"Fulda","coordinates":{"lng":9.684178,"lat":50.554794},"ril100":"FFU"},"arrival":{"platform":"3","scheduledTime":"2023-10-18T17:41:00.000Z","time":"2023-10-18T17:41:00.000Z","reihung":false},"auslastung":{"first":2,"second":1}},{"station":{"evaNumber":"8000105","name":"Frankfurt(Main)Hbf","coordinates":{"lng":8.663003,"lat":50.106817},"ril100":"FF"},"arrival":{"platform":"9","scheduledTime":"2023-10-18T18:36:00.000Z","time":"2023-10-18T18:36:00.000Z","reihung":false}}],"finalDestination":"Wiesbaden Hbf","jid":"1|198081|0|80|18102023","auslastung":{"first":2,"second":2}}],"train":{"name":"ICE 1554","line":"50","admin":"80","number":"1554","type":"ICE","operator":{"name":"DB Fernverkehr AG","icoX":1}},"changeDuration":14,"segmentStart":{"name":"Erfurt Hbf","evaNumber":"8010101"},"segmentDestination":{"name":"Frankfurt(Main)Hbf","evaNumber":"8000105"},"stops":[{"station":{"evaNumber":"8010101","name":"Erfurt Hbf","coordinates":{"lng":11.038502,"lat":50.97255},"ril100":"UE  P"},"departure":{"platform":"2","scheduledTime":"2023-10-18T16:18:00.000Z","time":"2023-10-18T16:18:00.000Z","reihung":false},"auslastung":{"first":2,"second":2}},{"station":{"evaNumber":"8010136","name":"Gotha","coordinates":{"lng":10.712688,"lat":50.939029},"ril100":"UGO"},"arrival":{"platform":"2","scheduledTime":"2023-10-18T16:32:00.000Z","time":"2023-10-18T16:32:00.000Z","reihung":false},"departure":{"platform":"2","scheduledTime":"2023-10-18T16:33:00.000Z","time":"2023-10-18T16:33:00.000Z","reihung":false},"auslastung":{"first":2,"second":2}},{"station":{"evaNumber":"8010097","name":"Eisenach","coordinates":{"lng":10.33212,"lat":50.976928},"ril100":"UEI"},"arrival":{"platform":"5","scheduledTime":"2023-10-18T16:46:00.000Z","time":"2023-10-18T16:46:00.000Z","reihung":false},"departure":{"platform":"5","scheduledTime":"2023-10-18T16:48:00.000Z","time":"2023-10-18T16:48:00.000Z","reihung":false},"auslastung":{"first":2,"second":2}},{"station":{"evaNumber":"8000020","name":"Bad Hersfeld","coordinates":{"lng":9.716611,"lat":50.86992},"ril100":"FBHF"},"arrival":{"platform":"2","scheduledTime":"2023-10-18T17:15:00.000Z","time":"2023-10-18T17:15:00.000Z","reihung":false},"departure":{"platform":"2","scheduledTime":"2023-10-18T17:16:00.000Z","time":"2023-10-18T17:16:00.000Z","reihung":false},"auslastung":{"first":2,"second":2}},{"station":{"evaNumber":"8000115","name":"Fulda","coordinates":{"lng":9.684178,"lat":50.554794},"ril100":"FFU"},"arrival":{"platform":"3","scheduledTime":"2023-10-18T17:41:00.000Z","time":"2023-10-18T17:41:00.000Z","reihung":false},"departure":{"platform":"3","scheduledTime":"2023-10-18T17:43:00.000Z","time":"2023-10-18T17:43:00.000Z","reihung":false},"auslastung":{"first":2,"second":1}},{"station":{"evaNumber":"8000105","name":"Frankfurt(Main)Hbf","coordinates":{"lng":8.663003,"lat":50.106817},"ril100":"FF"},"arrival":{"platform":"9","scheduledTime":"2023-10-18T18:36:00.000Z","time":"2023-10-18T18:36:00.000Z","reihung":false}}],"finalDestination":"Saarbrücken Hbf","jid":"1|198019|0|80|18102023","auslastung":{"first":2,"second":2},"messages":[{"type":"A","code":"CK","prio":200,"icoX":3,"txtN":"Sicher & kontaktlos ohne Ticketkontrolle reisen mit Komfort Check-in"},{"type":"A","code":"FR","prio":260,"icoX":4,"txtN":"Fahrradmitnahme reservierungspflichtig"},{"type":"A","code":"FB","prio":260,"icoX":5,"txtN":"Fahrradmitnahme begrenzt möglich"},{"type":"A","code":"BR","prio":450,"icoX":6,"txtN":"Bordrestaurant"}],"type":"JNY"},{"arrival":{"platform":"4","scheduledTime":"2023-10-18T19:27:00.000Z","time":"2023-10-18T19:27:00.000Z","reihung":false},"departure":{"platform":"8","scheduledTime":"2023-10-18T18:50:00.000Z","time":"2023-10-18T18:50:00.000Z","reihung":false},"duration":2220000,"train":{"name":"ICE 377","line":"12","admin":"80","number":"377","type":"ICE","operator":{"name":"DB Fernverkehr AG","icoX":1}},"changeDuration":10,"segmentStart":{"name":"Frankfurt(Main)Hbf","evaNumber":"8000105"},"segmentDestination":{"name":"Mannheim Hbf","evaNumber":"8000244"},"stops":[{"station":{"evaNumber":"8000105","name":"Frankfurt(Main)Hbf","coordinates":{"lng":8.663003,"lat":50.106817},"ril100":"FF"},"departure":{"platform":"8","scheduledTime":"2023-10-18T18:50:00.000Z","time":"2023-10-18T18:50:00.000Z","reihung":false},"auslastung":{"first":1,"second":1}},{"station":{"evaNumber":"8000244","name":"Mannheim Hbf","coordinates":{"lng":8.469268,"lat":49.479181},"ril100":"RM"},"arrival":{"platform":"4","scheduledTime":"2023-10-18T19:27:00.000Z","time":"2023-10-18T19:27:00.000Z","reihung":false}}],"finalDestination":"Basel SBB","jid":"1|204594|0|80|18102023","auslastung":{"first":1,"second":1},"messages":[{"type":"A","code":"CK","prio":200,"icoX":3,"txtN":"Sicher & kontaktlos ohne Ticketkontrolle reisen mit Komfort Check-in"},{"type":"A","code":"FR","prio":260,"icoX":4,"txtN":"Fahrradmitnahme reservierungspflichtig"},{"type":"A","code":"FB","prio":260,"icoX":5,"txtN":"Fahrradmitnahme begrenzt möglich"},{"type":"A","code":"BR","prio":450,"icoX":6,"txtN":"Bordrestaurant"},{"type":"A","code":"EH","prio":560,"icoX":3,"txtN":"Fahrzeuggebundene Einstiegshilfe vorhanden"}],"type":"JNY"},{"arrival":{"platform":"2b","scheduledTime":"2023-10-18T20:23:00.000Z","time":"2023-10-18T20:23:00.000Z","reihung":false},"departure":{"platform":"8","scheduledTime":"2023-10-18T19:37:00.000Z","time":"2023-10-18T19:37:00.000Z","reihung":false},"duration":2760000,"train":{"name":"S 3","line":"3","admin":"801539","number":"38479","type":"S","operator":{"name":"DB Regio AG Mitte","icoX":14}},"segmentStart":{"name":"Mannheim Hbf","evaNumber":"8000244"},"segmentDestination":{"name":"Bruchsal","evaNumber":"8000055"},"stops":[{"station":{"evaNumber":"8000244","name":"Mannheim Hbf","coordinates":{"lng":8.469268,"lat":49.479181},"ril100":"RM"},"departure":{"platform":"8","scheduledTime":"2023-10-18T19:37:00.000Z","time":"2023-10-18T19:37:00.000Z","reihung":false}},{"station":{"evaNumber":"8003841","name":"Mannheim ARENA/Maimarkt","coordinates":{"lng":8.515922,"lat":49.45998},"ril100":"RMSM"},"arrival":{"platform":"2","scheduledTime":"2023-10-18T19:41:00.000Z","time":"2023-10-18T19:41:00.000Z","reihung":false},"departure":{"platform":"2","scheduledTime":"2023-10-18T19:41:00.000Z","time":"2023-10-18T19:41:00.000Z","reihung":false}},{"station":{"evaNumber":"8003847","name":"Mannheim-Seckenheim","coordinates":{"lng":8.538098,"lat":49.451413},"ril100":"RMSE"},"arrival":{"platform":"2","scheduledTime":"2023-10-18T19:43:00.000Z","time":"2023-10-18T19:43:00.000Z","reihung":false},"departure":{"platform":"2","scheduledTime":"2023-10-18T19:43:00.000Z","time":"2023-10-18T19:43:00.000Z","reihung":false}},{"station":{"evaNumber":"8003842","name":"Mannheim-Friedrichsfeld Süd","coordinates":{"lng":8.572239,"lat":49.438217},"ril100":"RMFS"},"arrival":{"platform":"2","scheduledTime":"2023-10-18T19:45:00.000Z","time":"2023-10-18T19:45:00.000Z","reihung":false},"departure":{"platform":"2","scheduledTime":"2023-10-18T19:46:00.000Z","time":"2023-10-18T19:46:00.000Z","reihung":false}},{"station":{"evaNumber":"8002687","name":"Heidelberg-Pfaffengrund/Wieblingen","coordinates":{"lng":8.641474,"lat":49.411969},"ril100":"RHBP"},"arrival":{"platform":"2","scheduledTime":"2023-10-18T19:49:00.000Z","time":"2023-10-18T19:49:00.000Z","reihung":false},"departure":{"platform":"2","scheduledTime":"2023-10-18T19:50:00.000Z","time":"2023-10-18T19:50:00.000Z","reihung":false}},{"station":{"evaNumber":"8000156","name":"Heidelberg Hbf","coordinates":{"lng":8.67548,"lat":49.403582},"ril100":"RH"},"arrival":{"platform":"8","scheduledTime":"2023-10-18T19:54:00.000Z","time":"2023-10-18T19:54:00.000Z","reihung":false},"departure":{"platform":"8","scheduledTime":"2023-10-18T19:55:00.000Z","time":"2023-10-18T19:55:00.000Z","reihung":false}},{"station":{"evaNumber":"8002686","name":"Heidelberg-Kirchheim/Rohrbach","coordinates":{"lng":8.675444,"lat":49.379913},"ril100":"RHKM"},"arrival":{"platform":"1","scheduledTime":"2023-10-18T19:58:00.000Z","time":"2023-10-18T19:58:00.000Z","reihung":false},"departure":{"platform":"1","scheduledTime":"2023-10-18T19:58:00.000Z","time":"2023-10-18T19:58:00.000Z","reihung":false}},{"station":{"evaNumber":"8005648","name":"St Ilgen-Sandhausen","coordinates":{"lng":8.668694,"lat":49.341125},"ril100":"RSIG"},"arrival":{"platform":"2","scheduledTime":"2023-10-18T20:01:00.000Z","time":"2023-10-18T20:01:00.000Z","reihung":false},"departure":{"platform":"2","scheduledTime":"2023-10-18T20:02:00.000Z","time":"2023-10-18T20:02:00.000Z","reihung":false}},{"station":{"evaNumber":"8006421","name":"Wiesloch-Walldorf","coordinates":{"lng":8.664217,"lat":49.291028},"ril100":"RWS"},"arrival":{"platform":"2","scheduledTime":"2023-10-18T20:05:00.000Z","time":"2023-10-18T20:05:00.000Z","reihung":false},"departure":{"platform":"2","scheduledTime":"2023-10-18T20:05:00.000Z","time":"2023-10-18T20:05:00.000Z","reihung":false}},{"station":{"evaNumber":"8005181","name":"Rot-Malsch","coordinates":{"lng":8.652216,"lat":49.243367},"ril100":"RRM"},"arrival":{"platform":"1","scheduledTime":"2023-10-18T20:09:00.000Z","time":"2023-10-18T20:09:00.000Z","reihung":false},"departure":{"platform":"1","scheduledTime":"2023-10-18T20:09:00.000Z","time":"2023-10-18T20:09:00.000Z","reihung":false}},{"station":{"evaNumber":"8004032","name":"Bad Schönborn-Kronau","coordinates":{"lng":8.646886,"lat":49.219564},"ril100":"RBSK"},"arrival":{"platform":"2","scheduledTime":"2023-10-18T20:11:00.000Z","time":"2023-10-18T20:11:00.000Z","reihung":false},"departure":{"platform":"2","scheduledTime":"2023-10-18T20:12:00.000Z","time":"2023-10-18T20:12:00.000Z","reihung":false}},{"station":{"evaNumber":"8003533","name":"Bad Schönborn Süd","coordinates":{"lng":8.641924,"lat":49.199994},"ril100":"RBS"},"arrival":{"platform":"2","scheduledTime":"2023-10-18T20:14:00.000Z","time":"2023-10-18T20:14:00.000Z","reihung":false},"departure":{"platform":"2","scheduledTime":"2023-10-18T20:14:00.000Z","time":"2023-10-18T20:14:00.000Z","reihung":false}},{"station":{"evaNumber":"8005933","name":"Stettfeld-Weiher","coordinates":{"lng":8.637159,"lat":49.183975},"ril100":"RSFW"},"arrival":{"platform":"2","scheduledTime":"2023-10-18T20:16:00.000Z","time":"2023-10-18T20:16:00.000Z","reihung":false},"departure":{"platform":"2","scheduledTime":"2023-10-18T20:16:00.000Z","time":"2023-10-18T20:16:00.000Z","reihung":false}},{"station":{"evaNumber":"8005931","name":"Ubstadt-Weiher","coordinates":{"lng":8.624017,"lat":49.167759},"ril100":"RUW"},"arrival":{"platform":"1","scheduledTime":"2023-10-18T20:18:00.000Z","time":"2023-10-18T20:18:00.000Z","reihung":false},"departure":{"platform":"1","scheduledTime":"2023-10-18T20:19:00.000Z","time":"2023-10-18T20:19:00.000Z","reihung":false}},{"station":{"evaNumber":"8000055","name":"Bruchsal","coordinates":{"lng":8.589687,"lat":49.124592},"ril100":"RBR"},"arrival":{"platform":"2b","scheduledTime":"2023-10-18T20:23:00.000Z","time":"2023-10-18T20:23:00.000Z","reihung":false}}],"finalDestination":"Bruchsal","jid":"1|254571|0|80|18102023","messages":[{"type":"A","code":"FB","prio":260,"icoX":5,"txtN":"Fahrradmitnahme begrenzt möglich"},{"type":"A","code":"EH","prio":560,"icoX":3,"txtN":"Fahrzeuggebundene Einstiegshilfe vorhanden"}],"type":"JNY"}],"segmentTypes":["ICE","ICE","ICE","S"]}]}