{"context":{"earlier":"3|OB|MT#14#451625#451625#452050#452050#0#0#565#451576#1#0#27#0#0#-2147483648#1#2|PDH#bbe10b32f5270e429a5a473728022d1b|RD#18102023|RT#141653|US#0|RS#INIT","later":"3|OF|MT#14#451684#451684#452129#452129#0#0#565#451655#7#0#19#0#0#-2147483648#1#2|PDH#bbe10b32f5270e429a5a473728022d1b|RD#18102023|RT#141653|US#0|RS#INIT"},"routes":[{"checksum":"1a0a3f3a_3","cid":"C-0","date":"2023-10-17T22:00:00.000Z","duration":25500000,"changes":1,"isRideable":true,"arrival":{"platform":"1","scheduledTime":"2023-10-18T20:10:00.000Z","time":"2023-10-18T20:10:00.000Z","reihung":false},"departure":{"platform":"2","scheduledTime":"2023-10-18T13:05:00.000Z","time":"2023-10-18T13:05:00.000Z","reihung":false},"segments":[{"arrival":{"platform":"6","scheduledTime":"2023-10-18T16:59:00.000Z","time":"2023-10-18T16:59:00.000Z","reihung":false},"departure":{"platform":"2","scheduledTime":"2023-10-18T13:05:00.000Z","time":"2023-10-18T13:05:00.000Z","reihung":false},"duration":14040000,"train":{"name":"ICE 771","line":"22","admin":"80","number":"771","type":"ICE","operator":{"name":"DB Fernverkehr AG","icoX":1}},"changeDuration":26,"segmentStart":{"name":"Berlin Hbf (tief)","evaNumber":"8098160"},"segmentDestination":{"name":"Frankfurt(Main)Hbf","evaNumber":"8000105"},"stops":[{"station":{"evaNumber":"8098160","name":"Berlin Hbf (tief)","coordinates":{"lng":13.368892,"lat":52.52585},"ril100":"BL"},"departure":{"platform":"2","scheduledTime":"2023-10-18T13:05:00.000Z","time":"2023-10-18T13:05:00.000Z","reihung":false}},{"station":{"evaNumber":"8011113","name":"Berlin Südkreuz","coordinates":{"lng":13.365863,"lat":52.47623},"ril100":"BPAF"},"departure":{"platform":"3","scheduledTime":"2023-10-18T13:11:00.000Z","time":"2023-10-18T13:11:00.000Z","reihung":false},"auslastung":{"first":3,"second":2}},{"station":{"evaNumber":"8010159","name":"Halle(Saale)Hbf","coordinates":{"lng":11.98699,"lat":51.477079},"ril100":"LH"},"arrival":{"platform":"6","scheduledTime":"2023-10-18T14:13:00.000Z","time":"2023-10-18T14:13:00.000Z","reihung":false},"departure":{"platform":"6","scheduledTime":"2023-10-18T14:18:00.000Z","time":"2023-10-18T14:18:00.000Z","reihung":false},"auslastung":{"first":3,"second":2}},{"station":{"evaNumber":"8010101","name":"Erfurt Hbf","coordinates":{"lng":11.038502,"lat":50.97255},"ril100":"UE  P"},"arrival":{"platform":"1","scheduledTime":"2023-10-18T14:48:00.000Z","time":"2023-10-18T14:48:00.000Z","reihung":false},"departure":{"platform":"1","scheduledTime":"2023-10-18T14:50:00.000Z","time":"2023-10-18T14:50:00.000Z","reihung":false},"auslastung":{"first":3,"second":2}},{"station":{"evaNumber":"8000105","name":"Frankfurt(Main)Hbf","coordinates":{"lng":8.663003,"lat":50.106817},"ril100":"FF"},"arrival":{"platform":"6","scheduledTime":"2023-10-18T16:59:00.000Z","time":"2023-10-18T16:59:00.000Z","reihung":false}}],"finalDestination":"Stuttgart Hbf","jid":"1|209870|0|80|18102023","auslastung":{"first":3,"second":2},"messages":[{"type":"A","code":"CK","prio":200,"icoX":3,"txtN":"Sicher & kontaktlos ohne Ticketkontrolle reisen mit Komfort Check-in"},{"type":"A","code":"FR","prio":260,"icoX":4,"txtN":"Fahrradmitnahme reservierungspflichtig"},{"type":"A","code":"FB","prio":260,"icoX":5,"txtN":"Fahrradmitnahme begrenzt möglich"},{"type":"A","code":"BR","prio":450,"icoX":6,"txtN":"Bordrestaurant"},{"type":"A","code":"EH","prio":560,"icoX":3,"txtN":"Fahrzeuggebundene Einstiegshilfe vorhanden"},{"type":"A","code":"IT","prio":100,"icoX":7,"txtN":"ICE Sprinter"}],"type":"JNY"},{"arrival":{"platform":"1","scheduledTime":"2023-10-18T20:10:00.000Z","time":"2023-10-18T20:10:00.000Z","reihung":false},"departure":{"platform":"20","scheduledTime":"2023-10-18T17:25:00.000Z","time":"2023-10-18T17:25:00.000Z","reihung":false},"duration":9900000,"train":{"name":"RE 3","line":"3","admin":"V6RE","number":"29532","type":"RE","operator":{"name":"vlexx","icoX":9}},"segmentStart":{"name":"Frankfurt(Main)Hbf","evaNumber":"8000105"},"segmentDestination":{"name":"Saarbrücken Hbf","evaNumber":"8000323"},"stops":[{"station":{"evaNumber":"8000105","name":"Frankfurt(Main)Hbf","coordinates":{"lng":8.663003,"lat":50.106817},"ril100":"FF"},"departure":{"platform":"20","scheduledTime":"2023-10-18T17:25:00.000Z","time":"2023-10-18T17:25:00.000Z","reihung":false}},{"station":{"evaNumber":"8070004","name":"Frankfurt(M) Flughafen Regionalbf","coordinates":{"lng":8.571349,"lat":50.051389},"ril100":"FFLU"},"arrival":{"platform":"Regio 3","scheduledTime":"2023-10-18T17:36:00.000Z","time":"2023-10-18T17:36:00.000Z","reihung":false},"departure":{"platform":"Regio 3","scheduledTime":"2023-10-18T17:37:00.000Z","time":"2023-10-18T17:37:00.000Z","reihung":false}},{"station":{"evaNumber":"8005220","name":"Rüsselsheim","coordinates":{"lng":8.413571,"lat":49.991638},"ril100":"FRUE"},"arrival":{"platform":"1","scheduledTime":"2023-10-18T17:47:00.000Z","time":"2023-10-18T17:47:00.000Z","reihung":false},"departure":{"platform":"1","scheduledTime":"2023-10-18T17:48:00.000Z","time":"2023-10-18T17:48:00.000Z","reihung":false}},{"station":{"evaNumber":"8000240","name":"Mainz Hbf","coordinates":{"lng":8.258453,"lat":50.001239},"ril100":"FMZ"},"arrival":{"platform":"3a","scheduledTime":"2023-10-18T17:58:00.000Z","time":"2023-10-18T17:58:00.000Z","reihung":false},"departure":{"platform":"3a","scheduledTime":"2023-10-18T18:00:00.000Z","time":"2023-10-18T18:00:00.000Z","reihung":false}},{"station":{"evaNumber":"8003075","name":"Ingelheim","coordinates":{"lng":8.053265,"lat":49.976051},"ril100":"FIL"},"arrival":{"platform":"2","scheduledTime":"2023-10-18T18:11:00.000Z","time":"2023-10-18T18:11:00.000Z","reihung":false},"departure":{"platform":"2","scheduledTime":"2023-10-18T18:11:00.000Z","time":"2023-10-18T18:11:00.000Z","reihung":false}},{"station":{"evaNumber":"8000021","name":"Bad Kreuznach","coordinates":{"lng":7.866469,"lat":49.842408},"ril100":"SBKN"},"arrival":{"platform":"3","scheduledTime":"2023-10-18T18:25:00.000Z","time":"2023-10-18T18:25:00.000Z","reihung":false},"departure":{"platform":"3","scheduledTime":"2023-10-18T18:26:00.000Z","time":"2023-10-18T18:26:00.000Z","reihung":false}},{"station":{"evaNumber":"8000726","name":"Bad Münster a Stein","coordinates":{"lng":7.847394,"lat":49.813598},"ril100":"SBMS"},"arrival":{"platform":"4","scheduledTime":"2023-10-18T18:30:00.000Z","time":"2023-10-18T18:30:00.000Z","reihung":false},"departure":{"platform":"4","scheduledTime":"2023-10-18T18:31:00.000Z","time":"2023-10-18T18:31:00.000Z","reihung":false}},{"station":{"evaNumber":"8005678","name":"Staudernheim","coordinates":{"lng":7.693103,"lat":49.78058}},"arrival":{"platform":"2","scheduledTime":"2023-10-18T18:42:00.000Z","time":"2023-10-18T18:42:00.000Z","reihung":false},"departure":{"platform":"2","scheduledTime":"2023-10-18T18:43:00.000Z","time":"2023-10-18T18:43:00.000Z","reihung":false}},{"station":{"evaNumber":"8005583","name":"Bad Sobernheim","coordinates":{"lng":7.650045,"lat":49.782909},"ril100":"SSOB"},"arrival":{"platform":"1","scheduledTime":"2023-10-18T18:46:00.000Z","time":"2023-10-18T18:46:00.000Z","reihung":false},"departure":{"platform":"1","scheduledTime":"2023-10-18T18:46:00.000Z","time":"2023-10-18T18:46:00.000Z","reihung":false}},{"station":{"evaNumber":"8003295","name":"Kirn","coordinates":{"lng":7.464058,"lat":49.785605},"ril100":"SKR"},"arrival":{"platform":"1","scheduledTime":"2023-10-18T18:55:00.000Z","time":"2023-10-18T18:55:00.000Z","reihung":false},"departure":{"platform":"1","scheduledTime":"2023-10-18T18:56:00.000Z","time":"2023-10-18T18:56:00.000Z","reihung":false}},{"station":{"evaNumber":"8003040","name":"Idar-Oberstein","coordinates":{"lng":7.321211,"lat":49.699417}},"arrival":{"platform":"1","scheduledTime":"2023-10-18T19:06:00.000Z","time":"2023-10-18T19:06:00.000Z","reihung":false},"departure":{"platform":"1","scheduledTime":"2023-10-18T19:07:00.000Z","time":"2023-10-18T19:07:00.000Z","reihung":false}},{"station":{"evaNumber":"8004253","name":"Neubrücke(Nahe)","coordinates":{"lng":7.172942,"lat":49.606235}},"arrival":{"platform":"1","scheduledTime":"2023-10-18T19:21:00.000Z","time":"2023-10-18T19:21:00.000Z","reihung":false},"departure":{"platform":"1","scheduledTime":"2023-10-18T19:21:00.000Z","time":"2023-10-18T19:21:00.000Z","reihung":false}},{"station":{"evaNumber":"8000154","name":"Türkismühle","coordinates":{"lng":7.1148,"lat":49.580337},"ril100":"STM"},"arrival":{"platform":"2","scheduledTime":"2023-10-18T19:26:00.000Z","time":"2023-10-18T19:26:00.000Z","reihung":false},"departure":{"platform":"2","scheduledTime":"2023-10-18T19:27:00.000Z","time":"2023-10-18T19:27:00.000Z","reihung":false}},{"station":{"evaNumber":"8005659","name":"St Wendel","coordinates":{"lng":7.165347,"lat":49.467055},"ril100":"SSWD"},"arrival":{"platform":"2","scheduledTime":"2023-10-18T19:37:00.000Z","time":"2023-10-18T19:37:00.000Z","reihung":false},"departure":{"platform":"2","scheduledTime":"2023-10-18T19:38:00.000Z","time":"2023-10-18T19:38:00.000Z","reihung":false}},{"station":{"evaNumber":"8000875","name":"Ottweiler(Saar)","coordinates":{"lng":7.166192,"lat":49.402332},"ril100":"SOTW"},"arrival":{"platform":"1","scheduledTime":"2023-10-18T19:44:00.000Z","time":"2023-10-18T19:44:00.000Z","reihung":false},"departure":{"platform":"1","scheduledTime":"2023-10-18T19:44:00.000Z","time":"2023-10-18T19:44:00.000Z","reihung":false}},{"station":{"evaNumber":"8000272","name":"Neunkirchen(Saar)Hbf","coordinates":{"lng":7.176565,"lat":49.353422},"ril100":"SNK"},"arrival":{"platform":"3","scheduledTime":"2023-10-18T19:49:00.000Z","time":"2023-10-18T19:49:00.000Z","reihung":false},"departure":{"platform":"3","scheduledTime":"2023-10-18T19:51:00.000Z","time":"2023-10-18T19:51:00.000Z","reihung":false}},{"station":{"evaNumber":"8000323","name":"Saarbrücken Hbf","coordinates":{"lng":6.991055,"lat":49.241371},"ril100":"SSH"},"arrival":{"platform":"1","scheduledTime":"2023-10-18T20:10:00.000Z","time":"2023-10-18T20:10:00.000Z","reihung":false}}],"finalDestination":"Saarbrücken Hbf","jid":"1|1262854|0|80|18102023","messages":[{"type":"A","code":"FB","prio":260,"icoX":5,"txtN":"Fahrradmitnahme begrenzt möglich"},{"type":"A","code":"RG","prio":560,"icoX":3,"txtN":"Behindertengerechtes Fahrzeug"},{"type":"A","code":"LS","prio":605,"icoX":3,"txtN":"Laptop-Steckdosen"},{"type":"A","code":"KL","prio":610,"icoX":3,"txtN":"Klimaanlage"}],"type":"JNY"}],"segmentTypes":["ICE","RE"]},{"checksum":"71bef26c_3","cid":"C-1","date":"2023-10-17T22:00:00.000Z","duration":27840000,"changes":1,"isRideable":true,"arrival":{"platform":"14","scheduledTime":"2023-10-18T21:10:00.000Z","time":"2023-10-18T21:10:00.000Z","reihung":false},"departure":{"platform":"2","scheduledTime":"2023-10-18T13:26:00.000Z","time":"2023-10-18T13:26:00.000Z","reihung":false},"segments":[{"arrival":{"platform":"6","scheduledTime":"2023-10-18T17:52:00.000Z","time":"2023-10-18T17:52:00.000Z","reihung":false},"departure":{"platform":"2","scheduledTime":"2023-10-18T13:26:00.000Z","time":"2023-10-18T13:26:00.000Z","reihung":false},"duration":15960000,"train":{"name":"ICE 1171","line":"20","admin":"80","number":"1171","type":"ICE","operator":{"name":"DB Fernverkehr AG","icoX":1}},"changeDuration":16,"segmentStart":{"name":"Berlin Hbf (tief)","evaNumber":"8098160"},"segmentDestination":{"name":"Frankfurt(Main)Hbf","evaNumber":"8000105"},"stops":[{"station":{"evaNumber":"8098160","name":"Berlin Hbf (tief)","coordinates":{"lng":13.368892,"lat":52.52585},"ril100":"BL"},"departure":{"platform":"2","scheduledTime":"2023-10-18T13:26:00.000Z","time":"2023-10-18T13:26:00.000Z","reihung":false}},{"station":{"evaNumber":"8011113","name":"Berlin Südkreuz","coordinates":{"lng":13.365863,"lat":52.47623},"ril100":"BPAF"},"departure":{"platform":"3","scheduledTime":"2023-10-18T13:33:00.000Z","time":"2023-10-18T13:33:00.000Z","reihung":false},"auslastung":{"first":2,"second":2}},{"station":{"evaNumber":"8010222","name":"Lutherstadt Wittenberg Hbf","coordinates":{"lng":12.661999,"lat":51.867579},"ril100":"LW"},"arrival":{"platform":"2","scheduledTime":"2023-10-18T14:09:00.000Z","time":"2023-10-18T14:09:00.000Z","reihung":false},"departure":{"platform":"2","scheduledTime":"2023-10-18T14:10:00.000Z","time":"2023-10-18T14:10:00.000Z","reihung":false},"auslastung":{"first":2,"second":2}},{"station":{"evaNumber":"8010205","name":"Leipzig Hbf","coordinates":{"lng":12.381167,"lat":51.345081},"ril100":"LL"},"arrival":{"platform":"11","scheduledTime":"2023-10-18T14:42:00.000Z","time":"2023-10-18T14:42:00.000Z","reihung":false},"departure":{"platform":"11","scheduledTime":"2023-10-18T14:48:00.000Z","time":"2023-10-18T14:48:00.000Z","reihung":false},"auslastung":{"first":2,"second":2}},{"station":{"evaNumber":"8010101","name":"Erfurt Hbf","coordinates":{"lng":11.038502,"lat":50.97255},"ril100":"UE  P"},"arrival":{"platform":"2","scheduledTime":"2023-10-18T15:28:00.000Z","time":"2023-10-18T15:28:00.000Z","reihung":false},"departure":{"platform":"2","scheduledTime":"2023-10-18T15:30:00.000Z","time":"2023-10-18T15:30:00.000Z","reihung":false},"auslastung":{"first":2,"second":2}},{"station":{"evaNumber":"8010097","name":"Eisenach","coordinates":{"lng":10.33212,"lat":50.976928},"ril100":"UEI"},"arrival":{"platform":"5","scheduledTime":"2023-10-18T15:54:00.000Z","time":"2023-10-18T15:54:00.000Z","reihung":false},"departure":{"platform":"5","scheduledTime":"2023-10-18T15:55:00.000Z","time":"2023-10-18T15:55:00.000Z","reihung":false},"auslastung":{"first":2,"second":2}},{"station":{"evaNumber":"8000115","name":"Fulda","coordinates":{"lng":9.684178,"lat":50.554794},"ril100":"FFU"},"arrival":{"platform":"3","scheduledTime":"2023-10-18T16:48:00.000Z","time":"2023-10-18T16:48:00.000Z","reihung":false},"departure":{"platform":"3","scheduledTime":"2023-10-18T16:50:00.000Z","time":"2023-10-18T16:50:00.000Z","reihung":false},"auslastung":{"first":2,"second":1}},{"station":{"evaNumber":"8000150","name":"Hanau Hbf","coordinates":{"lng":8.92921,"lat":50.120903},"ril100":"FH"},"arrival":{"platform":"6","scheduledTime":"2023-10-18T17:32:00.000Z","time":"2023-10-18T17:32:00.000Z","reihung":false},"departure":{"platform":"6","scheduledTime":"2023-10-18T17:34:00.000Z","time":"2023-10-18T17:34:00.000Z","reihung":false},"auslastung":{"first":2,"second":1}},{"station":{"evaNumber":"8000105","name":"Frankfurt(Main)Hbf","coordinates":{"lng":8.663003,"lat":50.106817},"ril100":"FF"},"arrival":{"platform":"6","scheduledTime":"2023-10-18T17:52:00.000Z","time":"2023-10-18T17:52:00.000Z","reihung":false}}],"finalDestination":"Basel SBB","jid":"1|197128|0|80|18102023","auslastung":{"first":2,"second":2},"messages":[{"type":"A","code":"CK","prio":200,"icoX":3,"txtN":"Sicher & kontaktlos ohne Ticketkontrolle reisen mit Komfort Check-in"},{"type":"A","code":"FR","prio":260,"icoX":4,"txtN":"Fahrradmitnahme reservierungspflichtig"},{"type":"A","code":"FB","prio":260,"icoX":5,"txtN":"Fahrradmitnahme begrenzt möglich"},{"type":"A","code":"BR","prio":450,"icoX":6,"txtN":"Bordrestaurant"},{"type":"A","code":"EH","prio":560,"icoX":3,"txtN":"Fahrzeuggebundene Einstiegshilfe vorhanden"}],"type":"JNY"},{"arrival":{"platform":"14","scheduledTime":"2023-10-18T21:10:00.000Z","time":"2023-10-18T21:10:00.000Z","reihung":false},"departure":{"platform":"20","scheduledTime":"2023-10-18T18:08:00.000Z","time":"2023-10-18T18:08:00.000Z","reihung":false},"duration":10920000,"train":{"name":"RE 3","line":"3","admin":"V6RE","number":"29534","type":"RE","operator":{"name":"vlexx","icoX":9}},"segmentStart":{"name":"Frankfurt(Main)Hbf","evaNumber":"8000105"},"segmentDestination":{"name":"Saarbrücken Hbf","evaNumber":"8000323"},"stops":[{"station":{"evaNumber":"8000105","name":"Frankfurt(Main)Hbf","coordinates":{"lng":8.663003,"lat":50.106817},"ril100":"FF"},"departure":{"platform":"20","scheduledTime":"2023-10-18T18:08:00.000Z","time":"2023-10-18T18:08:00.000Z","reihung":false}},{"station":{"evaNumber":"8002050","name":"Frankfurt-Niederrad","coordinates":{"lng":8.637393,"lat":50.080865},"ril100":"FNI"},"arrival":{"platform":"1","scheduledTime":"2023-10-18T18:14:00.000Z","time":"2023-10-18T18:14:00.000Z","reihung":false},"departure":{"platform":"1","scheduledTime":"2023-10-18T18:15:00.000Z","time":"2023-10-18T18:15:00.000Z","reihung":false}},{"station":{"evaNumber":"8070004","name":"Frankfurt(M) Flughafen Regionalbf","coordinates":{"lng":8.571349,"lat":50.051389},"ril100":"FFLU"},"arrival":{"platform":"Regio 2","scheduledTime":"2023-10-18T18:22:00.000Z","time":"2023-10-18T18:22:00.000Z","reihung":false},"departure":{"platform":"Regio 2","scheduledTime":"2023-10-18T18:23:00.000Z","time":"2023-10-18T18:23:00.000Z","reihung":false}},{"station":{"evaNumber":"8005220","name":"Rüsselsheim","coordinates":{"lng":8.413571,"lat":49.991638},"ril100":"FRUE"},"arrival":{"platform":"1","scheduledTime":"2023-10-18T18:33:00.000Z","time":"2023-10-18T18:33:00.000Z","reihung":false},"departure":{"platform":"1","scheduledTime":"2023-10-18T18:33:00.000Z","time":"2023-10-18T18:33:00.000Z","reihung":false}},{"station":{"evaNumber":"8000241","name":"Mainz-Bischofsheim","coordinates":{"lng":8.358062,"lat":49.992941},"ril100":"FMB"},"arrival":{"platform":"4","scheduledTime":"2023-10-18T18:38:00.000Z","time":"2023-10-18T18:38:00.000Z","reihung":false},"departure":{"platform":"4","scheduledTime":"2023-10-18T18:39:00.000Z","time":"2023-10-18T18:39:00.000Z","reihung":false}},{"station":{"evaNumber":"8003816","name":"Mainz Römisches Theater","coordinates":{"lng":8.277393,"lat":49.993517},"ril100":"FMS"},"arrival":{"platform":"2","scheduledTime":"2023-10-18T18:44:00.000Z","time":"2023-10-18T18:44:00.000Z","reihung":false},"departure":{"platform":"2","scheduledTime":"2023-10-18T18:45:00.000Z","time":"2023-10-18T18:45:00.000Z","reihung":false}},{"station":{"evaNumber":"8000240","name":"Mainz Hbf","coordinates":{"lng":8.258453,"lat":50.001239},"ril100":"FMZ"},"arrival":{"platform":"3a","scheduledTime":"2023-10-18T18:49:00.000Z","time":"2023-10-18T18:49:00.000Z","reihung":false},"departure":{"platform":"3a","scheduledTime":"2023-10-18T18:53:00.000Z","time":"2023-10-18T18:53:00.000Z","reihung":false}},{"station":{"evaNumber":"8003075","name":"Ingelheim","coordinates":{"lng":8.053265,"lat":49.976051},"ril100":"FIL"},"arrival":{"platform":"2","scheduledTime":"2023-10-18T19:04:00.000Z","time":"2023-10-18T19:04:00.000Z","reihung":false},"departure":{"platform":"2","scheduledTime":"2023-10-18T19:05:00.000Z","time":"2023-10-18T19:05:00.000Z","reihung":false}},{"station":{"evaNumber":"8000021","name":"Bad Kreuznach","coordinates":{"lng":7.866469,"lat":49.842408},"ril100":"SBKN"},"arrival":{"platform":"3","scheduledTime":"2023-10-18T19:20:00.000Z","time":"2023-10-18T19:20:00.000Z","reihung":false},"departure":{"platform":"3","scheduledTime":"2023-10-18T19:22:00.000Z","time":"2023-10-18T19:22:00.000Z","reihung":false}},{"station":{"evaNumber":"8000726","name":"Bad Münster a Stein","coordinates":{"lng":7.847394,"lat":49.813598},"ril100":"SBMS"},"arrival":{"platform":"4","scheduledTime":"2023-10-18T19:26:00.000Z","time":"2023-10-18T19:26:00.000Z","reihung":false},"departure":{"platform":"4","scheduledTime":"2023-10-18T19:27:00.000Z","time":"2023-10-18T19:27:00.000Z","reihung":false}},{"station":{"evaNumber":"8005678","name":"Staudernheim","coordinates":{"lng":7.693103,"lat":49.78058}},"arrival":{"platform":"2","scheduledTime":"2023-10-18T19:38:00.000Z","time":"2023-10-18T19:38:00.000Z","reihung":false},"departure":{"platform":"2","scheduledTime":"2023-10-18T19:39:00.000Z","time":"2023-10-18T19:39:00.000Z","reihung":false}},{"station":{"evaNumber":"8005583","name":"Bad Sobernheim","coordinates":{"lng":7.650045,"lat":49.782909},"ril100":"SSOB"},"arrival":{"platform":"1","scheduledTime":"2023-10-18T19:42:00.000Z","time":"2023-10-18T19:42:00.000Z","reihung":false},"departure":{"platform":"1","scheduledTime":"2023-10-18T19:43:00.000Z","time":"2023-10-18T19:43:00.000Z","reihung":false}},{"station":{"evaNumber":"8003295","name":"Kirn","coordinates":{"lng":7.464058,"lat":49.785605},"ril100":"SKR"},"arrival":{"platform":"1","scheduledTime":"2023-10-18T19:52:00.000Z","time":"2023-10-18T19:52:00.000Z","reihung":false},"departure":{"platform":"1","scheduledTime":"2023-10-18T19:53:00.000Z","time":"2023-10-18T19:53:00.000Z","reihung":false}},{"station":{"evaNumber":"8003040","name":"Idar-Oberstein","coordinates":{"lng":7.321211,"lat":49.699417}},"arrival":{"platform":"1","scheduledTime":"2023-10-18T20:03:00.000Z","time":"2023-10-18T20:03:00.000Z","reihung":false},"departure":{"platform":"1","scheduledTime":"2023-10-18T20:05:00.000Z","time":"2023-10-18T20:05:00.000Z","reihung":false}},{"station":{"evaNumber":"8004253","name":"Neubrücke(Nahe)","coordinates":{"lng":7.172942,"lat":49.606235}},"arrival":{"platform":"1","scheduledTime":"2023-10-18T20:19:00.000Z","time":"2023-10-18T20:19:00.000Z","reihung":false},"departure":{"platform":"1","scheduledTime":"2023-10-18T20:19:00.000Z","time":"2023-10-18T20:19:00.000Z","reihung":false}},{"station":{"evaNumber":"8000154","name":"Türkismühle","coordinates":{"lng":7.1148,"lat":49.580337},"ril100":"STM"},"arrival":{"platform":"2","scheduledTime":"2023-10-18T20:24:00.000Z","time":"2023-10-18T20:24:00.000Z","reihung":false},"departure":{"platform":"2","scheduledTime":"2023-10-18T20:25:00.000Z","time":"2023-10-18T20:25:00.000Z","reihung":false}},{"station":{"evaNumber":"8005659","name":"St Wendel","coordinates":{"lng":7.165347,"lat":49.467055},"ril100":"SSWD"},"arrival":{"platform":"2","scheduledTime":"2023-10-18T20:35:00.000Z","time":"2023-10-18T20:35:00.000Z","reihung":false},"departure":{"platform":"2","scheduledTime":"2023-10-18T20:36:00.000Z","time":"2023-10-18T20:36:00.000Z","reihung":false}},{"station":{"evaNumber":"8000875","name":"Ottweiler(Saar)","coordinates":{"lng":7.166192,"lat":49.402332},"ril100":"SOTW"},"arrival":{"platform":"1","scheduledTime":"2023-10-18T20:42:00.000Z","time":"2023-10-18T20:42:00.000Z","reihung":false},"departure":{"platform":"1","scheduledTime":"2023-10-18T20:42:00.000Z","time":"2023-10-18T20:42:00.000Z","reihung":false}},{"station":{"evaNumber":"8000272","name":"Neunkirchen(Saar)Hbf","coordinates":{"lng":7.176565,"lat":49.353422},"ril100":"SNK"},"arrival":{"platform":"3","scheduledTime":"2023-10-18T20:47:00.000Z","time":"2023-10-18T20:47:00.000Z","reihung":false},"departure":{"platform":"3","scheduledTime":"2023-10-18T20:51:00.000Z","time":"2023-10-18T20:51:00.000Z","reihung":false}},{"station":{"evaNumber":"8000323","name":"Saarbrücken Hbf","coordinates":{"lng":6.991055,"lat":49.241371},"ril100":"SSH"},"arrival":{"platform":"14","scheduledTime":"2023-10-18T21:10:00.000Z","time":"2023-10-18T21:10:00.000Z","reihung":false}}],"finalDestination":"Saarbrücken Hbf","jid":"1|1262875|0|80|18102023","messages":[{"type":"A","code":"FB","prio":260,"icoX":5,"txtN":"Fahrradmitnahme begrenzt möglich"},{"type":"A","code":"RG","prio":560,"icoX":3,"txtN":"Behindertengerechtes Fahrzeug"},{"type":"A","code":"LS","prio":605,"icoX":3,"txtN":"Laptop-Steckdosen"},{"type":"A","code":"KL","prio":610,"icoX":3,"txtN":"Klimaanlage"}],"type":"JNY"}],"segmentTypes":["ICE","RE"]},{"checksum":"8b990986_3","cid":"C-2","date":"2023-10-17T22:00:00.000Z","duration":24540000,"changes":2,"isRideable":true,"arrival":{"scheduledTime":"2023-10-18T20:16:00.000Z","time":"2023-10-18T20:16:00.000Z","reihung":false},"departure":{"platform":"4","scheduledTime":"2023-10-18T13:27:00.000Z","time":"2023-10-18T13:27:00.000Z","reihung":false},"segments":[{"arrival":{"platform":"3","scheduledTime":"2023-10-18T16:41:00.000Z","time":"2023-10-18T16:41:00.000Z","reihung":false},"departure":{"platform":"4","scheduledTime":"2023-10-18T13:27:00.000Z","time":"2023-10-18T13:27:00.000Z","reihung":false},"duration":11640000,"train":{"name":"FLX 1247","line":"10","admin":"FLX10","number":"1247","type":"FLX","operator":{"name":"FlixTrain","icoX":14}},"changeDuration":7,"segmentStart":{"name":"Berlin Hbf (tief)","evaNumber":"8098160"},"segmentDestination":{"name":"Fulda","evaNumber":"8000115"},"stops":[{"station":{"evaNumber":"8098160","name":"Berlin Hbf (tief)","coordinates":{"lng":13.368892,"lat":52.52585},"ril100":"BL"},"departure":{"platform":"4","scheduledTime":"2023-10-18T13:27:00.000Z","time":"2023-10-18T13:27:00.000Z","reihung":false}},{"station":{"evaNumber":"8010159","name":"Halle(Saale)Hbf","coordinates":{"lng":11.98699,"lat":51.477079},"ril100":"LH"},"arrival":{"platform":"6","scheduledTime":"2023-10-18T14:42:00.000Z","time":"2023-10-18T14:42:00.000Z","reihung":false},"departure":{"platform":"6","scheduledTime":"2023-10-18T14:44:00.000Z","time":"2023-10-18T14:44:00.000Z","reihung":false}},{"station":{"evaNumber":"8010101","name":"Erfurt Hbf","coordinates":{"lng":11.038502,"lat":50.97255},"ril100":"UE  P"},"arrival":{"platform":"1","scheduledTime":"2023-10-18T15:18:00.000Z","time":"2023-10-18T15:18:00.000Z","reihung":false},"departure":{"platform":"1","scheduledTime":"2023-10-18T15:20:00.000Z","time":"2023-10-18T15:20:00.000Z","reihung":false}},{"station":{"evaNumber":"8010136","name":"Gotha","coordinates":{"lng":10.712688,"lat":50.939029},"ril100":"UGO"},"arrival":{"platform":"2","scheduledTime":"2023-10-18T15:38:00.000Z","time":"2023-10-18T15:38:00.000Z","reihung":false},"departure":{"platform":"2","scheduledTime":"2023-10-18T15:39:00.000Z","time":"2023-10-18T15:39:00.000Z","reihung":false}},{"station":{"evaNumber":"8000115","name":"Fulda","coordinates":{"lng":9.684178,"lat":50.554794},"ril100":"FFU"},"arrival":{"platform":"3","scheduledTime":"2023-10-18T16:41:00.000Z","time":"2023-10-18T16:41:00.000Z","reihung":false}}],"finalDestination":"Stuttgart Hbf","jid":"1|286358|0|80|18102023","messages":[{"type":"A","code":"DU","prio":110,"icoX":3,"txtN":"DB-Fahrscheine gelten nicht"},{"type":"A","code":"RP","prio":185,"icoX":15,"txtN":"Reservierungspflicht"},{"type":"A","code":"9N","prio":186,"icoX":3,"txtN":"Deutschland-Ticket nicht gültig"},{"type":"A","code":"FN","prio":555,"icoX":3,"txtN":"Einstieg nur mit gültigem FlixTrain- oder FlixBus Ticket"},{"type":"A","code":"FX","prio":560,"icoX":3,"txtN":"Tickets unter www.flixtrain.de"},{"type":"A","code":"FG","prio":603,"icoX":3,"txtN":"Sitzplatzgarantie"},{"type":"A","code":"LS","prio":605,"icoX":3,"txtN":"Laptop-Steckdosen"},{"type":"A","code":"WV","prio":710,"icoX":3,"txtN":"WLAN verfügbar"}],"type":"JNY"},{"arrival":{"platform":"5","scheduledTime":"2023-10-18T18:27:00.000Z","time":"2023-10-18T18:27:00.000Z","reihung":false},"departure":{"platform":"4","scheduledTime":"2023-10-18T16:48:00.000Z","time":"2023-10-18T16:48:00.000Z","reihung":false},"duration":5940000,"train":{"name":"ICE 693","line":"11","admin":"80","number":"693","type":"ICE","operator":{"name":"DB Fernverkehr AG","icoX":1}},"changeDuration":22,"segmentStart":{"name":"Fulda","evaNumber":"8000115"},"segmentDestination":{"name":"Mannheim Hbf","evaNumber":"8000244"},"stops":[{"station":{"evaNumber":"8000115","name":"Fulda","coordinates":{"lng":9.684178,"lat":50.554794},"ril100":"FFU"},"departure":{"platform":"4","scheduledTime":"2023-10-18T16:48:00.000Z","time":"2023-10-18T16:48:00.000Z","reihung":false},"auslastung":{"first":2,"second":1},"messages":[{"type":"A","code":"text.journeystop.product.or.direction.changes.stop.message","icoX":3,"txtN":"Verkehrt ab hier als ICE 693 in Richtung Ulm Hbf"}]},{"station":{"evaNumber":"8000105","name":"Frankfurt(Main)Hbf","coordinates":{"lng":8.663003,"lat":50.106817},"ril100":"FF"},"arrival":{"platform":"9","scheduledTime":"2023-10-18T17:44:00.000Z","time":"2023-10-18T17:44:00.000Z","reihung":false},"departure":{"platform":"9","scheduledTime":"2023-10-18T17:50:00.000Z","time":"2023-10-18T17:50:00.000Z","reihung":false},"auslastung":{"first":2,"second":1},"messages":[{"type":"A","code":"text.journeystop.product.or.direction.changes.stop.message","icoX":3,"txtN":"Verkehrt ab hier als ICE 693 in Richtung München Hbf"}]},{"station":{"evaNumber":"8000244","name":"Mannheim Hbf","coordinates":{"lng":8.469268,"lat":49.479181},"ril100":"RM"},"arrival":{"platform":"5","scheduledTime":"2023-10-18T18:27:00.000Z","time":"2023-10-18T18:27:00.000Z","reihung":false}}],"finalDestination":"Ulm Hbf","jid":"1|208720|0|80|18102023","auslastung":{"first":2,"second":1},"messages":[{"type":"A","code":"CK","prio":200,"icoX":3,"txtN":"Sicher & kontaktlos ohne Ticketkontrolle reisen mit Komfort Check-in"},{"type":"A","code":"FR","prio":260,"icoX":4,"txtN":"Fahrradmitnahme reservierungspflichtig"},{"type":"A","code":"FB","prio":260,"icoX":5,"txtN":"Fahrradmitnahme begrenzt möglich"},{"type":"A","code":"BR","prio":450,"icoX":6,"txtN":"Bordrestaurant"},{"type":"A","code":"EH","prio":560,"icoX":3,"txtN":"Fahrzeuggebundene Einstiegshilfe vorhanden"},{"type":"A","code":"text.journeystop.product.or.direction.changes.journey.message","icoX":3,"txtN":"Verkehrt ab Frankfurt(Main)Hbf als ICE 693 in Richtung München Hbf"}],"type":"JNY"},{"arrival":{"scheduledTime":"2023-10-18T20:16:00.000Z","time":"2023-10-18T20:16:00.000Z","reihung":false},"departure":{"platform":"2","scheduledTime":"2023-10-18T18:49:00.000Z","time":"2023-10-18T18:49:00.000Z","reihung":false},"duration":5220000,"train":{"name":"IC 2516","line":"62","admin":"80","number":"2516","type":"IC","operator":{"name":"DB Fernverkehr AG","icoX":1}},"segmentStart":{"name":"Mannheim Hbf","evaNumber":"8000244"},"segmentDestination":{"name":"Saarbrücken Hbf","evaNumber":"8000323"},"stops":[{"station":{"evaNumber":"8000244","name":"Mannheim Hbf","coordinates":{"lng":8.469268,"lat":49.479181},"ril100":"RM"},"departure":{"platform":"2","scheduledTime":"2023-10-18T18:49:00.000Z","time":"2023-10-18T18:49:00.000Z","reihung":false},"auslastung":{"first":1,"second":1}},{"station":{"evaNumber":"8000275","name":"Neustadt(Weinstr)Hbf","coordinates":{"lng":8.14038,"lat":49.349601},"ril100":"RN"},"arrival":{"platform":"2","scheduledTime":"2023-10-18T19:09:00.000Z","time":"2023-10-18T19:09:00.000Z","reihung":false},"departure":{"platform":"2","scheduledTime":"2023-10-18T19:11:00.000Z","time":"2023-10-18T19:11:00.000Z","reihung":false},"auslastung":{"first":1,"second":1}},{"station":{"evaNumber":"8000189","name":"Kaiserslautern Hbf","coordinates":{"lng":7.768765,"lat":49.436042},"ril100":"SKL"},"arrival":{"platform":"3","scheduledTime":"2023-10-18T19:32:00.000Z","time":"2023-10-18T19:32:00.000Z","reihung":false},"departure":{"platform":"3","scheduledTime":"2023-10-18T19:34:00.000Z","time":"2023-10-18T19:34:00.000Z","reihung":false},"auslastung":{"first":1,"second":1}},{"station":{"evaNumber":"8000176","name":"Homburg(Saar)Hbf","coordinates":{"lng":7.336978,"lat":49.328117},"ril100":"SHO"},"arrival":{"platform":"5","scheduledTime":"2023-10-18T19:53:00.000Z","time":"2023-10-18T19:53:00.000Z","reihung":false},"departure":{"platform":"5","scheduledTime":"2023-10-18T19:55:00.000Z","time":"2023-10-18T19:55:00.000Z","reihung":false},"auslastung":{"first":1,"second":1}},{"station":{"evaNumber":"8000323","name":"Saarbrücken Hbf","coordinates":{"lng":6.991055,"lat":49.241371},"ril100":"SSH"},"arrival":{"platform":"5","scheduledTime":"2023-10-18T20:16:00.000Z","time":"2023-10-18T20:16:00.000Z","reihung":false}}],"finalDestination":"Saarbrücken Hbf","jid":"1|203713|0|80|18102023","auslastung":{"first":1,"second":1},"messages":[{"type":"A","code":"EZ","prio":400,"icoX":3,"txtN":"Ersatzzug"}],"type":"JNY"}],"segmentTypes":["FLX","ICE","IC"]},{"checksum":"9ab493ac_3","cid":"C-3","date":"2023-10-17T22:00:00.000Z","duration":27780000,"changes":2,"isRideable":true,"arrival":{"platform":"14","scheduledTime":"2023-10-18T21:10:00.000Z","time":"2023-10-18T21:10:00.000Z","reihung":false},"departure":{"platform":"4","scheduledTime":"2023-10-18T13:27:00.000Z","time":"2023-10-18T13:27:00.000Z","reihung":false},"segments":[{"arrival":{"platform":"9","scheduledTime":"2023-10-18T17:32:00.000Z","time":"2023-10-18T17:32:00.000Z","reihung":false},"departure":{"platform":"4","scheduledTime":"2023-10-18T13:27:00.000Z","time":"2023-10-18T13:27:00.000Z","reihung":false},"duration":14700000,"train":{"name":"FLX 1247","line":"10","admin":"FLX10","number":"1247","type":"FLX","operator":{"name":"FlixTrain","icoX":14}},"changeDuration":26,"segmentStart":{"name":"Berlin Hbf (tief)","evaNumber":"8098160"},"segmentDestination":{"name":"Frankfurt(Main)Süd","evaNumber":"8002041"},"stops":[{"station":{"evaNumber":"8098160","name":"Berlin Hbf (tief)","coordinates":{"lng":13.368892,"lat":52.52585},"ril100":"BL"},"departure":{"platform":"4","scheduledTime":"2023-10-18T13:27:00.000Z","time":"2023-10-18T13:27:00.000Z","reihung":false}},{"station":{"evaNumber":"8010159","name":"Halle(Saale)Hbf","coordinates":{"lng":11.98699,"lat":51.477079},"ril100":"LH"},"arrival":{"platform":"6","scheduledTime":"2023-10-18T14:42:00.000Z","time":"2023-10-18T14:42:00.000Z","reihung":false},"departure":{"platform":"6","scheduledTime":"2023-10-18T14:44:00.000Z","time":"2023-10-18T14:44:00.000Z","reihung":false}},{"station":{"evaNumber":"8010101","name":"Erfurt Hbf","coordinates":{"lng":11.038502,"lat":50.97255},"ril100":"UE  P"},"arrival":{"platform":"1","scheduledTime":"2023-10-18T15:18:00.000Z","time":"2023-10-18T15:18:00.000Z","reihung":false},"departure":{"platform":"1","scheduledTime":"2023-10-18T15:20:00.000Z","time":"2023-10-18T15:20:00.000Z","reihung":false}},{"station":{"evaNumber":"8010136","name":"Gotha","coordinates":{"lng":10.712688,"lat":50.939029},"ril100":"UGO"},"arrival":{"platform":"2","scheduledTime":"2023-10-18T15:38:00.000Z","time":"2023-10-18T15:38:00.000Z","reihung":false},"departure":{"platform":"2","scheduledTime":"2023-10-18T15:39:00.000Z","time":"2023-10-18T15:39:00.000Z","reihung":false}},{"station":{"evaNumber":"8000115","name":"Fulda","coordinates":{"lng":9.684178,"lat":50.554794},"ril100":"FFU"},"arrival":{"platform":"3","scheduledTime":"2023-10-18T16:41:00.000Z","time":"2023-10-18T16:41:00.000Z","reihung":false},"departure":{"platform":"3","scheduledTime":"2023-10-18T16:43:00.000Z","time":"2023-10-18T16:43:00.000Z","reihung":false}},{"station":{"evaNumber":"8002041","name":"Frankfurt(Main)Süd","coordinates":{"lng":8.686187,"lat":50.099302},"ril100":"FFS"},"arrival":{"platform":"9","scheduledTime":"2023-10-18T17:32:00.000Z","time":"2023-10-18T17:32:00.000Z","reihung":false}}],"finalDestination":"Stuttgart Hbf","jid":"1|286358|0|80|18102023","messages":[{"type":"A","code":"DU","prio":110,"icoX":3,"txtN":"DB-Fahrscheine gelten nicht"},{"type":"A","code":"RP","prio":185,"icoX":15,"txtN":"Reservierungspflicht"},{"type":"A","code":"9N","prio":186,"icoX":3,"txtN":"Deutschland-Ticket nicht gültig"},{"type":"A","code":"FN","prio":555,"icoX":3,"txtN":"Einstieg nur mit gültigem FlixTrain- oder FlixBus Ticket"},{"type":"A","code":"FX","prio":560,"icoX":3,"txtN":"Tickets unter www.flixtrain.de"},{"type":"A","code":"FG","prio":603,"icoX":3,"txtN":"Sitzplatzgarantie"},{"type":"A","code":"LS","prio":605,"icoX":3,"txtN":"Laptop-Steckdosen"},{"type":"A","code":"WV","prio":710,"icoX":3,"txtN":"WLAN verfügbar"}],"type":"JNY"},{"arrival":{"platform":"1","scheduledTime":"2023-10-18T18:21:00.000Z","time":"2023-10-18T18:21:00.000Z","reihung":false},"departure":{"platform":"7","scheduledTime":"2023-10-18T17:58:00.000Z","time":"2023-10-18T17:58:00.000Z","reihung":false},"duration":1380000,"train":{"name":"HLB RB58","line":"RB58","admin":"K4RB","number":"28664","type":"HLB","operator":{"name":"HLB Hessenbahn GmbH","icoX":19}},"changeDuration":12,"segmentStart":{"name":"Frankfurt(Main)Süd","evaNumber":"8002041"},"segmentDestination":{"name":"Rüsselsheim","evaNumber":"8005220"},"stops":[{"station":{"evaNumber":"8002041","name":"Frankfurt(Main)Süd","coordinates":{"lng":8.686187,"lat":50.099302},"ril100":"FFS"},"departure":{"platform":"7","scheduledTime":"2023-10-18T17:58:00.000Z","time":"2023-10-18T17:58:00.000Z","reihung":false}},{"station":{"evaNumber":"8070003","name":"Frankfurt(M) Flughafen Fernbf","coordinates":{"lng":8.569776,"lat":50.052926},"ril100":"FFLF"},"arrival":{"platform":"Fern 7","scheduledTime":"2023-10-18T18:13:00.000Z","time":"2023-10-18T18:13:00.000Z","reihung":false},"departure":{"platform":"Fern 7","scheduledTime":"2023-10-18T18:14:00.000Z","time":"2023-10-18T18:14:00.000Z","reihung":false}},{"station":{"evaNumber":"8005220","name":"Rüsselsheim","coordinates":{"lng":8.413571,"lat":49.991638},"ril100":"FRUE"},"arrival":{"platform":"1","scheduledTime":"2023-10-18T18:21:00.000Z","time":"2023-10-18T18:21:00.000Z","reihung":false}}],"finalDestination":"Rüsselsheim Opelwerk","jid":"1|293172|0|80|18102023","messages":[{"type":"A","code":"FB","prio":260,"icoX":5,"txtN":"Fahrradmitnahme begrenzt möglich"}],"type":"JNY"},{"arrival":{"platform":"14","scheduledTime":"2023-10-18T21:10:00.000Z","time":"2023-10-18T21:10:00.000Z","reihung":false},"departure":{"platform":"1","scheduledTime":"2023-10-18T18:33:00.000Z","time":"2023-10-18T18:33:00.000Z","reihung":false},"duration":9420000,"train":{"name":"RE 3","line":"3","admin":"V6RE","number":"29534","type":"RE","operator":{"name":"vlexx","icoX":9}},"segmentStart":{"name":"Rüsselsheim","evaNumber":"8005220"},"segmentDestination":{"name":"Saarbrücken Hbf","evaNumber":"8000323"},"stops":[{"station":{"evaNumber":"8005220","name":"Rüsselsheim","coordinates":{"lng":8.413571,"lat":49.991638},"ril100":"FRUE"},"departure":{"platform":"1","scheduledTime":"2023-10-18T18:33:00.000Z","time":"2023-10-18T18:33:00.000Z","reihung":false}},{"station":{"evaNumber":"8000241","name":"Mainz-Bischofsheim","coordinates":{"lng":8.358062,"lat":49.992941},"ril100":"FMB"},"arrival":{"platform":"4","scheduledTime":"2023-10-18T18:38:00.000Z","time":"2023-10-18T18:38:00.000Z","reihung":false},"departure":{"platform":"4","scheduledTime":"2023-10-18T18:39:00.000Z","time":"2023-10-18T18:39:00.000Z","reihung":false}},{"station":{"evaNumber":"8003816","name":"Mainz Römisches Theater","coordinates":{"lng":8.277393,"lat":49.993517},"ril100":"FMS"},"arrival":{"platform":"2","scheduledTime":"2023-10-18T18:44:00.000Z","time":"2023-10-18T18:44:00.000Z","reihung":false},"departure":{"platform":"2","scheduledTime":"2023-10-18T18:45:00.000Z","time":"2023-10-18T18:45:00.000Z","reihung":false}},{"station":{"evaNumber":"8000240","name":"Mainz Hbf","coordinates":{"lng":8.258453,"lat":50.001239},"ril100":"FMZ"},"arrival":{"platform":"3a","scheduledTime":"2023-10-18T18:49:00.000Z","time":"2023-10-18T18:49:00.000Z","reihung":false},"departure":{"platform":"3a","scheduledTime":"2023-10-18T18:53:00.000Z","time":"2023-10-18T18:53:00.000Z","reihung":false}},{"station":{"evaNumber":"8003075","name":"Ingelheim","coordinates":{"lng":8.053265,"lat":49.976051},"ril100":"FIL"},"arrival":{"platform":"2","scheduledTime":"2023-10-18T19:04:00.000Z","time":"2023-10-18T19:04:00.000Z","reihung":false},"departure":{"platform":"2","scheduledTime":"2023-10-18T19:05:00.000Z","time":"2023-10-18T19:05:00.000Z","reihung":false}},{"station":{"evaNumber":"8000021","name":"Bad Kreuznach","coordinates":{"lng":7.866469,"lat":49.842408},"ril100":"SBKN"},"arrival":{"platform":"3","scheduledTime":"2023-10-18T19:20:00.000Z","time":"2023-10-18T19:20:00.000Z","reihung":false},"departure":{"platform":"3","scheduledTime":"2023-10-18T19:22:00.000Z","time":"2023-10-18T19:22:00.000Z","reihung":false}},{"station":{"evaNumber":"8000726","name":"Bad Münster a Stein","coordinates":{"lng":7.847394,"lat":49.813598},"ril100":"SBMS"},"arrival":{"platform":"4","scheduledTime":"2023-10-18T19:26:00.000Z","time":"2023-10-18T19:26:00.000Z","reihung":false},"departure":{"platform":"4","scheduledTime":"2023-10-18T19:27:00.000Z","time":"2023-10-18T19:27:00.000Z","reihung":false}},{"station":{"evaNumber":"8005678","name":"Staudernheim","coordinates":{"lng":7.693103,"lat":49.78058}},"arrival":{"platform":"2","scheduledTime":"2023-10-18T19:38:00.000Z","time":"2023-10-18T19:38:00.000Z","reihung":false},"departure":{"platform":"2","scheduledTime":"2023-10-18T19:39:00.000Z","time":"2023-10-18T19:39:00.000Z","reihung":false}},{"station":{"evaNumber":"8005583","name":"Bad Sobernheim","coordinates":{"lng":7.650045,"lat":49.782909},"ril100":"SSOB"},"arrival":{"platform":"1","scheduledTime":"2023-10-18T19:42:00.000Z","time":"2023-10-18T19:42:00.000Z","reihung":false},"departure":{"platform":"1","scheduledTime":"2023-10-18T19:43:00.000Z","time":"2023-10-18T19:43:00.000Z","reihung":false}},{"station":{"evaNumber":"8003295","name":"Kirn","coordinates":{"lng":7.464058,"lat":49.785605},"ril100":"SKR"},"arrival":{"platform":"1","scheduledTime":"2023-10-18T19:52:00.000Z","time":"2023-10-18T19:52:00.000Z","reihung":false},"departure":{"platform":"1","scheduledTime":"2023-10-18T19:53:00.000Z","time":"2023-10-18T19:53:00.000Z","reihung":false}},{"station":{"evaNumber":"8003040","name":"Idar-Oberstein","coordinates":{"lng":7.321211,"lat":49.699417}},"arrival":{"platform":"1","scheduledTime":"2023-10-18T20:03:00.000Z","time":"2023-10-18T20:03:00.000Z","reihung":false},"departure":{"platform":"1","scheduledTime":"2023-10-18T20:05:00.000Z","time":"2023-10-18T20:05:00.000Z","reihung":false}},{"station":{"evaNumber":"8004253","name":"Neubrücke(Nahe)","coordinates":{"lng":7.172942,"lat":49.606235}},"arrival":{"platform":"1","scheduledTime":"2023-10-18T20:19:00.000Z","time":"2023-10-18T20:19:00.000Z","reihung":false},"departure":{"platform":"1","scheduledTime":"2023-10-18T20:19:00.000Z","time":"2023-10-18T20:19:00.000Z","reihung":false}},{"station":{"evaNumber":"8000154","name":"Türkismühle","coordinates":{"lng":7.1148,"lat":49.580337},"ril100":"STM"},"arrival":{"platform":"2","scheduledTime":"2023-10-18T20:24:00.000Z","time":"2023-10-18T20:24:00.000Z","reihung":false},"departure":{"platform":"2","scheduledTime":"2023-10-18T20:25:00.000Z","time":"2023-10-18T20:25:00.000Z","reihung":false}},{"station":{"evaNumber":"8005659","name":"St Wendel","coordinates":{"lng":7.165347,"lat":49.467055},"ril100":"SSWD"},"arrival":{"platform":"2","scheduledTime":"2023-10-18T20:35:00.000Z","time":"2023-10-18T20:35:00.000Z","reihung":false},"departure":{"platform":"2","scheduledTime":"2023-10-18T20:36:00.000Z","time":"2023-10-18T20:36:00.000Z","reihung":false}},{"station":{"evaNumber":"8000875","name":"Ottweiler(Saar)","coordinates":{"lng":7.166192,"lat":49.402332},"ril100":"SOTW"},"arrival":{"platform":"1","scheduledTime":"2023-10-18T20:42:00.000Z","time":"2023-10-18T20:42:00.000Z","reihung":false},"departure":{"platform":"1","scheduledTime":"2023-10-18T20:42:00.000Z","time":"2023-10-18T20:42:00.000Z","reihung":false}},{"station":{"evaNumber":"8000272","name":"Neunkirchen(Saar)Hbf","coordinates":{"lng":7.176565,"lat":49.353422},"ril100":"SNK"},"arrival":{"platform":"3","scheduledTime":"2023-10-18T20:47:00.000Z","time":"2023-10-18T20:47:00.000Z","reihung":false},"departure":{"platform":"3","scheduledTime":"2023-10-18T20:51:00.000Z","time":"2023-10-18T20:51:00.000Z","reihung":false}},{"station":{"evaNumber":"8000323","name":"Saarbrücken Hbf","coordinates":{"lng":6.991055,"lat":49.241371},"ril100":"SSH"},"arrival":{"platform":"14","scheduledTime":"2023-10-18T21:10:00.000Z","time":"2023-10-18T21:10:00.000Z","reihung":false}}],"finalDestination":"Saarbrücken Hbf","jid":"1|1262875|0|80|18102023","messages":[{"type":"A","code":"FB","prio":260,"icoX":5,"txtN":"Fahrradmitnahme begrenzt möglich"},{"type":"A","code":"RG","prio":560,"icoX":3,"txtN":"Behindertengerechtes Fahrzeug"},{"type":"A","code":"LS","prio":605,"icoX":3,"txtN":"Laptop-Steckdosen"},{"type":"A","code":"KL","prio":610,"icoX":3,"txtN":"Klimaanlage"}],"type":"JNY"}],"segmentTypes":["FLX","HLB","RE"]},{"checksum":"39983d6f_3","cid":"C-4","date":"2023-10-17T22:00:00.000Z","duration":27360000,"changes":2,"isRideable":true,"arrival":{"platform":"14","scheduledTime":"2023-10-18T21:10:00.000Z","time":"2023-10-18T21:10:00.000Z","reihung":false},"departure":{"platform":"1","scheduledTime":"2023-10-18T13:34:00.000Z","time":"2023-10-18T13:34:00.000Z","reihung":false},"segments":[{"arrival":{"platform":"1","scheduledTime":"2023-10-18T15:24:00.000Z","time":"2023-10-18T15:24:00.000Z","reihung":false},"departure":{"platform":"1","scheduledTime":"2023-10-18T13:34:00.000Z","time":"2023-10-18T13:34:00.000Z","reihung":false},"duration":6600000,"train":{"name":"ICE 709","line":"18","admin":"80","number":"709","type":"ICE","operator":{"name":"DB Fernverkehr AG","icoX":1}},"changeDuration":6,"segmentStart":{"name":"Berlin Hbf (tief)","evaNumber":"8098160"},"segmentDestination":{"name":"Erfurt Hbf","evaNumber":"8010101"},"stops":[{"station":{"evaNumber":"8098160","name":"Berlin Hbf (tief)","coordinates":{"lng":13.368892,"lat":52.52585},"ril100":"BL"},"departure":{"platform":"1","scheduledTime":"2023-10-18T13:34:00.000Z","time":"2023-10-18T13:34:00.000Z","reihung":false}},{"station":{"evaNumber":"8011113","name":"Berlin Südkreuz","coordinates":{"lng":13.365863,"lat":52.47623},"ril100":"BPAF"},"arrival":{"platform":"3","scheduledTime":"2023-10-18T13:39:00.000Z","time":"2023-10-18T13:39:00.000Z","reihung":false},"departure":{"platform":"3","scheduledTime":"2023-10-18T13:41:00.000Z","time":"2023-10-18T13:41:00.000Z","reihung":false},"auslastung":{"first":1,"second":1}},{"station":{"evaNumber":"8010050","name":"Bitterfeld","coordinates":{"lng":12.316966,"lat":51.622911},"ril100":"LBT"},"arrival":{"platform":"3","scheduledTime":"2023-10-18T14:32:00.000Z","time":"2023-10-18T14:32:00.000Z","reihung":false},"departure":{"platform":"3","scheduledTime":"2023-10-18T14:33:00.000Z","time":"2023-10-18T14:33:00.000Z","reihung":false},"auslastung":{"first":1,"second":1}},{"station":{"evaNumber":"8010159","name":"Halle(Saale)Hbf","coordinates":{"lng":11.98699,"lat":51.477079},"ril100":"LH"},"arrival":{"platform":"8","scheduledTime":"2023-10-18T14:51:00.000Z","time":"2023-10-18T14:51:00.000Z","reihung":false},"departure":{"platform":"8","scheduledTime":"2023-10-18T14:53:00.000Z","time":"2023-10-18T14:53:00.000Z","reihung":false},"auslastung":{"first":1,"second":1}},{"station":{"evaNumber":"8010101","name":"Erfurt Hbf","coordinates":{"lng":11.038502,"lat":50.97255},"ril100":"UE  P"},"arrival":{"platform":"1","scheduledTime":"2023-10-18T15:24:00.000Z","time":"2023-10-18T15:24:00.000Z","reihung":false}}],"finalDestination":"München Hbf","jid":"1|209234|0|80|18102023","auslastung":{"first":1,"second":1},"messages":[{"type":"A","code":"CK","prio":200,"icoX":3,"txtN":"Sicher & kontaktlos ohne Ticketkontrolle reisen mit Komfort Check-in"},{"type":"A","code":"FR","prio":260,"icoX":4,"txtN":"Fahrradmitnahme reservierungspflichtig"},{"type":"A","code":"FB","prio":260,"icoX":5,"txtN":"Fahrradmitnahme begrenzt möglich"},{"type":"A","code":"BR","prio":450,"icoX":6,"txtN":"Bordrestaurant"},{"type":"A","code":"EH","prio":560,"icoX":3,"txtN":"Fahrzeuggebundene Einstiegshilfe vorhanden"}],"type":"JNY"},{"arrival":{"platform":"6","scheduledTime":"2023-10-18T17:52:00.000Z","time":"2023-10-18T17:52:00.000Z","reihung":false},"departure":{"platform":"2","scheduledTime":"2023-10-18T15:30:00.000Z","time":"2023-10-18T15:30:00.000Z","reihung":false},"duration":8520000,"train":{"name":"ICE 1171","line":"20","admin":"80","number":"1171","type":"ICE","operator":{"name":"DB Fernverkehr AG","icoX":1}},"changeDuration":16,"segmentStart":{"name":"Erfurt Hbf","evaNumber":"8010101"},"segmentDestination":{"name":"Frankfurt(Main)Hbf","evaNumber":"8000105"},"stops":[{"station":{"evaNumber":"8010101","name":"Erfurt Hbf","coordinates":{"lng":11.038502,"lat":50.97255},"ril100":"UE  P"},"departure":{"platform":"2","scheduledTime":"2023-10-18T15:30:00.000Z","time":"2023-10-18T15:30:00.000Z","reihung":false},"auslastung":{"first":2,"second":2}},{"station":{"evaNumber":"8010097","name":"Eisenach","coordinates":{"lng":10.33212,"lat":50.976928},"ril100":"UEI"},"arrival":{"platform":"5","scheduledTime":"2023-10-18T15:54:00.000Z","time":"2023-10-18T15:54:00.000Z","reihung":false},"departure":{"platform":"5","scheduledTime":"2023-10-18T15:55:00.000Z","time":"2023-10-18T15:55:00.000Z","reihung":false},"auslastung":{"first":2,"second":2}},{"station":{"evaNumber":"8000115","name":"Fulda","coordinates":{"lng":9.684178,"lat":50.554794},"ril100":"FFU"},"arrival":{"platform":"3","scheduledTime":"2023-10-18T16:48:00.000Z","time":"2023-10-18T16:48:00.000Z","reihung":false},"departure":{"platform":"3","scheduledTime":"2023-10-18T16:50:00.000Z","time":"2023-10-18T16:50:00.000Z","reihung":false},"auslastung":{"first":2,"second":1}},{"station":{"evaNumber":"8000150","name":"Hanau Hbf","coordinates":{"lng":8.92921,"lat":50.120903},"ril100":"FH"},"arrival":{"platform":"6","scheduledTime":"2023-10-18T17:32:00.000Z","time":"2023-10-18T17:32:00.000Z","reihung":false},"departure":{"platform":"6","scheduledTime":"2023-10-18T17:34:00.000Z","time":"2023-10-18T17:34:00.000Z","reihung":false},"auslastung":{"first":2,"second":1}},{"station":{"evaNumber":"8000105","name":"Frankfurt(Main)Hbf","coordinates":{"lng":8.663003,"lat":50.106817},"ril100":"FF"},"arrival":{"platform":"6","scheduledTime":"2023-10-18T17:52:00.000Z","time":"2023-10-18T17:52:00.000Z","reihung":false}}],"finalDestination":"Basel SBB","jid":"1|197128|0|80|18102023","auslastung":{"first":2,"second":2},"messages":[{"type":"A","code":"CK","prio":200,"icoX":3,"txtN":"Sicher & kontaktlos ohne Ticketkontrolle reisen mit Komfort Check-in"},{"type":"A","code":"FR","prio":260,"icoX":4,"txtN":"Fahrradmitnahme reservierungspflichtig"},{"type":"A","code":"FB","prio":260,"icoX":5,"txtN":"Fahrradmitnahme begrenzt möglich"},{"type":"A","code":"BR","prio":450,"icoX":6,"txtN":"Bordrestaurant"},{"type":"A","code":"EH","prio":560,"icoX":3,"txtN":"Fahrzeuggebundene Einstiegshilfe vorhanden"}],"type":"JNY"},{"arrival":{"platform":"14","scheduledTime":"2023-10-18T21:10:00.000Z","time":"2023-10-18T21:10:00.000Z","reihung":false},"departure":{"platform":"20","scheduledTime":"2023-10-18T18:08:00.000Z","time":"2023-10-18T18:08:00.000Z","reihung":false},"duration":10920000,"train":{"name":"RE 3","line":"3","admin":"V6RE","number":"29534","type":"RE","operator":{"name":"vlexx","icoX":9}},"segmentStart":{"name":"Frankfurt(Main)Hbf","evaNumber":"8000105"},"segmentDestination":{"name":"Saarbrücken Hbf","evaNumber":"8000323"},"stops":[{"station":{"evaNumber":"8000105","name":"Frankfurt(Main)Hbf","coordinates":{"lng":8.663003,"lat":50.106817},"ril100":"FF"},"departure":{"platform":"20","scheduledTime":"2023-10-18T18:08:00.000Z","time":"2023-10-18T18:08:00.000Z","reihung":false}},{"station":{"evaNumber":"8002050","name":"Frankfurt-Niederrad","coordinates":{"lng":8.637393,"lat":50.080865},"ril100":"FNI"},"arrival":{"platform":"1","scheduledTime":"2023-10-18T18:14:00.000Z","time":"2023-10-18T18:14:00.000Z","reihung":false},"departure":{"platform":"1","scheduledTime":"2023-10-18T18:15:00.000Z","time":"2023-10-18T18:15:00.000Z","reihung":false}},{"station":{"evaNumber":"8070004","name":"Frankfurt(M) Flughafen Regionalbf","coordinates":{"lng":8.571349,"lat":50.051389},"ril100":"FFLU"},"arrival":{"platform":"Regio 2","scheduledTime":"2023-10-18T18:22:00.000Z","time":"2023-10-18T18:22:00.000Z","reihung":false},"departure":{"platform":"Regio 2","scheduledTime":"2023-10-18T18:23:00.000Z","time":"2023-10-18T18:23:00.000Z","reihung":false}},{"station":{"evaNumber":"8005220","name":"Rüsselsheim","coordinates":{"lng":8.413571,"lat":49.991638},"ril100":"FRUE"},"arrival":{"platform":"1","scheduledTime":"2023-10-18T18:33:00.000Z","time":"2023-10-18T18:33:00.000Z","reihung":false},"departure":{"platform":"1","scheduledTime":"2023-10-18T18:33:00.000Z","time":"2023-10-18T18:33:00.000Z","reihung":false}},{"station":{"evaNumber":"8000241","name":"Mainz-Bischofsheim","coordinates":{"lng":8.358062,"lat":49.992941},"ril100":"FMB"},"arrival":{"platform":"4","scheduledTime":"2023-10-18T18:38:00.000Z","time":"2023-10-18T18:38:00.000Z","reihung":false},"departure":{"platform":"4","scheduledTime":"2023-10-18T18:39:00.000Z","time":"2023-10-18T18:39:00.000Z","reihung":false}},{"station":{"evaNumber":"8003816","name":"Mainz Römisches Theater","coordinates":{"lng":8.277393,"lat":49.993517},"ril100":"FMS"},"arrival":{"platform":"2","scheduledTime":"2023-10-18T18:44:00.000Z","time":"2023-10-18T18:44:00.000Z","reihung":false},"departure":{"platform":"2","scheduledTime":"2023-10-18T18:45:00.000Z","time":"2023-10-18T18:45:00.000Z","reihung":false}},{"station":{"evaNumber":"8000240","name":"Mainz Hbf","coordinates":{"lng":8.258453,"lat":50.001239},"ril100":"FMZ"},"arrival":{"platform":"3a","scheduledTime":"2023-10-18T18:49:00.000Z","time":"2023-10-18T18:49:00.000Z","reihung":false},"departure":{"platform":"3a","scheduledTime":"2023-10-18T18:53:00.000Z","time":"2023-10-18T18:53:00.000Z","reihung":false}},{"station":{"evaNumber":"8003075","name":"Ingelheim","coordinates":{"lng":8.053265,"lat":49.976051},"ril100":"FIL"},"arrival":{"platform":"2","scheduledTime":"2023-10-18T19:04:00.000Z","time":"2023-10-18T19:04:00.000Z","reihung":false},"departure":{"platform":"2","scheduledTime":"2023-10-18T19:05:00.000Z","time":"2023-10-18T19:05:00.000Z","reihung":false}},{"station":{"evaNumber":"8000021","name":"Bad Kreuznach","coordinates":{"lng":7.866469,"lat":49.842408},"ril100":"SBKN"},"arrival":{"platform":"3","scheduledTime":"2023-10-18T19:20:00.000Z","time":"2023-10-18T19:20:00.000Z","reihung":false},"departure":{"platform":"3","scheduledTime":"2023-10-18T19:22:00.000Z","time":"2023-10-18T19:22:00.000Z","reihung":false}},{"station":{"evaNumber":"8000726","name":"Bad Münster a Stein","coordinates":{"lng":7.847394,"lat":49.813598},"ril100":"SBMS"},"arrival":{"platform":"4","scheduledTime":"2023-10-18T19:26:00.000Z","time":"2023-10-18T19:26:00.000Z","reihung":false},"departure":{"platform":"4","scheduledTime":"2023-10-18T19:27:00.000Z","time":"2023-10-18T19:27:00.000Z","reihung":false}},{"station":{"evaNumber":"8005678","name":"Staudernheim","coordinates":{"lng":7.693103,"lat":49.78058}},"arrival":{"platform":"2","scheduledTime":"2023-10-18T19:38:00.000Z","time":"2023-10-18T19:38:00.000Z","reihung":false},"departure":{"platform":"2","scheduledTime":"2023-10-18T19:39:00.000Z","time":"2023-10-18T19:39:00.000Z","reihung":false}},{"station":{"evaNumber":"8005583","name":"Bad Sobernheim","coordinates":{"lng":7.650045,"lat":49.782909},"ril100":"SSOB"},"arrival":{"platform":"1","scheduledTime":"2023-10-18T19:42:00.000Z","time":"2023-10-18T19:42:00.000Z","reihung":false},"departure":{"platform":"1","scheduledTime":"2023-10-18T19:43:00.000Z","time":"2023-10-18T19:43:00.000Z","reihung":false}},{"station":{"evaNumber":"8003295","name":"Kirn","coordinates":{"lng":7.464058,"lat":49.785605},"ril100":"SKR"},"arrival":{"platform":"1","scheduledTime":"2023-10-18T19:52:00.000Z","time":"2023-10-18T19:52:00.000Z","reihung":false},"departure":{"platform":"1","scheduledTime":"2023-10-18T19:53:00.000Z","time":"2023-10-18T19:53:00.000Z","reihung":false}},{"station":{"evaNumber":"8003040","name":"Idar-Oberstein","coordinates":{"lng":7.321211,"lat":49.699417}},"arrival":{"platform":"1","scheduledTime":"2023-10-18T20:03:00.000Z","time":"2023-10-18T20:03:00.000Z","reihung":false},"departure":{"platform":"1","scheduledTime":"2023-10-18T20:05:00.000Z","time":"2023-10-18T20:05:00.000Z","reihung":false}},{"station":{"evaNumber":"8004253","name":"Neubrücke(Nahe)","coordinates":{"lng":7.172942,"lat":49.606235}},"arrival":{"platform":"1","scheduledTime":"2023-10-18T20:19:00.000Z","time":"2023-10-18T20:19:00.000Z","reihung":false},"departure":{"platform":"1","scheduledTime":"2023-10-18T20:19:00.000Z","time":"2023-10-18T20:19:00.000Z","reihung":false}},{"station":{"evaNumber":"8000154","name":"Türkismühle","coordinates":{"lng":7.1148,"lat":49.580337},"ril100":"STM"},"arrival":{"platform":"2","scheduledTime":"2023-10-18T20:24:00.000Z","time":"2023-10-18T20:24:00.000Z","reihung":false},"departure":{"platform":"2","scheduledTime":"2023-10-18T20:25:00.000Z","time":"2023-10-18T20:25:00.000Z","reihung":false}},{"station":{"evaNumber":"8005659","name":"St Wendel","coordinates":{"lng":7.165347,"lat":49.467055},"ril100":"SSWD"},"arrival":{"platform":"2","scheduledTime":"2023-10-18T20:35:00.000Z","time":"2023-10-18T20:35:00.000Z","reihung":false},"departure":{"platform":"2","scheduledTime":"2023-10-18T20:36:00.000Z","time":"2023-10-18T20:36:00.000Z","reihung":false}},{"station":{"evaNumber":"8000875","name":"Ottweiler(Saar)","coordinates":{"lng":7.166192,"lat":49.402332},"ril100":"SOTW"},"arrival":{"platform":"1","scheduledTime":"2023-10-18T20:42:00.000Z","time":"2023-10-18T20:42:00.000Z","reihung":false},"departure":{"platform":"1","scheduledTime":"2023-10-18T20:42:00.000Z","time":"2023-10-18T20:42:00.000Z","reihung":false}},{"station":{"evaNumber":"8000272","name":"Neunkirchen(Saar)Hbf","coordinates":{"lng":7.176565,"lat":49.353422},"ril100":"SNK"},"arrival":{"platform":"3","scheduledTime":"2023-10-18T20:47:00.000Z","time":"2023-10-18T20:47:00.000Z","reihung":false},"departure":{"platform":"3","scheduledTime":"2023-10-18T20:51:00.000Z","time":"2023-10-18T20:51:00.000Z","reihung":false}},{"station":{"evaNumber":"8000323","name":"Saarbrücken Hbf","coordinates":{"lng":6.991055,"lat":49.241371},"ril100":"SSH"},"arrival":{"platform":"14","scheduledTime":"2023-10-18T21:10:00.000Z","time":"2023-10-18T21:10:00.000Z","reihung":false}}],"finalDestination":"Saarbrücken Hbf","jid":"1|1262875|0|80|18102023","messages":[{"type":"A","code":"FB","prio":260,"icoX":5,"txtN":"Fahrradmitnahme begrenzt möglich"},{"type":"A","code":"RG","prio":560,"icoX":3,"txtN":"Behindertengerechtes Fahrzeug"},{"type":"A","code":"LS","prio":605,"icoX":3,"txtN":"Laptop-Steckdosen"},{"type":"A","code":"KL","prio":610,"icoX":3,"txtN":"Klimaanlage"}],"type":"JNY"}],"segmentTypes":["ICE","ICE","RE"]},{"checksum":"ead201e1_3","cid":"C-5","date":"2023-10-17T22:00:00.000Z","duration":27780000,"changes":2,"isRideable":true,"arrival":{"platform":"12","scheduledTime":"2023-10-18T21:29:00.000Z","time":"2023-10-18T21:29:00.000Z","reihung":false},"departure":{"platform":"14","scheduledTime":"2023-10-18T13:46:00.000Z","time":"2023-10-18T13:46:00.000Z","reihung":false},"segments":[{"arrival":{"platform":"12","scheduledTime":"2023-10-18T15:28:00.000Z","time":"2023-10-18T15:28:00.000Z","reihung":false},"departure":{"platform":"14","scheduledTime":"2023-10-18T13:46:00.000Z","time":"2023-10-18T13:46:00.000Z","reihung":false},"duration":6120000,"wings":[{"train":{"name":"ICE 856","line":"10","admin":"80","number":"856","type":"ICE","operator":{"name":"DB Fernverkehr AG","icoX":1}},"segmentStart":{"name":"Berlin Hbf","evaNumber":"8011160"},"segmentDestination":{"name":"Hannover Hbf","evaNumber":"8000152"},"stops":[{"station":{"evaNumber":"8011160","name":"Berlin Hbf","coordinates":{"lng":13.369629,"lat":52.524924},"ril100":"BLS"},"departure":{"platform":"14","scheduledTime":"2023-10-18T13:46:00.000Z","time":"2023-10-18T13:46:00.000Z","reihung":false}},{"station":{"evaNumber":"8010404","name":"Berlin-Spandau","coordinates":{"lng":13.200947,"lat":52.533787},"ril100":"BSPD"},"auslastung":{"first":3,"second":2}},{"station":{"evaNumber":"8006552","name":"Wolfsburg Hbf","coordinates":{"lng":10.787757,"lat":52.429495},"ril100":"HWOB"},"arrival":{"platform":"1","scheduledTime":"2023-10-18T14:52:00.000Z","time":"2023-10-18T14:52:00.000Z","reihung":false},"auslastung":{"first":3,"second":2}},{"station":{"evaNumber":"8000152","name":"Hannover Hbf","coordinates":{"lng":9.741763,"lat":52.377079},"ril100":"HH"},"arrival":{"platform":"12","scheduledTime":"2023-10-18T15:28:00.000Z","time":"2023-10-18T15:28:00.000Z","reihung":false}}],"finalDestination":"Köln Hbf","jid":"1|211241|0|80|18102023","auslastung":{"first":3,"second":2}}],"train":{"name":"ICE 846","line":"10","admin":"80","number":"846","type":"ICE","operator":{"name":"DB Fernverkehr AG","icoX":1}},"changeDuration":13,"segmentStart":{"name":"Berlin Hbf","evaNumber":"8011160"},"segmentDestination":{"name":"Hannover Hbf","evaNumber":"8000152"},"stops":[{"station":{"evaNumber":"8011160","name":"Berlin Hbf","coordinates":{"lng":13.369629,"lat":52.524924},"ril100":"BLS"},"departure":{"platform":"14","scheduledTime":"2023-10-18T13:46:00.000Z","time":"2023-10-18T13:46:00.000Z","reihung":false}},{"station":{"evaNumber":"8010404","name":"Berlin-Spandau","coordinates":{"lng":13.200947,"lat":52.533787},"ril100":"BSPD"},"departure":{"platform":"4","scheduledTime":"2023-10-18T14:00:00.000Z","time":"2023-10-18T14:00:00.000Z","reihung":false},"auslastung":{"first":3,"second":2}},{"station":{"evaNumber":"8006552","name":"Wolfsburg Hbf","coordinates":{"lng":10.787757,"lat":52.429495},"ril100":"HWOB"},"arrival":{"platform":"1","scheduledTime":"2023-10-18T14:52:00.000Z","time":"2023-10-18T14:52:00.000Z","reihung":false},"departure":{"platform":"1","scheduledTime":"2023-10-18T14:53:00.000Z","time":"2023-10-18T14:53:00.000Z","reihung":false},"auslastung":{"first":3,"second":2}},{"station":{"evaNumber":"8000152","name":"Hannover Hbf","coordinates":{"lng":9.741763,"lat":52.377079},"ril100":"HH"},"arrival":{"platform":"12","scheduledTime":"2023-10-18T15:28:00.000Z","time":"2023-10-18T15:28:00.000Z","reihung":false}}],"finalDestination":"Düsseldorf Hbf","jid":"1|211001|0|80|18102023","auslastung":{"first":3,"second":2},"messages":[{"type":"A","code":"CK","prio":200,"icoX":3,"txtN":"Sicher & kontaktlos ohne Ticketkontrolle reisen mit Komfort Check-in"},{"type":"A","code":"FR","prio":260,"icoX":4,"txtN":"Fahrradmitnahme reservierungspflichtig"},{"type":"A","code":"FB","prio":260,"icoX":5,"txtN":"Fahrradmitnahme begrenzt möglich"},{"type":"A","code":"BR","prio":450,"icoX":6,"txtN":"Bordrestaurant"},{"type":"A","code":"EH","prio":560,"icoX":3,"txtN":"Fahrzeuggebundene Einstiegshilfe vorhanden"}],"type":"JNY"},{"arrival":{"platform":"4","scheduledTime":"2023-10-18T19:27:00.000Z","time":"2023-10-18T19:27:00.000Z","reihung":false},"departure":{"platform":"3","scheduledTime":"2023-10-18T15:41:00.000Z","time":"2023-10-18T15:41:00.000Z","reihung":false},"duration":13560000,"train":{"name":"ICE 377","line":"12","admin":"80","number":"377","type":"ICE","operator":{"name":"DB Fernverkehr AG","icoX":1}},"changeDuration":32,"segmentStart":{"name":"Hannover Hbf","evaNumber":"8000152"},"segmentDestination":{"name":"Mannheim Hbf","evaNumber":"8000244"},"stops":[{"station":{"evaNumber":"8000152","name":"Hannover Hbf","coordinates":{"lng":9.741763,"lat":52.377079},"ril100":"HH"},"departure":{"platform":"3","scheduledTime":"2023-10-18T15:41:00.000Z","time":"2023-10-18T15:41:00.000Z","reihung":false},"auslastung":{"first":1,"second":1}},{"station":{"evaNumber":"8000128","name":"Göttingen","coordinates":{"lng":9.926257,"lat":51.536758},"ril100":"HG"},"arrival":{"platform":"10","scheduledTime":"2023-10-18T16:15:00.000Z","time":"2023-10-18T16:15:00.000Z","reihung":false},"departure":{"platform":"10","scheduledTime":"2023-10-18T16:16:00.000Z","time":"2023-10-18T16:16:00.000Z","reihung":false},"auslastung":{"first":1,"second":1}},{"station":{"evaNumber":"8003200","name":"Kassel-Wilhelmshöhe","coordinates":{"lng":9.446845,"lat":51.312998},"ril100":"FKW"},"arrival":{"platform":"2","scheduledTime":"2023-10-18T16:35:00.000Z","time":"2023-10-18T16:35:00.000Z","reihung":false},"departure":{"platform":"2","scheduledTime":"2023-10-18T16:37:00.000Z","time":"2023-10-18T16:37:00.000Z","reihung":false},"auslastung":{"first":1,"second":1}},{"station":{"evaNumber":"8000115","name":"Fulda","coordinates":{"lng":9.684178,"lat":50.554794},"ril100":"FFU"},"arrival":{"platform":"4","scheduledTime":"2023-10-18T17:46:00.000Z","time":"2023-10-18T17:46:00.000Z","reihung":false},"departure":{"platform":"4","scheduledTime":"2023-10-18T17:48:00.000Z","time":"2023-10-18T17:48:00.000Z","reihung":false},"auslastung":{"first":1,"second":1}},{"station":{"evaNumber":"8000150","name":"Hanau Hbf","coordinates":{"lng":8.92921,"lat":50.120903},"ril100":"FH"},"arrival":{"platform":"6","scheduledTime":"2023-10-18T18:26:00.000Z","time":"2023-10-18T18:26:00.000Z","reihung":false},"departure":{"platform":"6","scheduledTime":"2023-10-18T18:28:00.000Z","time":"2023-10-18T18:28:00.000Z","reihung":false},"auslastung":{"first":1,"second":1}},{"station":{"evaNumber":"8000105","name":"Frankfurt(Main)Hbf","coordinates":{"lng":8.663003,"lat":50.106817},"ril100":"FF"},"arrival":{"platform":"8","scheduledTime":"2023-10-18T18:44:00.000Z","time":"2023-10-18T18:44:00.000Z","reihung":false},"departure":{"platform":"8","scheduledTime":"2023-10-18T18:50:00.000Z","time":"2023-10-18T18:50:00.000Z","reihung":false},"auslastung":{"first":1,"second":1}},{"station":{"evaNumber":"8000244","name":"Mannheim Hbf","coordinates":{"lng":8.469268,"lat":49.479181},"ril100":"RM"},"arrival":{"platform":"4","scheduledTime":"2023-10-18T19:27:00.000Z","time":"2023-10-18T19:27:00.000Z","reihung":false}}],"finalDestination":"Basel SBB","jid":"1|204594|0|80|18102023","auslastung":{"first":1,"second":1},"messages":[{"type":"A","code":"CK","prio":200,"icoX":3,"txtN":"Sicher & kontaktlos ohne Ticketkontrolle reisen mit Komfort Check-in"},{"type":"A","code":"FR","prio":260,"icoX":4,"txtN":"Fahrradmitnahme reservierungspflichtig"},{"type":"A","code":"FB","prio":260,"icoX":5,"txtN":"Fahrradmitnahme begrenzt möglich"},{"type":"A","code":"BR","prio":450,"icoX":6,"txtN":"Bordrestaurant"},{"type":"A","code":"EH","prio":560,"icoX":3,"txtN":"Fahrzeuggebundene Einstiegshilfe vorhanden"}],"type":"JNY"},{"arrival":{"platform":"12","scheduledTime":"2023-10-18T21:29:00.000Z","time":"2023-10-18T21:29:00.000Z","reihung":false},"departure":{"platform":"2","scheduledTime":"2023-10-18T19:59:00.000Z","time":"2023-10-18T19:59:00.000Z","reihung":false},"duration":5400000,"train":{"name":"ICE 1554","line":"50","admin":"80","number":"1554","type":"ICE","operator":{"name":"DB Fernverkehr AG","icoX":1}},"segmentStart":{"name":"Mannheim Hbf","evaNumber":"8000244"},"segmentDestination":{"name":"Saarbrücken Hbf","evaNumber":"8000323"},"stops":[{"station":{"evaNumber":"8000244","name":"Mannheim Hbf","coordinates":{"lng":8.469268,"lat":49.479181},"ril100":"RM"},"departure":{"platform":"2","scheduledTime":"2023-10-18T19:59:00.000Z","time":"2023-10-18T19:59:00.000Z","reihung":false},"auslastung":{"first":1,"second":1}},{"station":{"evaNumber":"8000275","name":"Neustadt(Weinstr)Hbf","coordinates":{"lng":8.14038,"lat":49.349601},"ril100":"RN"},"arrival":{"platform":"2","scheduledTime":"2023-10-18T20:17:00.000Z","time":"2023-10-18T20:17:00.000Z","reihung":false},"departure":{"platform":"2","scheduledTime":"2023-10-18T20:19:00.000Z","time":"2023-10-18T20:19:00.000Z","reihung":false},"auslastung":{"first":1,"second":1}},{"station":{"evaNumber":"8000189","name":"Kaiserslautern Hbf","coordinates":{"lng":7.768765,"lat":49.436042},"ril100":"SKL"},"arrival":{"platform":"3","scheduledTime":"2023-10-18T20:43:00.000Z","time":"2023-10-18T20:43:00.000Z","reihung":false},"departure":{"platform":"3","scheduledTime":"2023-10-18T20:45:00.000Z","time":"2023-10-18T20:45:00.000Z","reihung":false},"auslastung":{"first":1,"second":1}},{"station":{"evaNumber":"8000176","name":"Homburg(Saar)Hbf","coordinates":{"lng":7.336978,"lat":49.328117},"ril100":"SHO"},"arrival":{"platform":"5","scheduledTime":"2023-10-18T21:03:00.000Z","time":"2023-10-18T21:03:00.000Z","reihung":false},"departure":{"platform":"5","scheduledTime":"2023-10-18T21:05:00.000Z","time":"2023-10-18T21:05:00.000Z","reihung":false},"auslastung":{"first":1,"second":1}},{"station":{"evaNumber":"8000323","name":"Saarbrücken Hbf","coordinates":{"lng":6.991055,"lat":49.241371},"ril100":"SSH"},"arrival":{"platform":"12","scheduledTime":"2023-10-18T21:29:00.000Z","time":"2023-10-18T21:29:00.000Z","reihung":false}}],"finalDestination":"Saarbrücken Hbf","jid":"1|198019|0|80|18102023","auslastung":{"first":1,"second":1},"messages":[{"type":"A","code":"CK","prio":200,"icoX":3,"txtN":"Sicher & kontaktlos ohne Ticketkontrolle reisen mit Komfort Check-in"},{"type":"A","code":"FR","prio":260,"icoX":4,"txtN":"Fahrradmitnahme reservierungspflichtig"},{"type":"A","code":"FB","prio":260,"icoX":5,"txtN":"Fahrradmitnahme begrenzt möglich"},{"type":"A","code":"BR","prio":450,"icoX":6,"txtN":"Bordrestaurant"}],"type":"JNY"}],"segmentTypes":["ICE","ICE","ICE"]},{"checksum":"09a4c98f_3","cid":"C-6","date":"2023-10-17T22:00:00.000Z","duration":26700000,"changes":1,"isRideable":true,"arrival":{"platform":"12","scheduledTime":"2023-10-18T21:29:00.000Z","time":"2023-10-18T21:29:00.000Z","reihung":false},"departure":{"platform":"2","scheduledTime":"2023-10-18T14:04:00.000Z","time":"2023-10-18T14:04:00.000Z","reihung":false},"segments":[{"arrival":{"platform":"1","scheduledTime":"2023-10-18T15:45:00.000Z","time":"2023-10-18T15:45:00.000Z","reihung":false},"departure":{"platform":"2","scheduledTime":"2023-10-18T14:04:00.000Z","time":"2023-10-18T14:04:00.000Z","reihung":false},"duration":6060000,"train":{"name":"ICE 1007","line":"29","admin":"80","number":"1007","type":"ICE","operator":{"name":"DB Fernverkehr AG","icoX":1}},"changeDuration":33,"segmentStart":{"name":"Berlin Hbf (tief)","evaNumber":"8098160"},"segmentDestination":{"name":"Erfurt Hbf","evaNumber":"8010101"},"stops":[{"station":{"evaNumber":"8098160","name":"Berlin Hbf (tief)","coordinates":{"lng":13.368892,"lat":52.52585},"ril100":"BL"},"departure":{"platform":"2","scheduledTime":"2023-10-18T14:04:00.000Z","time":"2023-10-18T14:04:00.000Z","reihung":false}},{"station":{"evaNumber":"8011113","name":"Berlin Südkreuz","coordinates":{"lng":13.365863,"lat":52.47623},"ril100":"BPAF"},"arrival":{"platform":"3","scheduledTime":"2023-10-18T14:09:00.000Z","time":"2023-10-18T14:09:00.000Z","reihung":false},"departure":{"platform":"3","scheduledTime":"2023-10-18T14:11:00.000Z","time":"2023-10-18T14:11:00.000Z","reihung":false},"auslastung":{"first":3,"second":2}},{"station":{"evaNumber":"8010159","name":"Halle(Saale)Hbf","coordinates":{"lng":11.98699,"lat":51.477079},"ril100":"LH"},"arrival":{"platform":"6","scheduledTime":"2023-10-18T15:16:00.000Z","time":"2023-10-18T15:16:00.000Z","reihung":false},"departure":{"platform":"6","scheduledTime":"2023-10-18T15:18:00.000Z","time":"2023-10-18T15:18:00.000Z","reihung":false},"auslastung":{"first":3,"second":2}},{"station":{"evaNumber":"8010101","name":"Erfurt Hbf","coordinates":{"lng":11.038502,"lat":50.97255},"ril100":"UE  P"},"arrival":{"platform":"1","scheduledTime":"2023-10-18T15:45:00.000Z","time":"2023-10-18T15:45:00.000Z","reihung":false}}],"finalDestination":"München Hbf","jid":"1|195221|0|80|18102023","auslastung":{"first":3,"second":2},"messages":[{"type":"A","code":"CK","prio":200,"icoX":3,"txtN":"Sicher & kontaktlos ohne Ticketkontrolle reisen mit Komfort Check-in"},{"type":"A","code":"BR","prio":450,"icoX":6,"txtN":"Bordrestaurant"}],"type":"JNY"},{"arrival":{"platform":"12","scheduledTime":"2023-10-18T21:29:00.000Z","time":"2023-10-18T21:29:00.000Z","reihung":false},"departure":{"platform":"2","scheduledTime":"2023-10-18T16:18:00.000Z","time":"2023-10-18T16:18:00.000Z","reihung":false},"duration":18660000,"train":{"name":"ICE 1554","line":"50","admin":"80","number":"1554","type":"ICE","operator":{"name":"DB Fernverkehr AG","icoX":1}},"segmentStart":{"name":"Erfurt Hbf","evaNumber":"8010101"},"segmentDestination":{"name":"Saarbrücken Hbf","evaNumber":"8000323"},"stops":[{"station":{"evaNumber":"8010101","name":"Erfurt Hbf","coordinates":{"lng":11.038502,"lat":50.97255},"ril100":"UE  P"},"departure":{"platform":"2","scheduledTime":"2023-10-18T16:18:00.000Z","time":"2023-10-18T16:18:00.000Z","reihung":false},"auslastung":{"first":2,"second":2}},{"station":{"evaNumber":"8010136","name":"Gotha","coordinates":{"lng":10.712688,"lat":50.939029},"ril100":"UGO"},"arrival":{"platform":"2","scheduledTime":"2023-10-18T16:32:00.000Z","time":"2023-10-18T16:32:00.000Z","reihung":false},"departure":{"platform":"2","scheduledTime":"2023-10-18T16:33:00.000Z","time":"2023-10-18T16:33:00.000Z","reihung":false},"auslastung":{"first":2,"second":2}},{"station":{"evaNumber":"8010097","name":"Eisenach","coordinates":{"lng":10.33212,"lat":50.976928},"ril100":"UEI"},"arrival":{"platform":"5","scheduledTime":"2023-10-18T16:46:00.000Z","time":"2023-10-18T16:46:00.000Z","reihung":false},"departure":{"platform":"5","scheduledTime":"2023-10-18T16:48:00.000Z","time":"2023-10-18T16:48:00.000Z","reihung":false},"auslastung":{"first":2,"second":2}},{"station":{"evaNumber":"8000020","name":"Bad Hersfeld","coordinates":{"lng":9.716611,"lat":50.86992},"ril100":"FBHF"},"arrival":{"platform":"2","scheduledTime":"2023-10-18T17:15:00.000Z","time":"2023-10-18T17:15:00.000Z","reihung":false},"departure":{"platform":"2","scheduledTime":"2023-10-18T17:16:00.000Z","time":"2023-10-18T17:16:00.000Z","reihung":false},"auslastung":{"first":2,"second":2}},{"station":{"evaNumber":"8000115","name":"Fulda","coordinates":{"lng":9.684178,"lat":50.554794},"ril100":"FFU"},"arrival":{"platform":"3","scheduledTime":"2023-10-18T17:41:00.000Z","time":"2023-10-18T17:41:00.000Z","reihung":false},"departure":{"platform":"3","scheduledTime":"2023-10-18T17:43:00.000Z","time":"2023-10-18T17:43:00.000Z","reihung":false},"auslastung":{"first":2,"second":1}},{"station":{"evaNumber":"8000105","name":"Frankfurt(Main)Hbf","coordinates":{"lng":8.663003,"lat":50.106817},"ril100":"FF"},"arrival":{"platform":"9","scheduledTime":"2023-10-18T18:36:00.000Z","time":"2023-10-18T18:36:00.000Z","reihung":false},"departure":{"platform":"9","scheduledTime":"2023-10-18T18:56:00.000Z","time":"2023-10-18T18:56:00.000Z","reihung":false},"auslastung":{"first":1,"second":1}},{"station":{"evaNumber":"8000244","name":"Mannheim Hbf","coordinates":{"lng":8.469268,"lat":49.479181},"ril100":"RM"},"arrival":{"platform":"2","scheduledTime":"2023-10-18T19:55:00.000Z","time":"2023-10-18T19:55:00.000Z","reihung":false},"departure":{"platform":"2","scheduledTime":"2023-10-18T19:59:00.000Z","time":"2023-10-18T19:59:00.000Z","reihung":false},"auslastung":{"first":1,"second":1}},{"station":{"evaNumber":"8000275","name":"Neustadt(Weinstr)Hbf","coordinates":{"lng":8.14038,"lat":49.349601},"ril100":"RN"},"arrival":{"platform":"2","scheduledTime":"2023-10-18T20:17:00.000Z","time":"2023-10-18T20:17:00.000Z","reihung":false},"departure":{"platform":"2","scheduledTime":"2023-10-18T20:19:00.000Z","time":"2023-10-18T20:19:00.000Z","reihung":false},"auslastung":{"first":1,"second":1}},{"station":{"evaNumber":"8000189","name":"Kaiserslautern Hbf","coordinates":{"lng":7.768765,"lat":49.436042},"ril100":"SKL"},"arrival":{"platform":"3","scheduledTime":"2023-10-18T20:43:00.000Z","time":"2023-10-18T20:43:00.000Z","reihung":false},"departure":{"platform":"3","scheduledTime":"2023-10-18T20:45:00.000Z","time":"2023-10-18T20:45:00.000Z","reihung":false},"auslastung":{"first":1,"second":1}},{"station":{"evaNumber":"8000176","name":"Homburg(Saar)Hbf","coordinates":{"lng":7.336978,"lat":49.328117},"ril100":"SHO"},"arrival":{"platform":"5","scheduledTime":"2023-10-18T21:03:00.000Z","time":"2023-10-18T21:03:00.000Z","reihung":false},"departure":{"platform":"5","scheduledTime":"2023-10-18T21:05:00.000Z","time":"2023-10-18T21:05:00.000Z","reihung":false},"auslastung":{"first":1,"second":1}},{"station":{"evaNumber":"8000323","name":"Saarbrücken Hbf","coordinates":{"lng":6.991055,"lat":49.241371},"ril100":"SSH"},"arrival":{"platform":"12","scheduledTime":"2023-10-18T21:29:00.000Z","time":"2023-10-18T21:29:00.000Z","reihung":false}}],"finalDestination":"Saarbrücken Hbf","jid":"1|198019|0|80|18102023","auslastung":{"first":2,"second":2},"messages":[{"type":"A","code":"CK","prio":200,"icoX":3,"txtN":"Sicher & kontaktlos ohne Ticketkontrolle reisen mit Komfort Check-in"},{"type":"A","code":"FR","prio":260,"icoX":4,"txtN":"Fahrradmitnahme reservierungspflichtig"},{"type":"A","code":"FB","prio":260,"icoX":5,"txtN":"Fahrradmitnahme begrenzt möglich"},{"type":"A","code":"BR","prio":450,"icoX":6,"txtN":"Bordrestaurant"}],"type":"JNY"}],"segmentTypes":["ICE","ICE"]}]}