{"context":{"earlier":"3|OB|MT#14#451606#451593#451827#451846#0#0#485#451576#1#0#32#0#0#-2147483648#1#2|PDH#bbe10b32f5270e429a5a473728022d1b|RD#18102023|RT#141653|US#0|RS#INIT","later":"3|OF|MT#14#451726#451726#451947#451947#0#0#485#451667#7#0#27#0#0#-2147483648#1#2|PDH#bbe10b32f5270e429a5a473728022d1b|RD#18102023|RT#141653|US#0|RS#INIT"},"routes":[{"checksum":"558ef11f_3","cid":"C-0","date":"2023-10-17T22:00:00.000Z","duration":15180000,"changes":1,"isRideable":true,"arrival":{"platform":"3","scheduledTime":"2023-10-18T16:46:00.000Z","time":"2023-10-18T16:46:00.000Z","reihung":false},"departure":{"platform":"13","scheduledTime":"2023-10-18T12:33:00.000Z","time":"2023-10-18T12:33:00.000Z","reihung":false},"segments":[{"arrival":{"platform":"12","scheduledTime":"2023-10-18T14:36:00.000Z","time":"2023-10-18T14:36:00.000Z","reihung":false},"departure":{"platform":"13","scheduledTime":"2023-10-18T12:33:00.000Z","time":"2023-10-18T12:33:00.000Z","reihung":false},"duration":7380000,"train":{"name":"IC 142","line":"77","admin":"80","number":"142","type":"IC","operator":{"name":"DB Fernverkehr AG","icoX":2}},"changeDuration":19,"segmentStart":{"name":"Berlin Hbf","evaNumber":"8011160"},"segmentDestination":{"name":"Hannover Hbf","evaNumber":"8000152"},"stops":[{"station":{"evaNumber":"8011160","name":"Berlin Hbf","coordinates":{"lng":13.369629,"lat":52.524924},"ril100":"BLS"},"departure":{"platform":"13","scheduledTime":"2023-10-18T12:33:00.000Z","time":"2023-10-18T12:33:00.000Z","reihung":false}},{"station":{"evaNumber":"8010404","name":"Berlin-Spandau","coordinates":{"lng":13.200947,"lat":52.533787},"ril100":"BSPD"},"departure":{"platform":"4","scheduledTime":"2023-10-18T12:50:00.000Z","time":"2023-10-18T12:50:00.000Z","reihung":false},"auslastung":{"first":2,"second":2}},{"station":{"evaNumber":"8010334","name":"Stendal Hbf","coordinates":{"lng":11.854767,"lat":52.594671},"ril100":"LS"},"arrival":{"platform":"1","scheduledTime":"2023-10-18T13:31:00.000Z","time":"2023-10-18T13:31:00.000Z","reihung":false},"departure":{"platform":"1","scheduledTime":"2023-10-18T13:32:00.000Z","time":"2023-10-18T13:32:00.000Z","reihung":false},"auslastung":{"first":2,"second":2}},{"station":{"evaNumber":"8006552","name":"Wolfsburg Hbf","coordinates":{"lng":10.787757,"lat":52.429495},"ril100":"HWOB"},"arrival":{"platform":"1","scheduledTime":"2023-10-18T14:00:00.000Z","time":"2023-10-18T14:00:00.000Z","reihung":false},"departure":{"platform":"1","scheduledTime":"2023-10-18T14:01:00.000Z","time":"2023-10-18T14:01:00.000Z","reihung":false},"auslastung":{"first":2,"second":2}},{"station":{"evaNumber":"8000152","name":"Hannover Hbf","coordinates":{"lng":9.741763,"lat":52.377079},"ril100":"HH"},"arrival":{"platform":"12","scheduledTime":"2023-10-18T14:36:00.000Z","time":"2023-10-18T14:36:00.000Z","reihung":false}}],"finalDestination":"Amsterdam Centraal","jid":"1|351178|0|80|18102023","auslastung":{"first":2,"second":2},"messages":[{"type":"A","code":"CK","prio":200,"icoX":3,"txtN":"Sicher & kontaktlos ohne Ticketkontrolle reisen mit Komfort Check-in"},{"type":"A","code":"FR","prio":260,"icoX":4,"txtN":"Fahrradmitnahme reservierungspflichtig"},{"type":"A","code":"FB","prio":260,"icoX":5,"txtN":"Fahrradmitnahme begrenzt möglich"},{"type":"A","code":"RE","prio":320,"icoX":3,"txtN":"Bitte reservieren"},{"type":"A","code":"BT","prio":450,"icoX":6,"txtN":"Bordbistro"}],"type":"JNY"},{"arrival":{"platform":"3","scheduledTime":"2023-10-18T16:46:00.000Z","time":"2023-10-18T16:46:00.000Z","reihung":false},"departure":{"platform":"1","scheduledTime":"2023-10-18T14:55:00.000Z","time":"2023-10-18T14:55:00.000Z","reihung":false},"duration":6660000,"train":{"name":"S 5","line":"5","admin":"TDHS","number":"34567","type":"S","operator":{"name":"S-Bahn Hannover (Transdev)","icoX":8}},"segmentStart":{"name":"Hannover Hbf","evaNumber":"8000152"},"segmentDestination":{"name":"Paderborn Hbf","evaNumber":"8000297"},"stops":[{"station":{"evaNumber":"8000152","name":"Hannover Hbf","coordinates":{"lng":9.741763,"lat":52.377079},"ril100":"HH"},"departure":{"platform":"1","scheduledTime":"2023-10-18T14:55:00.000Z","time":"2023-10-18T14:55:00.000Z","reihung":false}},{"station":{"evaNumber":"8002580","name":"Hannover Bismarckstr.","coordinates":{"lng":9.769809,"lat":52.356233},"ril100":"HHBI"},"arrival":{"platform":"1","scheduledTime":"2023-10-18T14:58:00.000Z","time":"2023-10-18T14:58:00.000Z","reihung":false},"departure":{"platform":"1","scheduledTime":"2023-10-18T14:58:00.000Z","time":"2023-10-18T14:58:00.000Z","reihung":false}},{"station":{"evaNumber":"8002586","name":"Hannover-Linden/Fischerhof","coordinates":{"lng":9.723488,"lat":52.352574},"ril100":"HLI R"},"arrival":{"platform":"2","scheduledTime":"2023-10-18T15:02:00.000Z","time":"2023-10-18T15:02:00.000Z","reihung":false},"departure":{"platform":"2","scheduledTime":"2023-10-18T15:03:00.000Z","time":"2023-10-18T15:03:00.000Z","reihung":false}},{"station":{"evaNumber":"8000342","name":"Weetzen","coordinates":{"lng":9.634809,"lat":52.29756},"ril100":"HWEZ"},"arrival":{"platform":"2","scheduledTime":"2023-10-18T15:09:00.000Z","time":"2023-10-18T15:09:00.000Z","reihung":false},"departure":{"platform":"2","scheduledTime":"2023-10-18T15:10:00.000Z","time":"2023-10-18T15:10:00.000Z","reihung":false}},{"station":{"evaNumber":"8002969","name":"Holtensen/Linderte","coordinates":{"lng":9.653237,"lat":52.271977},"ril100":"HHOL"},"arrival":{"platform":"2","scheduledTime":"2023-10-18T15:13:00.000Z","time":"2023-10-18T15:13:00.000Z","reihung":false},"departure":{"platform":"2","scheduledTime":"2023-10-18T15:13:00.000Z","time":"2023-10-18T15:13:00.000Z","reihung":false}},{"station":{"evaNumber":"8000872","name":"Bennigsen","coordinates":{"lng":9.666379,"lat":52.240964},"ril100":"HBEN"},"arrival":{"platform":"2","scheduledTime":"2023-10-18T15:17:00.000Z","time":"2023-10-18T15:17:00.000Z","reihung":false},"departure":{"platform":"2","scheduledTime":"2023-10-18T15:17:00.000Z","time":"2023-10-18T15:17:00.000Z","reihung":false}},{"station":{"evaNumber":"8001741","name":"Völksen/Eldagsen","coordinates":{"lng":9.626287,"lat":52.211821},"ril100":"HELV"},"arrival":{"platform":"1","scheduledTime":"2023-10-18T15:21:00.000Z","time":"2023-10-18T15:21:00.000Z","reihung":false},"departure":{"platform":"1","scheduledTime":"2023-10-18T15:22:00.000Z","time":"2023-10-18T15:22:00.000Z","reihung":false}},{"station":{"evaNumber":"8005638","name":"Springe","coordinates":{"lng":9.556783,"lat":52.215174},"ril100":"HSPR"},"arrival":{"platform":"1","scheduledTime":"2023-10-18T15:25:00.000Z","time":"2023-10-18T15:25:00.000Z","reihung":false},"departure":{"platform":"1","scheduledTime":"2023-10-18T15:26:00.000Z","time":"2023-10-18T15:26:00.000Z","reihung":false}},{"station":{"evaNumber":"8000725","name":"Bad Münder(Deister)","coordinates":{"lng":9.46779,"lat":52.17723},"ril100":"HMDD"},"arrival":{"platform":"2","scheduledTime":"2023-10-18T15:32:00.000Z","time":"2023-10-18T15:32:00.000Z","reihung":false},"departure":{"platform":"2","scheduledTime":"2023-10-18T15:32:00.000Z","time":"2023-10-18T15:32:00.000Z","reihung":false}},{"station":{"evaNumber":"8000148","name":"Hameln","coordinates":{"lng":9.375372,"lat":52.101703},"ril100":"HHM"},"arrival":{"platform":"3","scheduledTime":"2023-10-18T15:40:00.000Z","time":"2023-10-18T15:40:00.000Z","reihung":false},"departure":{"platform":"3","scheduledTime":"2023-10-18T15:44:00.000Z","time":"2023-10-18T15:44:00.000Z","reihung":false}},{"station":{"evaNumber":"8001777","name":"Emmerthal","coordinates":{"lng":9.382878,"lat":52.046087},"ril100":"HEMT"},"arrival":{"platform":"1","scheduledTime":"2023-10-18T15:49:00.000Z","time":"2023-10-18T15:49:00.000Z","reihung":false},"departure":{"platform":"1","scheduledTime":"2023-10-18T15:49:00.000Z","time":"2023-10-18T15:49:00.000Z","reihung":false}},{"station":{"evaNumber":"8000735","name":"Bad Pyrmont","coordinates":{"lng":9.272895,"lat":51.974416}},"arrival":{"platform":"2","scheduledTime":"2023-10-18T15:58:00.000Z","time":"2023-10-18T15:58:00.000Z","reihung":false},"departure":{"platform":"2","scheduledTime":"2023-10-18T16:00:00.000Z","time":"2023-10-18T16:00:00.000Z","reihung":false}},{"station":{"evaNumber":"8003784","name":"Lügde","coordinates":{"lng":9.250844,"lat":51.959287}},"arrival":{"platform":"1","scheduledTime":"2023-10-18T16:02:00.000Z","time":"2023-10-18T16:02:00.000Z","reihung":false},"departure":{"platform":"1","scheduledTime":"2023-10-18T16:02:00.000Z","time":"2023-10-18T16:02:00.000Z","reihung":false}},{"station":{"evaNumber":"8005340","name":"Schieder","coordinates":{"lng":9.153122,"lat":51.922368},"ril100":"HSCI"},"arrival":{"platform":"2","scheduledTime":"2023-10-18T16:09:00.000Z","time":"2023-10-18T16:09:00.000Z","reihung":false},"departure":{"platform":"2","scheduledTime":"2023-10-18T16:10:00.000Z","time":"2023-10-18T16:10:00.000Z","reihung":false}},{"station":{"evaNumber":"8005708","name":"Steinheim(Westf)","coordinates":{"lng":9.088616,"lat":51.868379}},"arrival":{"platform":"3","scheduledTime":"2023-10-18T16:16:00.000Z","time":"2023-10-18T16:16:00.000Z","reihung":false},"departure":{"platform":"3","scheduledTime":"2023-10-18T16:17:00.000Z","time":"2023-10-18T16:17:00.000Z","reihung":false}},{"station":{"evaNumber":"8000004","name":"Altenbeken","coordinates":{"lng":8.942793,"lat":51.766486},"ril100":"HA"},"arrival":{"platform":"2","scheduledTime":"2023-10-18T16:33:00.000Z","time":"2023-10-18T16:33:00.000Z","reihung":false},"departure":{"platform":"2","scheduledTime":"2023-10-18T16:33:00.000Z","time":"2023-10-18T16:33:00.000Z","reihung":false}},{"station":{"evaNumber":"8000297","name":"Paderborn Hbf","coordinates":{"lng":8.740949,"lat":51.712946},"ril100":"EPD"},"arrival":{"platform":"3","scheduledTime":"2023-10-18T16:46:00.000Z","time":"2023-10-18T16:46:00.000Z","reihung":false}}],"finalDestination":"Paderborn Hbf","jid":"1|1153773|8|80|18102023","messages":[{"type":"A","code":"FB","prio":260,"icoX":5,"txtN":"Fahrradmitnahme begrenzt möglich"},{"type":"A","code":"AO","prio":350,"icoX":3,"txtN":"Konsum alkoholischer Getränke im Zug verboten"},{"type":"A","code":"EA","prio":560,"icoX":3,"txtN":"Behindertengerechte Ausstattung"}],"type":"JNY"}],"segmentTypes":["IC","S"]},{"checksum":"9d987087_3","cid":"C-1","date":"2023-10-17T22:00:00.000Z","duration":13260000,"changes":1,"isRideable":true,"arrival":{"platform":"5","scheduledTime":"2023-10-18T16:27:00.000Z","time":"2023-10-18T16:27:00.000Z","reihung":false},"departure":{"platform":"14","scheduledTime":"2023-10-18T12:46:00.000Z","time":"2023-10-18T12:46:00.000Z","reihung":false},"segments":[{"arrival":{"platform":"4","scheduledTime":"2023-10-18T15:20:00.000Z","time":"2023-10-18T15:20:00.000Z","reihung":false},"departure":{"platform":"14","scheduledTime":"2023-10-18T12:46:00.000Z","time":"2023-10-18T12:46:00.000Z","reihung":false},"duration":9240000,"train":{"name":"ICE 546","line":"10","admin":"80","number":"546","type":"ICE","operator":{"name":"DB Fernverkehr AG","icoX":2}},"changeDuration":14,"segmentStart":{"name":"Berlin Hbf","evaNumber":"8011160"},"segmentDestination":{"name":"Bielefeld Hbf","evaNumber":"8000036"},"stops":[{"station":{"evaNumber":"8011160","name":"Berlin Hbf","coordinates":{"lng":13.369629,"lat":52.524924},"ril100":"BLS"},"departure":{"platform":"14","scheduledTime":"2023-10-18T12:46:00.000Z","time":"2023-10-18T12:46:00.000Z","reihung":false}},{"station":{"evaNumber":"8010404","name":"Berlin-Spandau","coordinates":{"lng":13.200947,"lat":52.533787},"ril100":"BSPD"},"departure":{"platform":"4","scheduledTime":"2023-10-18T13:01:00.000Z","time":"2023-10-18T13:01:00.000Z","reihung":false},"auslastung":{"first":3,"second":2}},{"station":{"evaNumber":"8000152","name":"Hannover Hbf","coordinates":{"lng":9.741763,"lat":52.377079},"ril100":"HH"},"arrival":{"platform":"12","scheduledTime":"2023-10-18T14:28:00.000Z","time":"2023-10-18T14:28:00.000Z","reihung":false},"departure":{"platform":"12","scheduledTime":"2023-10-18T14:31:00.000Z","time":"2023-10-18T14:31:00.000Z","reihung":false},"auslastung":{"first":3,"second":2}},{"station":{"evaNumber":"8000036","name":"Bielefeld Hbf","coordinates":{"lng":8.532777,"lat":52.029421},"ril100":"EBILP"},"arrival":{"platform":"4","scheduledTime":"2023-10-18T15:20:00.000Z","time":"2023-10-18T15:20:00.000Z","reihung":false}}],"finalDestination":"Düsseldorf Hbf","jid":"1|206050|0|80|18102023","auslastung":{"first":3,"second":2},"messages":[{"type":"A","code":"CK","prio":200,"icoX":3,"txtN":"Sicher & kontaktlos ohne Ticketkontrolle reisen mit Komfort Check-in"},{"type":"A","code":"BR","prio":450,"icoX":10,"txtN":"Bordrestaurant"}],"type":"JNY"},{"arrival":{"platform":"5","scheduledTime":"2023-10-18T16:27:00.000Z","time":"2023-10-18T16:27:00.000Z","reihung":false},"departure":{"platform":"8","scheduledTime":"2023-10-18T15:34:00.000Z","time":"2023-10-18T15:34:00.000Z","reihung":false},"duration":3180000,"train":{"name":"NWB RB74","line":"RB74","admin":"N2","number":"75468","type":"NWB","operator":{"name":"NordWestBahn","icoX":12}},"segmentStart":{"name":"Bielefeld Hbf","evaNumber":"8000036"},"segmentDestination":{"name":"Paderborn Hbf","evaNumber":"8000297"},"stops":[{"station":{"evaNumber":"8000036","name":"Bielefeld Hbf","coordinates":{"lng":8.532777,"lat":52.029421},"ril100":"EBILP"},"departure":{"platform":"8","scheduledTime":"2023-10-18T15:34:00.000Z","time":"2023-10-18T15:34:00.000Z","reihung":false}},{"station":{"evaNumber":"8000048","name":"Bielefeld-Brackwede","coordinates":{"lng":8.49833,"lat":51.997257},"ril100":"EBWE"},"arrival":{"platform":"3","scheduledTime":"2023-10-18T15:38:00.000Z","time":"2023-10-18T15:38:00.000Z","reihung":false},"departure":{"platform":"3","scheduledTime":"2023-10-18T15:39:00.000Z","time":"2023-10-18T15:39:00.000Z","reihung":false}},{"station":{"evaNumber":"8000956","name":"Bielefeld-Senne","coordinates":{"lng":8.520488,"lat":51.964995},"ril100":"EBIS"},"arrival":{"platform":"1","scheduledTime":"2023-10-18T15:43:00.000Z","time":"2023-10-18T15:43:00.000Z","reihung":false},"departure":{"platform":"1","scheduledTime":"2023-10-18T15:43:00.000Z","time":"2023-10-18T15:43:00.000Z","reihung":false}},{"station":{"evaNumber":"8006466","name":"Bielefeld-Windelsbleiche","coordinates":{"lng":8.534188,"lat":51.955439},"ril100":"EWIL"},"arrival":{"platform":"1","scheduledTime":"2023-10-18T15:45:00.000Z","time":"2023-10-18T15:45:00.000Z","reihung":false},"departure":{"platform":"1","scheduledTime":"2023-10-18T15:45:00.000Z","time":"2023-10-18T15:45:00.000Z","reihung":false}},{"station":{"evaNumber":"8005535","name":"Bielefeld-Sennestadt","coordinates":{"lng":8.567808,"lat":51.940454},"ril100":"ESES"},"arrival":{"platform":"1","scheduledTime":"2023-10-18T15:49:00.000Z","time":"2023-10-18T15:49:00.000Z","reihung":false},"departure":{"platform":"1","scheduledTime":"2023-10-18T15:51:00.000Z","time":"2023-10-18T15:51:00.000Z","reihung":false}},{"station":{"evaNumber":"8005369","name":"Schloß Holte","coordinates":{"lng":8.610452,"lat":51.908696},"ril100":"ESHO"},"arrival":{"platform":"1","scheduledTime":"2023-10-18T15:55:00.000Z","time":"2023-10-18T15:55:00.000Z","reihung":false},"departure":{"platform":"1","scheduledTime":"2023-10-18T15:55:00.000Z","time":"2023-10-18T15:55:00.000Z","reihung":false}},{"station":{"evaNumber":"8002921","name":"Hövelriege","coordinates":{"lng":8.641429,"lat":51.866707},"ril100":"EHVR"},"arrival":{"platform":"1","scheduledTime":"2023-10-18T15:59:00.000Z","time":"2023-10-18T15:59:00.000Z","reihung":false},"departure":{"platform":"1","scheduledTime":"2023-10-18T16:00:00.000Z","time":"2023-10-18T16:00:00.000Z","reihung":false}},{"station":{"evaNumber":"8002920","name":"Hövelhof","coordinates":{"lng":8.661988,"lat":51.823667},"ril100":"EHOV"},"arrival":{"platform":"1","scheduledTime":"2023-10-18T16:05:00.000Z","time":"2023-10-18T16:05:00.000Z","reihung":false},"departure":{"platform":"1","scheduledTime":"2023-10-18T16:07:00.000Z","time":"2023-10-18T16:07:00.000Z","reihung":false}},{"station":{"evaNumber":"8005370","name":"Paderborn-Schloss Neuhaus","coordinates":{"lng":8.720849,"lat":51.749272},"ril100":"ESNS"},"arrival":{"platform":"1","scheduledTime":"2023-10-18T16:14:00.000Z","time":"2023-10-18T16:14:00.000Z","reihung":false},"departure":{"platform":"1","scheduledTime":"2023-10-18T16:15:00.000Z","time":"2023-10-18T16:15:00.000Z","reihung":false}},{"station":{"evaNumber":"8004745","name":"Paderborn Nord","coordinates":{"lng":8.759035,"lat":51.728084},"ril100":"EPDN"},"arrival":{"platform":"1","scheduledTime":"2023-10-18T16:19:00.000Z","time":"2023-10-18T16:19:00.000Z","reihung":false},"departure":{"platform":"1","scheduledTime":"2023-10-18T16:22:00.000Z","time":"2023-10-18T16:22:00.000Z","reihung":false}},{"station":{"evaNumber":"8004744","name":"Paderborn Kasseler Tor","coordinates":{"lng":8.761471,"lat":51.71621},"ril100":"EPDK"},"arrival":{"platform":"1","scheduledTime":"2023-10-18T16:24:00.000Z","time":"2023-10-18T16:24:00.000Z","reihung":false},"departure":{"platform":"1","scheduledTime":"2023-10-18T16:25:00.000Z","time":"2023-10-18T16:25:00.000Z","reihung":false}},{"station":{"evaNumber":"8000297","name":"Paderborn Hbf","coordinates":{"lng":8.740949,"lat":51.712946},"ril100":"EPD"},"arrival":{"platform":"5","scheduledTime":"2023-10-18T16:27:00.000Z","time":"2023-10-18T16:27:00.000Z","reihung":false}}],"finalDestination":"Paderborn Hbf","jid":"1|301001|4|80|18102023","messages":[{"type":"A","code":"FB","prio":260,"icoX":5,"txtN":"Fahrradmitnahme begrenzt möglich"},{"type":"A","code":"FC","prio":260,"icoX":3,"txtN":"Reservierung kostenlos: Anmeldung Fahrradmitnahme bis 17 Uhr am Vortag"},{"type":"A","code":"K2","prio":300,"icoX":13,"txtN":"nur 2. Klasse"},{"type":"A","code":"RO","prio":560,"icoX":14,"txtN":"Rollstuhlstellplatz"},{"type":"A","code":"NW","prio":560,"icoX":3,"txtN":"NordWestBahn-Servicetelefon: 0541 2002 4321"}],"type":"JNY"}],"segmentTypes":["ICE","NWB"]},{"checksum":"0ae437e3_3","cid":"C-2","date":"2023-10-17T22:00:00.000Z","duration":14220000,"changes":1,"isRideable":true,"arrival":{"platform":"5","scheduledTime":"2023-10-18T16:57:00.000Z","time":"2023-10-18T16:57:00.000Z","reihung":false},"departure":{"platform":"14","scheduledTime":"2023-10-18T13:00:00.000Z","time":"2023-10-18T13:00:00.000Z","reihung":false},"segments":[{"arrival":{"platform":"4","scheduledTime":"2023-10-18T15:51:00.000Z","time":"2023-10-18T15:51:00.000Z","reihung":false},"departure":{"platform":"14","scheduledTime":"2023-10-18T13:00:00.000Z","time":"2023-10-18T13:00:00.000Z","reihung":false},"duration":10260000,"train":{"name":"ICE 1546","line":"14","admin":"80","number":"1546","type":"ICE","operator":{"name":"DB Fernverkehr AG","icoX":2}},"changeDuration":13,"segmentStart":{"name":"Berlin Hbf","evaNumber":"8011160"},"segmentDestination":{"name":"Bielefeld Hbf","evaNumber":"8000036"},"stops":[{"station":{"evaNumber":"8011160","name":"Berlin Hbf","coordinates":{"lng":13.369629,"lat":52.524924},"ril100":"BLS"},"departure":{"platform":"14","scheduledTime":"2023-10-18T13:00:00.000Z","time":"2023-10-18T13:00:00.000Z","reihung":false}},{"station":{"evaNumber":"8010404","name":"Berlin-Spandau","coordinates":{"lng":13.200947,"lat":52.533787},"ril100":"BSPD"},"departure":{"platform":"4","scheduledTime":"2023-10-18T13:15:00.000Z","time":"2023-10-18T13:15:00.000Z","reihung":false},"auslastung":{"first":3,"second":2}},{"station":{"evaNumber":"8010334","name":"Stendal Hbf","coordinates":{"lng":11.854767,"lat":52.594671},"ril100":"LS"},"arrival":{"platform":"1","scheduledTime":"2023-10-18T13:50:00.000Z","time":"2023-10-18T13:50:00.000Z","reihung":false},"departure":{"platform":"1","scheduledTime":"2023-10-18T13:51:00.000Z","time":"2023-10-18T13:51:00.000Z","reihung":false},"auslastung":{"first":3,"second":2}},{"station":{"evaNumber":"8006552","name":"Wolfsburg Hbf","coordinates":{"lng":10.787757,"lat":52.429495},"ril100":"HWOB"},"arrival":{"platform":"1","scheduledTime":"2023-10-18T14:19:00.000Z","time":"2023-10-18T14:19:00.000Z","reihung":false},"departure":{"platform":"1","scheduledTime":"2023-10-18T14:20:00.000Z","time":"2023-10-18T14:20:00.000Z","reihung":false},"auslastung":{"first":3,"second":2}},{"station":{"evaNumber":"8000152","name":"Hannover Hbf","coordinates":{"lng":9.741763,"lat":52.377079},"ril100":"HH"},"arrival":{"platform":"12","scheduledTime":"2023-10-18T14:53:00.000Z","time":"2023-10-18T14:53:00.000Z","reihung":false},"departure":{"platform":"12","scheduledTime":"2023-10-18T14:56:00.000Z","time":"2023-10-18T14:56:00.000Z","reihung":false},"auslastung":{"first":3,"second":2}},{"station":{"evaNumber":"8000732","name":"Bad Oeynhausen","coordinates":{"lng":8.796439,"lat":52.205447},"ril100":"HOY"},"arrival":{"platform":"2","scheduledTime":"2023-10-18T15:32:00.000Z","time":"2023-10-18T15:32:00.000Z","reihung":false},"departure":{"platform":"2","scheduledTime":"2023-10-18T15:34:00.000Z","time":"2023-10-18T15:34:00.000Z","reihung":false},"auslastung":{"first":3,"second":1}},{"station":{"evaNumber":"8000162","name":"Herford","coordinates":{"lng":8.663741,"lat":52.119654},"ril100":"EHFD"},"arrival":{"platform":"6","scheduledTime":"2023-10-18T15:42:00.000Z","time":"2023-10-18T15:42:00.000Z","reihung":false},"departure":{"platform":"6","scheduledTime":"2023-10-18T15:44:00.000Z","time":"2023-10-18T15:44:00.000Z","reihung":false},"auslastung":{"first":3,"second":1}},{"station":{"evaNumber":"8000036","name":"Bielefeld Hbf","coordinates":{"lng":8.532777,"lat":52.029421},"ril100":"EBILP"},"arrival":{"platform":"4","scheduledTime":"2023-10-18T15:51:00.000Z","time":"2023-10-18T15:51:00.000Z","reihung":false}}],"finalDestination":"Krefeld Hbf","jid":"1|197863|0|80|18102023","auslastung":{"first":3,"second":2},"messages":[{"type":"A","code":"CK","prio":200,"icoX":3,"txtN":"Sicher & kontaktlos ohne Ticketkontrolle reisen mit Komfort Check-in"},{"type":"A","code":"FR","prio":260,"icoX":4,"txtN":"Fahrradmitnahme reservierungspflichtig"},{"type":"A","code":"FB","prio":260,"icoX":5,"txtN":"Fahrradmitnahme begrenzt möglich"},{"type":"A","code":"BR","prio":450,"icoX":10,"txtN":"Bordrestaurant"}],"type":"JNY"},{"arrival":{"platform":"5","scheduledTime":"2023-10-18T16:57:00.000Z","time":"2023-10-18T16:57:00.000Z","reihung":false},"departure":{"platform":"8","scheduledTime":"2023-10-18T16:04:00.000Z","time":"2023-10-18T16:04:00.000Z","reihung":false},"duration":3180000,"train":{"name":"NWB RB74","line":"RB74","admin":"N2","number":"75472","type":"NWB","operator":{"name":"NordWestBahn","icoX":12}},"segmentStart":{"name":"Bielefeld Hbf","evaNumber":"8000036"},"segmentDestination":{"name":"Paderborn Hbf","evaNumber":"8000297"},"stops":[{"station":{"evaNumber":"8000036","name":"Bielefeld Hbf","coordinates":{"lng":8.532777,"lat":52.029421},"ril100":"EBILP"},"departure":{"platform":"8","scheduledTime":"2023-10-18T16:04:00.000Z","time":"2023-10-18T16:04:00.000Z","reihung":false}},{"station":{"evaNumber":"8000048","name":"Bielefeld-Brackwede","coordinates":{"lng":8.49833,"lat":51.997257},"ril100":"EBWE"},"arrival":{"platform":"3","scheduledTime":"2023-10-18T16:08:00.000Z","time":"2023-10-18T16:08:00.000Z","reihung":false},"departure":{"platform":"3","scheduledTime":"2023-10-18T16:09:00.000Z","time":"2023-10-18T16:09:00.000Z","reihung":false}},{"station":{"evaNumber":"8000956","name":"Bielefeld-Senne","coordinates":{"lng":8.520488,"lat":51.964995},"ril100":"EBIS"},"arrival":{"platform":"1","scheduledTime":"2023-10-18T16:13:00.000Z","time":"2023-10-18T16:13:00.000Z","reihung":false},"departure":{"platform":"1","scheduledTime":"2023-10-18T16:13:00.000Z","time":"2023-10-18T16:13:00.000Z","reihung":false}},{"station":{"evaNumber":"8006466","name":"Bielefeld-Windelsbleiche","coordinates":{"lng":8.534188,"lat":51.955439},"ril100":"EWIL"},"arrival":{"platform":"1","scheduledTime":"2023-10-18T16:15:00.000Z","time":"2023-10-18T16:15:00.000Z","reihung":false},"departure":{"platform":"1","scheduledTime":"2023-10-18T16:15:00.000Z","time":"2023-10-18T16:15:00.000Z","reihung":false}},{"station":{"evaNumber":"8005535","name":"Bielefeld-Sennestadt","coordinates":{"lng":8.567808,"lat":51.940454},"ril100":"ESES"},"arrival":{"platform":"1","scheduledTime":"2023-10-18T16:19:00.000Z","time":"2023-10-18T16:19:00.000Z","reihung":false},"departure":{"platform":"1","scheduledTime":"2023-10-18T16:21:00.000Z","time":"2023-10-18T16:21:00.000Z","reihung":false}},{"station":{"evaNumber":"8005369","name":"Schloß Holte","coordinates":{"lng":8.610452,"lat":51.908696},"ril100":"ESHO"},"arrival":{"platform":"1","scheduledTime":"2023-10-18T16:25:00.000Z","time":"2023-10-18T16:25:00.000Z","reihung":false},"departure":{"platform":"1","scheduledTime":"2023-10-18T16:25:00.000Z","time":"2023-10-18T16:25:00.000Z","reihung":false}},{"station":{"evaNumber":"8002920","name":"Hövelhof","coordinates":{"lng":8.661988,"lat":51.823667},"ril100":"EHOV"},"arrival":{"platform":"1","scheduledTime":"2023-10-18T16:33:00.000Z","time":"2023-10-18T16:33:00.000Z","reihung":false},"departure":{"platform":"1","scheduledTime":"2023-10-18T16:37:00.000Z","time":"2023-10-18T16:37:00.000Z","reihung":false}},{"station":{"evaNumber":"8005534","name":"Paderborn-Sennelager","coordinates":{"lng":8.7139,"lat":51.770064},"ril100":"ESEL"},"arrival":{"platform":"1","scheduledTime":"2023-10-18T16:42:00.000Z","time":"2023-10-18T16:42:00.000Z","reihung":false},"departure":{"platform":"1","scheduledTime":"2023-10-18T16:43:00.000Z","time":"2023-10-18T16:43:00.000Z","reihung":false}},{"station":{"evaNumber":"8004745","name":"Paderborn Nord","coordinates":{"lng":8.759035,"lat":51.728084},"ril100":"EPDN"},"arrival":{"platform":"1","scheduledTime":"2023-10-18T16:49:00.000Z","time":"2023-10-18T16:49:00.000Z","reihung":false},"departure":{"platform":"1","scheduledTime":"2023-10-18T16:52:00.000Z","time":"2023-10-18T16:52:00.000Z","reihung":false}},{"station":{"evaNumber":"8004744","name":"Paderborn Kasseler Tor","coordinates":{"lng":8.761471,"lat":51.71621},"ril100":"EPDK"},"arrival":{"platform":"1","scheduledTime":"2023-10-18T16:54:00.000Z","time":"2023-10-18T16:54:00.000Z","reihung":false},"departure":{"platform":"1","scheduledTime":"2023-10-18T16:55:00.000Z","time":"2023-10-18T16:55:00.000Z","reihung":false}},{"station":{"evaNumber":"8000297","name":"Paderborn Hbf","coordinates":{"lng":8.740949,"lat":51.712946},"ril100":"EPD"},"arrival":{"platform":"5","scheduledTime":"2023-10-18T16:57:00.000Z","time":"2023-10-18T16:57:00.000Z","reihung":false}}],"finalDestination":"Paderborn Hbf","jid":"1|300999|5|80|18102023","messages":[{"type":"A","code":"FB","prio":260,"icoX":5,"txtN":"Fahrradmitnahme begrenzt möglich"},{"type":"A","code":"FC","prio":260,"icoX":3,"txtN":"Reservierung kostenlos: Anmeldung Fahrradmitnahme bis 17 Uhr am Vortag"},{"type":"A","code":"K2","prio":300,"icoX":13,"txtN":"nur 2. Klasse"},{"type":"A","code":"RO","prio":560,"icoX":14,"txtN":"Rollstuhlstellplatz"},{"type":"A","code":"NW","prio":560,"icoX":3,"txtN":"NordWestBahn-Servicetelefon: 0541 2002 4321"}],"type":"JNY"}],"segmentTypes":["ICE","NWB"]},{"checksum":"e428bc01_3","cid":"C-3","date":"2023-10-17T22:00:00.000Z","duration":13260000,"changes":1,"isRideable":true,"arrival":{"platform":"5","scheduledTime":"2023-10-18T17:27:00.000Z","time":"2023-10-18T17:27:00.000Z","reihung":false},"departure":{"platform":"14","scheduledTime":"2023-10-18T13:46:00.000Z","time":"2023-10-18T13:46:00.000Z","reihung":false},"segments":[{"arrival":{"platform":"4","scheduledTime":"2023-10-18T16:20:00.000Z","time":"2023-10-18T16:20:00.000Z","reihung":false},"departure":{"platform":"14","scheduledTime":"2023-10-18T13:46:00.000Z","time":"2023-10-18T13:46:00.000Z","reihung":false},"duration":9240000,"wings":[{"train":{"name":"ICE 856","line":"10","admin":"80","number":"856","type":"ICE","operator":{"name":"DB Fernverkehr AG","icoX":2}},"segmentStart":{"name":"Berlin Hbf","evaNumber":"8011160"},"segmentDestination":{"name":"Bielefeld Hbf","evaNumber":"8000036"},"stops":[{"station":{"evaNumber":"8011160","name":"Berlin Hbf","coordinates":{"lng":13.369629,"lat":52.524924},"ril100":"BLS"},"departure":{"platform":"14","scheduledTime":"2023-10-18T13:46:00.000Z","time":"2023-10-18T13:46:00.000Z","reihung":false}},{"station":{"evaNumber":"8010404","name":"Berlin-Spandau","coordinates":{"lng":13.200947,"lat":52.533787},"ril100":"BSPD"},"auslastung":{"first":3,"second":2}},{"station":{"evaNumber":"8006552","name":"Wolfsburg Hbf","coordinates":{"lng":10.787757,"lat":52.429495},"ril100":"HWOB"},"arrival":{"platform":"1","scheduledTime":"2023-10-18T14:52:00.000Z","time":"2023-10-18T14:52:00.000Z","reihung":false},"auslastung":{"first":3,"second":2}},{"station":{"evaNumber":"8000152","name":"Hannover Hbf","coordinates":{"lng":9.741763,"lat":52.377079},"ril100":"HH"},"arrival":{"platform":"12","scheduledTime":"2023-10-18T15:28:00.000Z","time":"2023-10-18T15:28:00.000Z","reihung":false},"auslastung":{"first":3,"second":2}},{"station":{"evaNumber":"8000036","name":"Bielefeld Hbf","coordinates":{"lng":8.532777,"lat":52.029421},"ril100":"EBILP"},"arrival":{"platform":"4","scheduledTime":"2023-10-18T16:20:00.000Z","time":"2023-10-18T16:20:00.000Z","reihung":false}}],"finalDestination":"Köln Hbf","jid":"1|211241|0|80|18102023","auslastung":{"first":3,"second":2}}],"train":{"name":"ICE 846","line":"10","admin":"80","number":"846","type":"ICE","operator":{"name":"DB Fernverkehr AG","icoX":2}},"changeDuration":14,"segmentStart":{"name":"Berlin Hbf","evaNumber":"8011160"},"segmentDestination":{"name":"Bielefeld Hbf","evaNumber":"8000036"},"stops":[{"station":{"evaNumber":"8011160","name":"Berlin Hbf","coordinates":{"lng":13.369629,"lat":52.524924},"ril100":"BLS"},"departure":{"platform":"14","scheduledTime":"2023-10-18T13:46:00.000Z","time":"2023-10-18T13:46:00.000Z","reihung":false}},{"station":{"evaNumber":"8010404","name":"Berlin-Spandau","coordinates":{"lng":13.200947,"lat":52.533787},"ril100":"BSPD"},"departure":{"platform":"4","scheduledTime":"2023-10-18T14:00:00.000Z","time":"2023-10-18T14:00:00.000Z","reihung":false},"auslastung":{"first":3,"second":2}},{"station":{"evaNumber":"8006552","name":"Wolfsburg Hbf","coordinates":{"lng":10.787757,"lat":52.429495},"ril100":"HWOB"},"arrival":{"platform":"1","scheduledTime":"2023-10-18T14:52:00.000Z","time":"2023-10-18T14:52:00.000Z","reihung":false},"departure":{"platform":"1","scheduledTime":"2023-10-18T14:53:00.000Z","time":"2023-10-18T14:53:00.000Z","reihung":false},"auslastung":{"first":3,"second":2}},{"station":{"evaNumber":"8000152","name":"Hannover Hbf","coordinates":{"lng":9.741763,"lat":52.377079},"ril100":"HH"},"arrival":{"platform":"12","scheduledTime":"2023-10-18T15:28:00.000Z","time":"2023-10-18T15:28:00.000Z","reihung":false},"departure":{"platform":"12","scheduledTime":"2023-10-18T15:31:00.000Z","time":"2023-10-18T15:31:00.000Z","reihung":false},"auslastung":{"first":3,"second":2}},{"station":{"evaNumber":"8000036","name":"Bielefeld Hbf","coordinates":{"lng":8.532777,"lat":52.029421},"ril100":"EBILP"},"arrival":{"platform":"4","scheduledTime":"2023-10-18T16:20:00.000Z","time":"2023-10-18T16:20:00.000Z","reihung":false}}],"finalDestination":"Düsseldorf Hbf","jid":"1|211001|0|80|18102023","auslastung":{"first":3,"second":2},"messages":[{"type":"A","code":"CK","prio":200,"icoX":3,"txtN":"Sicher & kontaktlos ohne Ticketkontrolle reisen mit Komfort Check-in"},{"type":"A","code":"FR","prio":260,"icoX":4,"txtN":"Fahrradmitnahme reservierungspflichtig"},{"type":"A","code":"FB","prio":260,"icoX":5,"txtN":"Fahrradmitnahme begrenzt möglich"},{"type":"A","code":"BR","prio":450,"icoX":10,"txtN":"Bordrestaurant"},{"type":"A","code":"EH","prio":560,"icoX":3,"txtN":"Fahrzeuggebundene Einstiegshilfe vorhanden"},{"type":"M","code":"","icoX":15,"txtS":"ICE 856: Bielefeld Hbf: Information.","txtN":"Keine Be-/Entladung von Fahrrädern in Bielefeld Hbf möglich.","sIdx":0}],"type":"JNY"},{"arrival":{"platform":"5","scheduledTime":"2023-10-18T17:27:00.000Z","time":"2023-10-18T17:27:00.000Z","reihung":false},"departure":{"platform":"8","scheduledTime":"2023-10-18T16:34:00.000Z","time":"2023-10-18T16:34:00.000Z","reihung":false},"duration":3180000,"train":{"name":"NWB RB74","line":"RB74","admin":"N2","number":"75474","type":"NWB","operator":{"name":"NordWestBahn","icoX":12}},"segmentStart":{"name":"Bielefeld Hbf","evaNumber":"8000036"},"segmentDestination":{"name":"Paderborn Hbf","evaNumber":"8000297"},"stops":[{"station":{"evaNumber":"8000036","name":"Bielefeld Hbf","coordinates":{"lng":8.532777,"lat":52.029421},"ril100":"EBILP"},"departure":{"platform":"8","scheduledTime":"2023-10-18T16:34:00.000Z","time":"2023-10-18T16:34:00.000Z","reihung":false}},{"station":{"evaNumber":"8000048","name":"Bielefeld-Brackwede","coordinates":{"lng":8.49833,"lat":51.997257},"ril100":"EBWE"},"arrival":{"platform":"3","scheduledTime":"2023-10-18T16:38:00.000Z","time":"2023-10-18T16:38:00.000Z","reihung":false},"departure":{"platform":"3","scheduledTime":"2023-10-18T16:39:00.000Z","time":"2023-10-18T16:39:00.000Z","reihung":false}},{"station":{"evaNumber":"8000956","name":"Bielefeld-Senne","coordinates":{"lng":8.520488,"lat":51.964995},"ril100":"EBIS"},"arrival":{"platform":"1","scheduledTime":"2023-10-18T16:43:00.000Z","time":"2023-10-18T16:43:00.000Z","reihung":false},"departure":{"platform":"1","scheduledTime":"2023-10-18T16:43:00.000Z","time":"2023-10-18T16:43:00.000Z","reihung":false}},{"station":{"evaNumber":"8006466","name":"Bielefeld-Windelsbleiche","coordinates":{"lng":8.534188,"lat":51.955439},"ril100":"EWIL"},"arrival":{"platform":"1","scheduledTime":"2023-10-18T16:45:00.000Z","time":"2023-10-18T16:45:00.000Z","reihung":false},"departure":{"platform":"1","scheduledTime":"2023-10-18T16:45:00.000Z","time":"2023-10-18T16:45:00.000Z","reihung":false}},{"station":{"evaNumber":"8005535","name":"Bielefeld-Sennestadt","coordinates":{"lng":8.567808,"lat":51.940454},"ril100":"ESES"},"arrival":{"platform":"1","scheduledTime":"2023-10-18T16:49:00.000Z","time":"2023-10-18T16:49:00.000Z","reihung":false},"departure":{"platform":"1","scheduledTime":"2023-10-18T16:51:00.000Z","time":"2023-10-18T16:51:00.000Z","reihung":false}},{"station":{"evaNumber":"8005369","name":"Schloß Holte","coordinates":{"lng":8.610452,"lat":51.908696},"ril100":"ESHO"},"arrival":{"platform":"1","scheduledTime":"2023-10-18T16:55:00.000Z","time":"2023-10-18T16:55:00.000Z","reihung":false},"departure":{"platform":"1","scheduledTime":"2023-10-18T16:55:00.000Z","time":"2023-10-18T16:55:00.000Z","reihung":false}},{"station":{"evaNumber":"8002921","name":"Hövelriege","coordinates":{"lng":8.641429,"lat":51.866707},"ril100":"EHVR"},"arrival":{"platform":"1","scheduledTime":"2023-10-18T16:59:00.000Z","time":"2023-10-18T16:59:00.000Z","reihung":false},"departure":{"platform":"1","scheduledTime":"2023-10-18T17:00:00.000Z","time":"2023-10-18T17:00:00.000Z","reihung":false}},{"station":{"evaNumber":"8002920","name":"Hövelhof","coordinates":{"lng":8.661988,"lat":51.823667},"ril100":"EHOV"},"arrival":{"platform":"1","scheduledTime":"2023-10-18T17:05:00.000Z","time":"2023-10-18T17:05:00.000Z","reihung":false},"departure":{"platform":"1","scheduledTime":"2023-10-18T17:07:00.000Z","time":"2023-10-18T17:07:00.000Z","reihung":false}},{"station":{"evaNumber":"8005370","name":"Paderborn-Schloss Neuhaus","coordinates":{"lng":8.720849,"lat":51.749272},"ril100":"ESNS"},"arrival":{"platform":"1","scheduledTime":"2023-10-18T17:14:00.000Z","time":"2023-10-18T17:14:00.000Z","reihung":false},"departure":{"platform":"1","scheduledTime":"2023-10-18T17:15:00.000Z","time":"2023-10-18T17:15:00.000Z","reihung":false}},{"station":{"evaNumber":"8004745","name":"Paderborn Nord","coordinates":{"lng":8.759035,"lat":51.728084},"ril100":"EPDN"},"arrival":{"platform":"1","scheduledTime":"2023-10-18T17:19:00.000Z","time":"2023-10-18T17:19:00.000Z","reihung":false},"departure":{"platform":"1","scheduledTime":"2023-10-18T17:22:00.000Z","time":"2023-10-18T17:22:00.000Z","reihung":false}},{"station":{"evaNumber":"8004744","name":"Paderborn Kasseler Tor","coordinates":{"lng":8.761471,"lat":51.71621},"ril100":"EPDK"},"arrival":{"platform":"1","scheduledTime":"2023-10-18T17:24:00.000Z","time":"2023-10-18T17:24:00.000Z","reihung":false},"departure":{"platform":"1","scheduledTime":"2023-10-18T17:25:00.000Z","time":"2023-10-18T17:25:00.000Z","reihung":false}},{"station":{"evaNumber":"8000297","name":"Paderborn Hbf","coordinates":{"lng":8.740949,"lat":51.712946},"ril100":"EPD"},"arrival":{"platform":"5","scheduledTime":"2023-10-18T17:27:00.000Z","time":"2023-10-18T17:27:00.000Z","reihung":false}}],"finalDestination":"Paderborn Hbf","jid":"1|301001|5|80|18102023","messages":[{"type":"A","code":"FB","prio":260,"icoX":5,"txtN":"Fahrradmitnahme begrenzt möglich"},{"type":"A","code":"FC","prio":260,"icoX":3,"txtN":"Reservierung kostenlos: Anmeldung Fahrradmitnahme bis 17 Uhr am Vortag"},{"type":"A","code":"K2","prio":300,"icoX":13,"txtN":"nur 2. Klasse"},{"type":"A","code":"RO","prio":560,"icoX":14,"txtN":"Rollstuhlstellplatz"},{"type":"A","code":"NW","prio":560,"icoX":3,"txtN":"NordWestBahn-Servicetelefon: 0541 2002 4321"}],"type":"JNY"}],"segmentTypes":["ICE","NWB"]},{"checksum":"d020ac3a_3","cid":"C-4","date":"2023-10-17T22:00:00.000Z","duration":14400000,"changes":1,"isRideable":true,"arrival":{"platform":"5","scheduledTime":"2023-10-18T18:27:00.000Z","time":"2023-10-18T18:27:00.000Z","reihung":false},"departure":{"platform":"7","scheduledTime":"2023-10-18T14:27:00.000Z","time":"2023-10-18T14:27:00.000Z","reihung":false},"segments":[{"arrival":{"platform":"4","scheduledTime":"2023-10-18T17:14:00.000Z","time":"2023-10-18T17:14:00.000Z","reihung":false},"departure":{"platform":"7","scheduledTime":"2023-10-18T14:27:00.000Z","time":"2023-10-18T14:27:00.000Z","reihung":false},"duration":10020000,"train":{"name":"FLX76336","line":"30","admin":"FLX30","number":"76336","type":"FLX","operator":{"name":"FlixTrain","icoX":17}},"changeDuration":20,"segmentStart":{"name":"Berlin Hbf (tief)","evaNumber":"8098160"},"segmentDestination":{"name":"Bielefeld Hbf","evaNumber":"8000036"},"stops":[{"station":{"evaNumber":"8098160","name":"Berlin Hbf (tief)","coordinates":{"lng":13.368892,"lat":52.52585},"ril100":"BL"},"departure":{"platform":"7","scheduledTime":"2023-10-18T14:27:00.000Z","time":"2023-10-18T14:27:00.000Z","reihung":false},"messages":[{"type":"A","code":"text.journeystop.product.or.direction.changes.stop.message","icoX":3,"txtN":"Verkehrt ab hier als FLX76336 in Richtung Köln Hbf"}]},{"station":{"evaNumber":"8010404","name":"Berlin-Spandau","coordinates":{"lng":13.200947,"lat":52.533787},"ril100":"BSPD"},"arrival":{"platform":"4","scheduledTime":"2023-10-18T14:37:00.000Z","time":"2023-10-18T14:37:00.000Z","reihung":false},"departure":{"platform":"4","scheduledTime":"2023-10-18T14:39:00.000Z","time":"2023-10-18T14:39:00.000Z","reihung":false}},{"station":{"evaNumber":"8010334","name":"Stendal Hbf","coordinates":{"lng":11.854767,"lat":52.594671},"ril100":"LS"},"arrival":{"platform":"1","scheduledTime":"2023-10-18T15:15:00.000Z","time":"2023-10-18T15:15:00.000Z","reihung":false},"departure":{"platform":"1","scheduledTime":"2023-10-18T15:20:00.000Z","time":"2023-10-18T15:20:00.000Z","reihung":false},"messages":[{"type":"A","code":"text.journeystop.product.or.direction.changes.stop.message","icoX":3,"txtN":"Verkehrt ab hier als FLX 1236 in Richtung Köln Hbf"}]},{"station":{"evaNumber":"8000152","name":"Hannover Hbf","coordinates":{"lng":9.741763,"lat":52.377079},"ril100":"HH"},"arrival":{"platform":"9","scheduledTime":"2023-10-18T16:20:00.000Z","time":"2023-10-18T16:20:00.000Z","reihung":false},"departure":{"platform":"9","scheduledTime":"2023-10-18T16:23:00.000Z","time":"2023-10-18T16:23:00.000Z","reihung":false}},{"station":{"evaNumber":"8000036","name":"Bielefeld Hbf","coordinates":{"lng":8.532777,"lat":52.029421},"ril100":"EBILP"},"arrival":{"platform":"4","scheduledTime":"2023-10-18T17:14:00.000Z","time":"2023-10-18T17:14:00.000Z","reihung":false}}],"finalDestination":"Köln Hbf","jid":"1|286106|0|80|18102023","messages":[{"type":"A","code":"DU","prio":110,"icoX":3,"txtN":"DB-Fahrscheine gelten nicht"},{"type":"A","code":"RP","prio":185,"icoX":18,"txtN":"Reservierungspflicht"},{"type":"A","code":"9N","prio":186,"icoX":3,"txtN":"Deutschland-Ticket nicht gültig"},{"type":"A","code":"FN","prio":555,"icoX":3,"txtN":"Einstieg nur mit gültigem FlixTrain- oder FlixBus Ticket"},{"type":"A","code":"FX","prio":560,"icoX":3,"txtN":"Tickets unter www.flixtrain.de"},{"type":"A","code":"FG","prio":603,"icoX":3,"txtN":"Sitzplatzgarantie"},{"type":"A","code":"LS","prio":605,"icoX":3,"txtN":"Laptop-Steckdosen"},{"type":"A","code":"WV","prio":710,"icoX":3,"txtN":"WLAN verfügbar"},{"type":"A","code":"text.journeystop.product.or.direction.changes.journey.message","icoX":3,"txtN":"Verkehrt ab Stendal Hbf als FLX 1236 in Richtung Köln Hbf"}],"type":"JNY"},{"arrival":{"platform":"5","scheduledTime":"2023-10-18T18:27:00.000Z","time":"2023-10-18T18:27:00.000Z","reihung":false},"departure":{"platform":"8","scheduledTime":"2023-10-18T17:34:00.000Z","time":"2023-10-18T17:34:00.000Z","reihung":false},"duration":3180000,"train":{"name":"NWB RB74","line":"RB74","admin":"N2","number":"75480","type":"NWB","operator":{"name":"NordWestBahn","icoX":12}},"segmentStart":{"name":"Bielefeld Hbf","evaNumber":"8000036"},"segmentDestination":{"name":"Paderborn Hbf","evaNumber":"8000297"},"stops":[{"station":{"evaNumber":"8000036","name":"Bielefeld Hbf","coordinates":{"lng":8.532777,"lat":52.029421},"ril100":"EBILP"},"departure":{"platform":"8","scheduledTime":"2023-10-18T17:34:00.000Z","time":"2023-10-18T17:34:00.000Z","reihung":false}},{"station":{"evaNumber":"8000048","name":"Bielefeld-Brackwede","coordinates":{"lng":8.49833,"lat":51.997257},"ril100":"EBWE"},"arrival":{"platform":"3","scheduledTime":"2023-10-18T17:38:00.000Z","time":"2023-10-18T17:38:00.000Z","reihung":false},"departure":{"platform":"3","scheduledTime":"2023-10-18T17:39:00.000Z","time":"2023-10-18T17:39:00.000Z","reihung":false}},{"station":{"evaNumber":"8000956","name":"Bielefeld-Senne","coordinates":{"lng":8.520488,"lat":51.964995},"ril100":"EBIS"},"arrival":{"platform":"1","scheduledTime":"2023-10-18T17:43:00.000Z","time":"2023-10-18T17:43:00.000Z","reihung":false},"departure":{"platform":"1","scheduledTime":"2023-10-18T17:43:00.000Z","time":"2023-10-18T17:43:00.000Z","reihung":false}},{"station":{"evaNumber":"8006466","name":"Bielefeld-Windelsbleiche","coordinates":{"lng":8.534188,"lat":51.955439},"ril100":"EWIL"},"arrival":{"platform":"1","scheduledTime":"2023-10-18T17:45:00.000Z","time":"2023-10-18T17:45:00.000Z","reihung":false},"departure":{"platform":"1","scheduledTime":"2023-10-18T17:45:00.000Z","time":"2023-10-18T17:45:00.000Z","reihung":false}},{"station":{"evaNumber":"8005535","name":"Bielefeld-Sennestadt","coordinates":{"lng":8.567808,"lat":51.940454},"ril100":"ESES"},"arrival":{"platform":"1","scheduledTime":"2023-10-18T17:49:00.000Z","time":"2023-10-18T17:49:00.000Z","reihung":false},"departure":{"platform":"1","scheduledTime":"2023-10-18T17:51:00.000Z","time":"2023-10-18T17:51:00.000Z","reihung":false}},{"station":{"evaNumber":"8005369","name":"Schloß Holte","coordinates":{"lng":8.610452,"lat":51.908696},"ril100":"ESHO"},"arrival":{"platform":"1","scheduledTime":"2023-10-18T17:55:00.000Z","time":"2023-10-18T17:55:00.000Z","reihung":false},"departure":{"platform":"1","scheduledTime":"2023-10-18T17:55:00.000Z","time":"2023-10-18T17:55:00.000Z","reihung":false}},{"station":{"evaNumber":"8002921","name":"Hövelriege","coordinates":{"lng":8.641429,"lat":51.866707},"ril100":"EHVR"},"arrival":{"platform":"1","scheduledTime":"2023-10-18T17:59:00.000Z","time":"2023-10-18T17:59:00.000Z","reihung":false},"departure":{"platform":"1","scheduledTime":"2023-10-18T18:00:00.000Z","time":"2023-10-18T18:00:00.000Z","reihung":false}},{"station":{"evaNumber":"8002920","name":"Hövelhof","coordinates":{"lng":8.661988,"lat":51.823667},"ril100":"EHOV"},"arrival":{"platform":"2","scheduledTime":"2023-10-18T18:05:00.000Z","time":"2023-10-18T18:05:00.000Z","reihung":false},"departure":{"platform":"2","scheduledTime":"2023-10-18T18:06:00.000Z","time":"2023-10-18T18:06:00.000Z","reihung":false}},{"station":{"evaNumber":"8005534","name":"Paderborn-Sennelager","coordinates":{"lng":8.7139,"lat":51.770064},"ril100":"ESEL"},"arrival":{"platform":"1","scheduledTime":"2023-10-18T18:11:00.000Z","time":"2023-10-18T18:11:00.000Z","reihung":false},"departure":{"platform":"1","scheduledTime":"2023-10-18T18:12:00.000Z","time":"2023-10-18T18:12:00.000Z","reihung":false}},{"station":{"evaNumber":"8005370","name":"Paderborn-Schloss Neuhaus","coordinates":{"lng":8.720849,"lat":51.749272},"ril100":"ESNS"},"arrival":{"platform":"1","scheduledTime":"2023-10-18T18:14:00.000Z","time":"2023-10-18T18:14:00.000Z","reihung":false},"departure":{"platform":"1","scheduledTime":"2023-10-18T18:15:00.000Z","time":"2023-10-18T18:15:00.000Z","reihung":false}},{"station":{"evaNumber":"8004745","name":"Paderborn Nord","coordinates":{"lng":8.759035,"lat":51.728084},"ril100":"EPDN"},"arrival":{"platform":"1","scheduledTime":"2023-10-18T18:19:00.000Z","time":"2023-10-18T18:19:00.000Z","reihung":false},"departure":{"platform":"1","scheduledTime":"2023-10-18T18:22:00.000Z","time":"2023-10-18T18:22:00.000Z","reihung":false}},{"station":{"evaNumber":"8004744","name":"Paderborn Kasseler Tor","coordinates":{"lng":8.761471,"lat":51.71621},"ril100":"EPDK"},"arrival":{"platform":"1","scheduledTime":"2023-10-18T18:24:00.000Z","time":"2023-10-18T18:24:00.000Z","reihung":false},"departure":{"platform":"1","scheduledTime":"2023-10-18T18:25:00.000Z","time":"2023-10-18T18:25:00.000Z","reihung":false}},{"station":{"evaNumber":"8000297","name":"Paderborn Hbf","coordinates":{"lng":8.740949,"lat":51.712946},"ril100":"EPD"},"arrival":{"platform":"5","scheduledTime":"2023-10-18T18:27:00.000Z","time":"2023-10-18T18:27:00.000Z","reihung":false}}],"finalDestination":"Paderborn Hbf","jid":"1|301010|0|80|18102023","messages":[{"type":"A","code":"FB","prio":260,"icoX":5,"txtN":"Fahrradmitnahme begrenzt möglich"},{"type":"A","code":"FC","prio":260,"icoX":3,"txtN":"Reservierung kostenlos: Anmeldung Fahrradmitnahme bis 17 Uhr am Vortag"},{"type":"A","code":"K2","prio":300,"icoX":13,"txtN":"nur 2. Klasse"},{"type":"A","code":"RO","prio":560,"icoX":14,"txtN":"Rollstuhlstellplatz"},{"type":"A","code":"NW","prio":560,"icoX":3,"txtN":"NordWestBahn-Servicetelefon: 0541 2002 4321"}],"type":"JNY"}],"segmentTypes":["FLX","NWB"]},{"checksum":"d08be342_3","cid":"C-5","date":"2023-10-17T22:00:00.000Z","duration":15180000,"changes":1,"isRideable":true,"arrival":{"platform":"3","scheduledTime":"2023-10-18T18:46:00.000Z","time":"2023-10-18T18:46:00.000Z","reihung":false},"departure":{"platform":"13","scheduledTime":"2023-10-18T14:33:00.000Z","time":"2023-10-18T14:33:00.000Z","reihung":false},"segments":[{"arrival":{"platform":"12","scheduledTime":"2023-10-18T16:36:00.000Z","time":"2023-10-18T16:36:00.000Z","reihung":false},"departure":{"platform":"13","scheduledTime":"2023-10-18T14:33:00.000Z","time":"2023-10-18T14:33:00.000Z","reihung":false},"duration":7380000,"train":{"name":"IC 140","line":"77","admin":"80","number":"140","type":"IC","operator":{"name":"DB Fernverkehr AG","icoX":2}},"changeDuration":19,"segmentStart":{"name":"Berlin Hbf","evaNumber":"8011160"},"segmentDestination":{"name":"Hannover Hbf","evaNumber":"8000152"},"stops":[{"station":{"evaNumber":"8011160","name":"Berlin Hbf","coordinates":{"lng":13.369629,"lat":52.524924},"ril100":"BLS"},"departure":{"platform":"13","scheduledTime":"2023-10-18T14:33:00.000Z","time":"2023-10-18T14:33:00.000Z","reihung":false}},{"station":{"evaNumber":"8010404","name":"Berlin-Spandau","coordinates":{"lng":13.200947,"lat":52.533787},"ril100":"BSPD"},"departure":{"platform":"4","scheduledTime":"2023-10-18T14:50:00.000Z","time":"2023-10-18T14:50:00.000Z","reihung":false},"auslastung":{"first":2,"second":2}},{"station":{"evaNumber":"8010334","name":"Stendal Hbf","coordinates":{"lng":11.854767,"lat":52.594671},"ril100":"LS"},"arrival":{"platform":"1","scheduledTime":"2023-10-18T15:31:00.000Z","time":"2023-10-18T15:31:00.000Z","reihung":false},"departure":{"platform":"1","scheduledTime":"2023-10-18T15:32:00.000Z","time":"2023-10-18T15:32:00.000Z","reihung":false},"auslastung":{"first":2,"second":2}},{"station":{"evaNumber":"8006552","name":"Wolfsburg Hbf","coordinates":{"lng":10.787757,"lat":52.429495},"ril100":"HWOB"},"arrival":{"platform":"1","scheduledTime":"2023-10-18T16:00:00.000Z","time":"2023-10-18T16:00:00.000Z","reihung":false},"departure":{"platform":"1","scheduledTime":"2023-10-18T16:01:00.000Z","time":"2023-10-18T16:01:00.000Z","reihung":false},"auslastung":{"first":2,"second":2}},{"station":{"evaNumber":"8000152","name":"Hannover Hbf","coordinates":{"lng":9.741763,"lat":52.377079},"ril100":"HH"},"arrival":{"platform":"12","scheduledTime":"2023-10-18T16:36:00.000Z","time":"2023-10-18T16:36:00.000Z","reihung":false}}],"finalDestination":"Amsterdam Centraal","jid":"1|351109|0|80|18102023","auslastung":{"first":2,"second":2},"messages":[{"type":"A","code":"CK","prio":200,"icoX":3,"txtN":"Sicher & kontaktlos ohne Ticketkontrolle reisen mit Komfort Check-in"},{"type":"A","code":"FR","prio":260,"icoX":4,"txtN":"Fahrradmitnahme reservierungspflichtig"},{"type":"A","code":"FB","prio":260,"icoX":5,"txtN":"Fahrradmitnahme begrenzt möglich"},{"type":"A","code":"RE","prio":320,"icoX":3,"txtN":"Bitte reservieren"},{"type":"A","code":"BT","prio":450,"icoX":6,"txtN":"Bordbistro"}],"type":"JNY"},{"arrival":{"platform":"3","scheduledTime":"2023-10-18T18:46:00.000Z","time":"2023-10-18T18:46:00.000Z","reihung":false},"departure":{"platform":"1","scheduledTime":"2023-10-18T16:55:00.000Z","time":"2023-10-18T16:55:00.000Z","reihung":false},"duration":6660000,"train":{"name":"S 5","line":"5","admin":"TDHS","number":"34575","type":"S","operator":{"name":"S-Bahn Hannover (Transdev)","icoX":8}},"segmentStart":{"name":"Hannover Hbf","evaNumber":"8000152"},"segmentDestination":{"name":"Paderborn Hbf","evaNumber":"8000297"},"stops":[{"station":{"evaNumber":"8000152","name":"Hannover Hbf","coordinates":{"lng":9.741763,"lat":52.377079},"ril100":"HH"},"departure":{"platform":"1","scheduledTime":"2023-10-18T16:55:00.000Z","time":"2023-10-18T16:55:00.000Z","reihung":false}},{"station":{"evaNumber":"8002580","name":"Hannover Bismarckstr.","coordinates":{"lng":9.769809,"lat":52.356233},"ril100":"HHBI"},"arrival":{"platform":"1","scheduledTime":"2023-10-18T16:58:00.000Z","time":"2023-10-18T16:58:00.000Z","reihung":false},"departure":{"platform":"1","scheduledTime":"2023-10-18T16:58:00.000Z","time":"2023-10-18T16:58:00.000Z","reihung":false}},{"station":{"evaNumber":"8002586","name":"Hannover-Linden/Fischerhof","coordinates":{"lng":9.723488,"lat":52.352574},"ril100":"HLI R"},"arrival":{"platform":"2","scheduledTime":"2023-10-18T17:02:00.000Z","time":"2023-10-18T17:02:00.000Z","reihung":false},"departure":{"platform":"2","scheduledTime":"2023-10-18T17:03:00.000Z","time":"2023-10-18T17:03:00.000Z","reihung":false}},{"station":{"evaNumber":"8000342","name":"Weetzen","coordinates":{"lng":9.634809,"lat":52.29756},"ril100":"HWEZ"},"arrival":{"platform":"2","scheduledTime":"2023-10-18T17:09:00.000Z","time":"2023-10-18T17:09:00.000Z","reihung":false},"departure":{"platform":"2","scheduledTime":"2023-10-18T17:10:00.000Z","time":"2023-10-18T17:10:00.000Z","reihung":false}},{"station":{"evaNumber":"8002969","name":"Holtensen/Linderte","coordinates":{"lng":9.653237,"lat":52.271977},"ril100":"HHOL"},"arrival":{"platform":"2","scheduledTime":"2023-10-18T17:13:00.000Z","time":"2023-10-18T17:13:00.000Z","reihung":false},"departure":{"platform":"2","scheduledTime":"2023-10-18T17:13:00.000Z","time":"2023-10-18T17:13:00.000Z","reihung":false}},{"station":{"evaNumber":"8000872","name":"Bennigsen","coordinates":{"lng":9.666379,"lat":52.240964},"ril100":"HBEN"},"arrival":{"platform":"2","scheduledTime":"2023-10-18T17:17:00.000Z","time":"2023-10-18T17:17:00.000Z","reihung":false},"departure":{"platform":"2","scheduledTime":"2023-10-18T17:17:00.000Z","time":"2023-10-18T17:17:00.000Z","reihung":false}},{"station":{"evaNumber":"8001741","name":"Völksen/Eldagsen","coordinates":{"lng":9.626287,"lat":52.211821},"ril100":"HELV"},"arrival":{"platform":"1","scheduledTime":"2023-10-18T17:21:00.000Z","time":"2023-10-18T17:21:00.000Z","reihung":false},"departure":{"platform":"1","scheduledTime":"2023-10-18T17:22:00.000Z","time":"2023-10-18T17:22:00.000Z","reihung":false}},{"station":{"evaNumber":"8005638","name":"Springe","coordinates":{"lng":9.556783,"lat":52.215174},"ril100":"HSPR"},"arrival":{"platform":"1","scheduledTime":"2023-10-18T17:25:00.000Z","time":"2023-10-18T17:25:00.000Z","reihung":false},"departure":{"platform":"1","scheduledTime":"2023-10-18T17:26:00.000Z","time":"2023-10-18T17:26:00.000Z","reihung":false}},{"station":{"evaNumber":"8000725","name":"Bad Münder(Deister)","coordinates":{"lng":9.46779,"lat":52.17723},"ril100":"HMDD"},"arrival":{"platform":"2","scheduledTime":"2023-10-18T17:32:00.000Z","time":"2023-10-18T17:32:00.000Z","reihung":false},"departure":{"platform":"2","scheduledTime":"2023-10-18T17:32:00.000Z","time":"2023-10-18T17:32:00.000Z","reihung":false}},{"station":{"evaNumber":"8000148","name":"Hameln","coordinates":{"lng":9.375372,"lat":52.101703},"ril100":"HHM"},"arrival":{"platform":"3","scheduledTime":"2023-10-18T17:40:00.000Z","time":"2023-10-18T17:40:00.000Z","reihung":false},"departure":{"platform":"3","scheduledTime":"2023-10-18T17:44:00.000Z","time":"2023-10-18T17:44:00.000Z","reihung":false}},{"station":{"evaNumber":"8001777","name":"Emmerthal","coordinates":{"lng":9.382878,"lat":52.046087},"ril100":"HEMT"},"arrival":{"platform":"1","scheduledTime":"2023-10-18T17:49:00.000Z","time":"2023-10-18T17:49:00.000Z","reihung":false},"departure":{"platform":"1","scheduledTime":"2023-10-18T17:49:00.000Z","time":"2023-10-18T17:49:00.000Z","reihung":false}},{"station":{"evaNumber":"8000735","name":"Bad Pyrmont","coordinates":{"lng":9.272895,"lat":51.974416}},"arrival":{"platform":"2","scheduledTime":"2023-10-18T17:58:00.000Z","time":"2023-10-18T17:58:00.000Z","reihung":false},"departure":{"platform":"2","scheduledTime":"2023-10-18T18:00:00.000Z","time":"2023-10-18T18:00:00.000Z","reihung":false}},{"station":{"evaNumber":"8003784","name":"Lügde","coordinates":{"lng":9.250844,"lat":51.959287}},"arrival":{"platform":"1","scheduledTime":"2023-10-18T18:02:00.000Z","time":"2023-10-18T18:02:00.000Z","reihung":false},"departure":{"platform":"1","scheduledTime":"2023-10-18T18:02:00.000Z","time":"2023-10-18T18:02:00.000Z","reihung":false}},{"station":{"evaNumber":"8005340","name":"Schieder","coordinates":{"lng":9.153122,"lat":51.922368},"ril100":"HSCI"},"arrival":{"platform":"2","scheduledTime":"2023-10-18T18:09:00.000Z","time":"2023-10-18T18:09:00.000Z","reihung":false},"departure":{"platform":"2","scheduledTime":"2023-10-18T18:10:00.000Z","time":"2023-10-18T18:10:00.000Z","reihung":false}},{"station":{"evaNumber":"8005708","name":"Steinheim(Westf)","coordinates":{"lng":9.088616,"lat":51.868379}},"arrival":{"platform":"3","scheduledTime":"2023-10-18T18:16:00.000Z","time":"2023-10-18T18:16:00.000Z","reihung":false},"departure":{"platform":"3","scheduledTime":"2023-10-18T18:17:00.000Z","time":"2023-10-18T18:17:00.000Z","reihung":false}},{"station":{"evaNumber":"8000004","name":"Altenbeken","coordinates":{"lng":8.942793,"lat":51.766486},"ril100":"HA"},"arrival":{"platform":"2","scheduledTime":"2023-10-18T18:33:00.000Z","time":"2023-10-18T18:33:00.000Z","reihung":false},"departure":{"platform":"2","scheduledTime":"2023-10-18T18:33:00.000Z","time":"2023-10-18T18:33:00.000Z","reihung":false}},{"station":{"evaNumber":"8000297","name":"Paderborn Hbf","coordinates":{"lng":8.740949,"lat":51.712946},"ril100":"EPD"},"arrival":{"platform":"3","scheduledTime":"2023-10-18T18:46:00.000Z","time":"2023-10-18T18:46:00.000Z","reihung":false}}],"finalDestination":"Paderborn Hbf","jid":"1|1153788|0|80|18102023","messages":[{"type":"A","code":"FB","prio":260,"icoX":5,"txtN":"Fahrradmitnahme begrenzt möglich"},{"type":"A","code":"AO","prio":350,"icoX":3,"txtN":"Konsum alkoholischer Getränke im Zug verboten"},{"type":"A","code":"EA","prio":560,"icoX":3,"txtN":"Behindertengerechte Ausstattung"}],"type":"JNY"}],"segmentTypes":["IC","S"]},{"checksum":"ae3edb75_3","cid":"C-6","date":"2023-10-17T22:00:00.000Z","duration":13260000,"changes":1,"isRideable":true,"arrival":{"platform":"5","scheduledTime":"2023-10-18T18:27:00.000Z","time":"2023-10-18T18:27:00.000Z","reihung":false},"departure":{"platform":"14","scheduledTime":"2023-10-18T14:46:00.000Z","time":"2023-10-18T14:46:00.000Z","reihung":false},"segments":[{"arrival":{"platform":"4","scheduledTime":"2023-10-18T17:20:00.000Z","time":"2023-10-18T17:20:00.000Z","reihung":false},"departure":{"platform":"14","scheduledTime":"2023-10-18T14:46:00.000Z","time":"2023-10-18T14:46:00.000Z","reihung":false},"duration":9240000,"train":{"name":"ICE 544","line":"10","admin":"80","number":"544","type":"ICE","operator":{"name":"DB Fernverkehr AG","icoX":2}},"changeDuration":14,"segmentStart":{"name":"Berlin Hbf","evaNumber":"8011160"},"segmentDestination":{"name":"Bielefeld Hbf","evaNumber":"8000036"},"stops":[{"station":{"evaNumber":"8011160","name":"Berlin Hbf","coordinates":{"lng":13.369629,"lat":52.524924},"ril100":"BLS"},"departure":{"platform":"14","scheduledTime":"2023-10-18T14:46:00.000Z","time":"2023-10-18T14:46:00.000Z","reihung":false}},{"station":{"evaNumber":"8010404","name":"Berlin-Spandau","coordinates":{"lng":13.200947,"lat":52.533787},"ril100":"BSPD"},"departure":{"platform":"4","scheduledTime":"2023-10-18T15:01:00.000Z","time":"2023-10-18T15:01:00.000Z","reihung":false},"auslastung":{"first":3,"second":2}},{"station":{"evaNumber":"8000152","name":"Hannover Hbf","coordinates":{"lng":9.741763,"lat":52.377079},"ril100":"HH"},"arrival":{"platform":"12","scheduledTime":"2023-10-18T16:28:00.000Z","time":"2023-10-18T16:28:00.000Z","reihung":false},"departure":{"platform":"12","scheduledTime":"2023-10-18T16:31:00.000Z","time":"2023-10-18T16:31:00.000Z","reihung":false},"auslastung":{"first":2,"second":2}},{"station":{"evaNumber":"8000036","name":"Bielefeld Hbf","coordinates":{"lng":8.532777,"lat":52.029421},"ril100":"EBILP"},"arrival":{"platform":"4","scheduledTime":"2023-10-18T17:20:00.000Z","time":"2023-10-18T17:20:00.000Z","reihung":false}}],"finalDestination":"Düsseldorf Hbf","jid":"1|205991|0|80|18102023","auslastung":{"first":3,"second":2},"messages":[{"type":"A","code":"CK","prio":200,"icoX":3,"txtN":"Sicher & kontaktlos ohne Ticketkontrolle reisen mit Komfort Check-in"},{"type":"A","code":"BR","prio":450,"icoX":10,"txtN":"Bordrestaurant"}],"type":"JNY"},{"arrival":{"platform":"5","scheduledTime":"2023-10-18T18:27:00.000Z","time":"2023-10-18T18:27:00.000Z","reihung":false},"departure":{"platform":"8","scheduledTime":"2023-10-18T17:34:00.000Z","time":"2023-10-18T17:34:00.000Z","reihung":false},"duration":3180000,"train":{"name":"NWB RB74","line":"RB74","admin":"N2","number":"75480","type":"NWB","operator":{"name":"NordWestBahn","icoX":12}},"segmentStart":{"name":"Bielefeld Hbf","evaNumber":"8000036"},"segmentDestination":{"name":"Paderborn Hbf","evaNumber":"8000297"},"stops":[{"station":{"evaNumber":"8000036","name":"Bielefeld Hbf","coordinates":{"lng":8.532777,"lat":52.029421},"ril100":"EBILP"},"departure":{"platform":"8","scheduledTime":"2023-10-18T17:34:00.000Z","time":"2023-10-18T17:34:00.000Z","reihung":false}},{"station":{"evaNumber":"8000048","name":"Bielefeld-Brackwede","coordinates":{"lng":8.49833,"lat":51.997257},"ril100":"EBWE"},"arrival":{"platform":"3","scheduledTime":"2023-10-18T17:38:00.000Z","time":"2023-10-18T17:38:00.000Z","reihung":false},"departure":{"platform":"3","scheduledTime":"2023-10-18T17:39:00.000Z","time":"2023-10-18T17:39:00.000Z","reihung":false}},{"station":{"evaNumber":"8000956","name":"Bielefeld-Senne","coordinates":{"lng":8.520488,"lat":51.964995},"ril100":"EBIS"},"arrival":{"platform":"1","scheduledTime":"2023-10-18T17:43:00.000Z","time":"2023-10-18T17:43:00.000Z","reihung":false},"departure":{"platform":"1","scheduledTime":"2023-10-18T17:43:00.000Z","time":"2023-10-18T17:43:00.000Z","reihung":false}},{"station":{"evaNumber":"8006466","name":"Bielefeld-Windelsbleiche","coordinates":{"lng":8.534188,"lat":51.955439},"ril100":"EWIL"},"arrival":{"platform":"1","scheduledTime":"2023-10-18T17:45:00.000Z","time":"2023-10-18T17:45:00.000Z","reihung":false},"departure":{"platform":"1","scheduledTime":"2023-10-18T17:45:00.000Z","time":"2023-10-18T17:45:00.000Z","reihung":false}},{"station":{"evaNumber":"8005535","name":"Bielefeld-Sennestadt","coordinates":{"lng":8.567808,"lat":51.940454},"ril100":"ESES"},"arrival":{"platform":"1","scheduledTime":"2023-10-18T17:49:00.000Z","time":"2023-10-18T17:49:00.000Z","reihung":false},"departure":{"platform":"1","scheduledTime":"2023-10-18T17:51:00.000Z","time":"2023-10-18T17:51:00.000Z","reihung":false}},{"station":{"evaNumber":"8005369","name":"Schloß Holte","coordinates":{"lng":8.610452,"lat":51.908696},"ril100":"ESHO"},"arrival":{"platform":"1","scheduledTime":"2023-10-18T17:55:00.000Z","time":"2023-10-18T17:55:00.000Z","reihung":false},"departure":{"platform":"1","scheduledTime":"2023-10-18T17:55:00.000Z","time":"2023-10-18T17:55:00.000Z","reihung":false}},{"station":{"evaNumber":"8002921","name":"Hövelriege","coordinates":{"lng":8.641429,"lat":51.866707},"ril100":"EHVR"},"arrival":{"platform":"1","scheduledTime":"2023-10-18T17:59:00.000Z","time":"2023-10-18T17:59:00.000Z","reihung":false},"departure":{"platform":"1","scheduledTime":"2023-10-18T18:00:00.000Z","time":"2023-10-18T18:00:00.000Z","reihung":false}},{"station":{"evaNumber":"8002920","name":"Hövelhof","coordinates":{"lng":8.661988,"lat":51.823667},"ril100":"EHOV"},"arrival":{"platform":"2","scheduledTime":"2023-10-18T18:05:00.000Z","time":"2023-10-18T18:05:00.000Z","reihung":false},"departure":{"platform":"2","scheduledTime":"2023-10-18T18:06:00.000Z","time":"2023-10-18T18:06:00.000Z","reihung":false}},{"station":{"evaNumber":"8005534","name":"Paderborn-Sennelager","coordinates":{"lng":8.7139,"lat":51.770064},"ril100":"ESEL"},"arrival":{"platform":"1","scheduledTime":"2023-10-18T18:11:00.000Z","time":"2023-10-18T18:11:00.000Z","reihung":false},"departure":{"platform":"1","scheduledTime":"2023-10-18T18:12:00.000Z","time":"2023-10-18T18:12:00.000Z","reihung":false}},{"station":{"evaNumber":"8005370","name":"Paderborn-Schloss Neuhaus","coordinates":{"lng":8.720849,"lat":51.749272},"ril100":"ESNS"},"arrival":{"platform":"1","scheduledTime":"2023-10-18T18:14:00.000Z","time":"2023-10-18T18:14:00.000Z","reihung":false},"departure":{"platform":"1","scheduledTime":"2023-10-18T18:15:00.000Z","time":"2023-10-18T18:15:00.000Z","reihung":false}},{"station":{"evaNumber":"8004745","name":"Paderborn Nord","coordinates":{"lng":8.759035,"lat":51.728084},"ril100":"EPDN"},"arrival":{"platform":"1","scheduledTime":"2023-10-18T18:19:00.000Z","time":"2023-10-18T18:19:00.000Z","reihung":false},"departure":{"platform":"1","scheduledTime":"2023-10-18T18:22:00.000Z","time":"2023-10-18T18:22:00.000Z","reihung":false}},{"station":{"evaNumber":"8004744","name":"Paderborn Kasseler Tor","coordinates":{"lng":8.761471,"lat":51.71621},"ril100":"EPDK"},"arrival":{"platform":"1","scheduledTime":"2023-10-18T18:24:00.000Z","time":"2023-10-18T18:24:00.000Z","reihung":false},"departure":{"platform":"1","scheduledTime":"2023-10-18T18:25:00.000Z","time":"2023-10-18T18:25:00.000Z","reihung":false}},{"station":{"evaNumber":"8000297","name":"Paderborn Hbf","coordinates":{"lng":8.740949,"lat":51.712946},"ril100":"EPD"},"arrival":{"platform":"5","scheduledTime":"2023-10-18T18:27:00.000Z","time":"2023-10-18T18:27:00.000Z","reihung":false}}],"finalDestination":"Paderborn Hbf","jid":"1|301010|0|80|18102023","messages":[{"type":"A","code":"FB","prio":260,"icoX":5,"txtN":"Fahrradmitnahme begrenzt möglich"},{"type":"A","code":"FC","prio":260,"icoX":3,"txtN":"Reservierung kostenlos: Anmeldung Fahrradmitnahme bis 17 Uhr am Vortag"},{"type":"A","code":"K2","prio":300,"icoX":13,"txtN":"nur 2. Klasse"},{"type":"A","code":"RO","prio":560,"icoX":14,"txtN":"Rollstuhlstellplatz"},{"type":"A","code":"NW","prio":560,"icoX":3,"txtN":"NordWestBahn-Servicetelefon: 0541 2002 4321"}],"type":"JNY"}],"segmentTypes":["ICE","NWB"]}]}