{"context":{"earlier":"3|OB|MT#14#451589#451589#451765#451765#0#0#485#451576#1#0#27#0#0#-2147483648#1#2|PDH#bbe10b32f5270e429a5a473728022d1b|RD#18102023|RT#141653|US#0|RS#INIT","later":"3|OF|MT#14#451654#451654#451825#451825#0#0#485#451590#7#0#27#0#0#-2147483648#1#2|PDH#bbe10b32f5270e429a5a473728022d1b|RD#18102023|RT#141653|US#0|RS#INIT"},"routes":[{"checksum":"46b8ab0b_3","cid":"C-0","date":"2023-10-17T22:00:00.000Z","duration":10560000,"changes":1,"isRideable":true,"arrival":{"platform":"5","scheduledTime":"2023-10-18T15:25:00.000Z","time":"2023-10-18T15:25:00.000Z","reihung":false},"departure":{"platform":"2","scheduledTime":"2023-10-18T12:29:00.000Z","time":"2023-10-18T12:29:00.000Z","reihung":false},"segments":[{"arrival":{"platform":"13","scheduledTime":"2023-10-18T13:42:00.000Z","time":"2023-10-18T13:42:00.000Z","reihung":false},"departure":{"platform":"2","scheduledTime":"2023-10-18T12:29:00.000Z","time":"2023-10-18T12:29:00.000Z","reihung":false},"duration":4380000,"wings":[{"train":{"name":"ICE 1711","line":"28","admin":"80","number":"1711","type":"ICE","operator":{"name":"DB Fernverkehr AG","icoX":1}},"segmentStart":{"name":"Berlin Hbf (tief)","evaNumber":"8098160"},"segmentDestination":{"name":"Leipzig Hbf","evaNumber":"8010205"},"stops":[{"station":{"evaNumber":"8098160","name":"Berlin Hbf (tief)","coordinates":{"lng":13.368892,"lat":52.52585},"ril100":"BL"},"departure":{"platform":"2","scheduledTime":"2023-10-18T12:29:00.000Z","time":"2023-10-18T12:29:00.000Z","reihung":false}},{"station":{"evaNumber":"8011113","name":"Berlin Südkreuz","coordinates":{"lng":13.365863,"lat":52.47623},"ril100":"BPAF"},"arrival":{"platform":"5","scheduledTime":"2023-10-18T12:34:00.000Z","time":"2023-10-18T12:34:00.000Z","reihung":false},"auslastung":{"first":2,"second":2}},{"station":{"evaNumber":"8010222","name":"Lutherstadt Wittenberg Hbf","coordinates":{"lng":12.661999,"lat":51.867579},"ril100":"LW"},"arrival":{"platform":"2","scheduledTime":"2023-10-18T13:10:00.000Z","time":"2023-10-18T13:10:00.000Z","reihung":false},"auslastung":{"first":3,"second":2}},{"station":{"evaNumber":"8010205","name":"Leipzig Hbf","coordinates":{"lng":12.381167,"lat":51.345081},"ril100":"LL"},"arrival":{"platform":"13","scheduledTime":"2023-10-18T13:42:00.000Z","time":"2023-10-18T13:42:00.000Z","reihung":false}}],"finalDestination":"München Hbf","jid":"1|199289|0|80|18102023","auslastung":{"first":3,"second":2}}],"train":{"name":"ICE 1601","line":"28","admin":"80","number":"1601","type":"ICE","operator":{"name":"DB Fernverkehr AG","icoX":1}},"changeDuration":40,"segmentStart":{"name":"Berlin Hbf (tief)","evaNumber":"8098160"},"segmentDestination":{"name":"Leipzig Hbf","evaNumber":"8010205"},"stops":[{"station":{"evaNumber":"8098160","name":"Berlin Hbf (tief)","coordinates":{"lng":13.368892,"lat":52.52585},"ril100":"BL"},"departure":{"platform":"2","scheduledTime":"2023-10-18T12:29:00.000Z","time":"2023-10-18T12:29:00.000Z","reihung":false}},{"station":{"evaNumber":"8011113","name":"Berlin Südkreuz","coordinates":{"lng":13.365863,"lat":52.47623},"ril100":"BPAF"},"arrival":{"platform":"5","scheduledTime":"2023-10-18T12:34:00.000Z","time":"2023-10-18T12:34:00.000Z","reihung":false},"departure":{"platform":"5","scheduledTime":"2023-10-18T12:36:00.000Z","time":"2023-10-18T12:36:00.000Z","reihung":false},"auslastung":{"first":2,"second":2}},{"station":{"evaNumber":"8010222","name":"Lutherstadt Wittenberg Hbf","coordinates":{"lng":12.661999,"lat":51.867579},"ril100":"LW"},"arrival":{"platform":"2","scheduledTime":"2023-10-18T13:10:00.000Z","time":"2023-10-18T13:10:00.000Z","reihung":false},"departure":{"platform":"2","scheduledTime":"2023-10-18T13:11:00.000Z","time":"2023-10-18T13:11:00.000Z","reihung":false},"auslastung":{"first":3,"second":2}},{"station":{"evaNumber":"8010205","name":"Leipzig Hbf","coordinates":{"lng":12.381167,"lat":51.345081},"ril100":"LL"},"arrival":{"platform":"13","scheduledTime":"2023-10-18T13:42:00.000Z","time":"2023-10-18T13:42:00.000Z","reihung":false}}],"finalDestination":"München Hbf","jid":"1|198466|0|80|18102023","auslastung":{"first":3,"second":2},"messages":[{"type":"A","code":"CK","prio":200,"icoX":2,"txtN":"Sicher & kontaktlos ohne Ticketkontrolle reisen mit Komfort Check-in"},{"type":"A","code":"FR","prio":260,"icoX":3,"txtN":"Fahrradmitnahme reservierungspflichtig"},{"type":"A","code":"FB","prio":260,"icoX":4,"txtN":"Fahrradmitnahme begrenzt möglich"},{"type":"A","code":"BR","prio":450,"icoX":5,"txtN":"Bordrestaurant"}],"type":"JNY"},{"arrival":{"platform":"5","scheduledTime":"2023-10-18T15:25:00.000Z","time":"2023-10-18T15:25:00.000Z","reihung":false},"departure":{"platform":"23","scheduledTime":"2023-10-18T14:22:00.000Z","time":"2023-10-18T14:22:00.000Z","reihung":false},"duration":3780000,"train":{"name":"RE 6","line":"6","admin":"CXRE","number":"74182","type":"RE","operator":{"name":"Mitteldeutsche Regiobahn","icoX":7}},"segmentStart":{"name":"Leipzig Hbf","evaNumber":"8010205"},"segmentDestination":{"name":"Chemnitz Hbf","evaNumber":"8010184"},"stops":[{"station":{"evaNumber":"8010205","name":"Leipzig Hbf","coordinates":{"lng":12.381167,"lat":51.345081},"ril100":"LL"},"departure":{"platform":"23","scheduledTime":"2023-10-18T14:22:00.000Z","time":"2023-10-18T14:22:00.000Z","reihung":false}},{"station":{"evaNumber":"8011077","name":"Bad Lausick","coordinates":{"lng":12.648578,"lat":51.14392},"ril100":"LBLS"},"arrival":{"platform":"1","scheduledTime":"2023-10-18T14:46:00.000Z","time":"2023-10-18T14:46:00.000Z","reihung":false},"departure":{"platform":"1","scheduledTime":"2023-10-18T14:47:00.000Z","time":"2023-10-18T14:47:00.000Z","reihung":false}},{"station":{"evaNumber":"8010122","name":"Geithain","coordinates":{"lng":12.696841,"lat":51.05846},"ril100":"LGH"},"arrival":{"platform":"2","scheduledTime":"2023-10-18T14:55:00.000Z","time":"2023-10-18T14:55:00.000Z","reihung":false},"departure":{"platform":"2","scheduledTime":"2023-10-18T14:56:00.000Z","time":"2023-10-18T14:56:00.000Z","reihung":false}},{"station":{"evaNumber":"8010238","name":"Narsdorf","coordinates":{"lng":12.716455,"lat":51.010763},"ril100":"LNA"},"arrival":{"platform":"1","scheduledTime":"2023-10-18T15:01:00.000Z","time":"2023-10-18T15:01:00.000Z","reihung":false},"departure":{"platform":"1","scheduledTime":"2023-10-18T15:02:00.000Z","time":"2023-10-18T15:02:00.000Z","reihung":false}},{"station":{"evaNumber":"8011297","name":"Burgstädt","coordinates":{"lng":12.81255,"lat":50.915486}},"arrival":{"platform":"2","scheduledTime":"2023-10-18T15:12:00.000Z","time":"2023-10-18T15:12:00.000Z","reihung":false},"departure":{"platform":"2","scheduledTime":"2023-10-18T15:13:00.000Z","time":"2023-10-18T15:13:00.000Z","reihung":false}},{"station":{"evaNumber":"8010184","name":"Chemnitz Hbf","coordinates":{"lng":12.930713,"lat":50.838332},"ril100":"DC"},"arrival":{"platform":"5","scheduledTime":"2023-10-18T15:25:00.000Z","time":"2023-10-18T15:25:00.000Z","reihung":false}}],"finalDestination":"Chemnitz Hbf","jid":"1|300553|9|80|18102023","messages":[{"type":"A","code":"FB","prio":260,"icoX":4,"txtN":"Fahrradmitnahme begrenzt möglich"}],"type":"JNY"}],"segmentTypes":["ICE","RE"]},{"checksum":"66e41a3d_3","cid":"C-1","date":"2023-10-17T22:00:00.000Z","duration":13980000,"changes":2,"isRideable":true,"arrival":{"platform":"5","scheduledTime":"2023-10-18T16:25:00.000Z","time":"2023-10-18T16:25:00.000Z","reihung":false},"departure":{"platform":"4","scheduledTime":"2023-10-18T12:32:00.000Z","time":"2023-10-18T12:32:00.000Z","reihung":false},"segments":[{"arrival":{"platform":"1","scheduledTime":"2023-10-18T13:59:00.000Z","time":"2023-10-18T13:59:00.000Z","reihung":false},"departure":{"platform":"4","scheduledTime":"2023-10-18T12:32:00.000Z","time":"2023-10-18T12:32:00.000Z","reihung":false},"duration":5220000,"train":{"name":"RE 3","line":"3","admin":"800158","number":"3349","type":"RE","operator":{"name":"DB Regio AG Nordost","icoX":10}},"changeDuration":5,"segmentStart":{"name":"Berlin Hbf (tief)","evaNumber":"8098160"},"segmentDestination":{"name":"Lutherstadt Wittenberg Hbf","evaNumber":"8010222"},"stops":[{"station":{"evaNumber":"8098160","name":"Berlin Hbf (tief)","coordinates":{"lng":13.368892,"lat":52.52585},"ril100":"BL"},"departure":{"platform":"4","scheduledTime":"2023-10-18T12:32:00.000Z","time":"2023-10-18T12:32:00.000Z","reihung":false}},{"station":{"evaNumber":"8011118","name":"Berlin Potsdamer Platz","coordinates":{"lng":13.375904,"lat":52.509436},"ril100":"BPOF"},"arrival":{"platform":"1","scheduledTime":"2023-10-18T12:35:00.000Z","time":"2023-10-18T12:35:00.000Z","reihung":false},"departure":{"platform":"1","scheduledTime":"2023-10-18T12:36:00.000Z","time":"2023-10-18T12:36:00.000Z","reihung":false}},{"station":{"evaNumber":"8011113","name":"Berlin Südkreuz","coordinates":{"lng":13.365863,"lat":52.47623},"ril100":"BPAF"},"arrival":{"platform":"3","scheduledTime":"2023-10-18T12:39:00.000Z","time":"2023-10-18T12:39:00.000Z","reihung":false},"departure":{"platform":"3","scheduledTime":"2023-10-18T12:41:00.000Z","time":"2023-10-18T12:41:00.000Z","reihung":false}},{"station":{"evaNumber":"8011041","name":"Berlin-Lichterfelde Ost","coordinates":{"lng":13.328054,"lat":52.429126},"ril100":"BLIH"},"arrival":{"platform":"3","scheduledTime":"2023-10-18T12:46:00.000Z","time":"2023-10-18T12:46:00.000Z","reihung":false},"departure":{"platform":"3","scheduledTime":"2023-10-18T12:46:00.000Z","time":"2023-10-18T12:46:00.000Z","reihung":false}},{"station":{"evaNumber":"8013100","name":"Teltow","coordinates":{"lng":13.299837,"lat":52.388504},"ril100":"BTL"},"arrival":{"platform":"1","scheduledTime":"2023-10-18T12:50:00.000Z","time":"2023-10-18T12:50:00.000Z","reihung":false},"departure":{"platform":"1","scheduledTime":"2023-10-18T12:51:00.000Z","time":"2023-10-18T12:51:00.000Z","reihung":false}},{"station":{"evaNumber":"8011740","name":"Großbeeren","coordinates":{"lng":13.283171,"lat":52.347126}},"arrival":{"platform":"1","scheduledTime":"2023-10-18T12:55:00.000Z","time":"2023-10-18T12:55:00.000Z","reihung":false},"departure":{"platform":"1","scheduledTime":"2023-10-18T12:55:00.000Z","time":"2023-10-18T12:55:00.000Z","reihung":false}},{"station":{"evaNumber":"8080170","name":"Birkengrund","coordinates":{"lng":13.272195,"lat":52.316626},"ril100":"BBSH"},"arrival":{"platform":"1","scheduledTime":"2023-10-18T12:59:00.000Z","time":"2023-10-18T12:59:00.000Z","reihung":false},"departure":{"platform":"1","scheduledTime":"2023-10-18T13:00:00.000Z","time":"2023-10-18T13:00:00.000Z","reihung":false}},{"station":{"evaNumber":"8010215","name":"Ludwigsfelde","coordinates":{"lng":13.267602,"lat":52.299214},"ril100":"BLF"},"arrival":{"platform":"1","scheduledTime":"2023-10-18T13:03:00.000Z","time":"2023-10-18T13:03:00.000Z","reihung":false},"departure":{"platform":"1","scheduledTime":"2023-10-18T13:03:00.000Z","time":"2023-10-18T13:03:00.000Z","reihung":false}},{"station":{"evaNumber":"8012260","name":"Luckenwalde","coordinates":{"lng":13.160352,"lat":52.090574},"ril100":"BLD"},"arrival":{"platform":"3","scheduledTime":"2023-10-18T13:16:00.000Z","time":"2023-10-18T13:16:00.000Z","reihung":false},"departure":{"platform":"3","scheduledTime":"2023-10-18T13:16:00.000Z","time":"2023-10-18T13:16:00.000Z","reihung":false}},{"station":{"evaNumber":"8010182","name":"Jüterbog","coordinates":{"lng":13.05409,"lat":51.997563},"ril100":"BJUE"},"arrival":{"platform":"1","scheduledTime":"2023-10-18T13:23:00.000Z","time":"2023-10-18T13:23:00.000Z","reihung":false},"departure":{"platform":"1","scheduledTime":"2023-10-18T13:24:00.000Z","time":"2023-10-18T13:24:00.000Z","reihung":false}},{"station":{"evaNumber":"8012487","name":"Niedergörsdorf","coordinates":{"lng":12.979273,"lat":51.967979},"ril100":"LNF"},"arrival":{"platform":"1","scheduledTime":"2023-10-18T13:29:00.000Z","time":"2023-10-18T13:29:00.000Z","reihung":false},"departure":{"platform":"1","scheduledTime":"2023-10-18T13:29:00.000Z","time":"2023-10-18T13:29:00.000Z","reihung":false}},{"station":{"evaNumber":"8011210","name":"Blönsdorf","coordinates":{"lng":12.895314,"lat":51.955421}},"arrival":{"platform":"2","scheduledTime":"2023-10-18T13:33:00.000Z","time":"2023-10-18T13:33:00.000Z","reihung":false},"departure":{"platform":"2","scheduledTime":"2023-10-18T13:34:00.000Z","time":"2023-10-18T13:34:00.000Z","reihung":false}},{"station":{"evaNumber":"8013371","name":"Zahna","coordinates":{"lng":12.781115,"lat":51.920022},"ril100":"LZA"},"arrival":{"platform":"3","scheduledTime":"2023-10-18T13:40:00.000Z","time":"2023-10-18T13:40:00.000Z","reihung":false},"departure":{"platform":"3","scheduledTime":"2023-10-18T13:49:00.000Z","time":"2023-10-18T13:49:00.000Z","reihung":false}},{"station":{"evaNumber":"8011290","name":"Bülzig","coordinates":{"lng":12.752017,"lat":51.894367},"ril100":"LBZG"},"arrival":{"platform":"1","scheduledTime":"2023-10-18T13:52:00.000Z","time":"2023-10-18T13:52:00.000Z","reihung":false},"departure":{"platform":"1","scheduledTime":"2023-10-18T13:52:00.000Z","time":"2023-10-18T13:52:00.000Z","reihung":false}},{"station":{"evaNumber":"8013418","name":"Zörnigall","coordinates":{"lng":12.731485,"lat":51.882932},"ril100":"LZGL"},"arrival":{"platform":"1","scheduledTime":"2023-10-18T13:55:00.000Z","time":"2023-10-18T13:55:00.000Z","reihung":false},"departure":{"platform":"1","scheduledTime":"2023-10-18T13:55:00.000Z","time":"2023-10-18T13:55:00.000Z","reihung":false}},{"station":{"evaNumber":"8010222","name":"Lutherstadt Wittenberg Hbf","coordinates":{"lng":12.661999,"lat":51.867579},"ril100":"LW"},"arrival":{"platform":"1","scheduledTime":"2023-10-18T13:59:00.000Z","time":"2023-10-18T13:59:00.000Z","reihung":false}}],"finalDestination":"Lutherstadt Wittenberg Hbf","jid":"1|218642|0|80|18102023","messages":[{"type":"A","code":"FB","prio":260,"icoX":4,"txtN":"Fahrradmitnahme begrenzt möglich"},{"type":"A","code":"EH","prio":560,"icoX":2,"txtN":"Fahrzeuggebundene Einstiegshilfe vorhanden"},{"type":"A","code":"SN","prio":580,"icoX":13,"txtN":"SnackPoint/Imbiss im Zug"}],"type":"JNY"},{"arrival":{"platform":"1","scheduledTime":"2023-10-18T15:13:00.000Z","time":"2023-10-18T15:13:00.000Z","reihung":false},"departure":{"platform":"3","scheduledTime":"2023-10-18T14:04:00.000Z","time":"2023-10-18T14:04:00.000Z","reihung":false},"duration":4140000,"train":{"name":"S 2","line":"2","admin":"8004A9","number":"37255","type":"S","operator":{"name":"DB Regio AG Südost","icoX":15}},"changeDuration":9,"segmentStart":{"name":"Lutherstadt Wittenberg Hbf","evaNumber":"8010222"},"segmentDestination":{"name":"Leipzig Hbf (tief)","evaNumber":"8098205"},"stops":[{"station":{"evaNumber":"8010222","name":"Lutherstadt Wittenberg Hbf","coordinates":{"lng":12.661999,"lat":51.867579},"ril100":"LW"},"departure":{"platform":"3","scheduledTime":"2023-10-18T14:04:00.000Z","time":"2023-10-18T14:04:00.000Z","reihung":false}},{"station":{"evaNumber":"8010281","name":"Pratau","coordinates":{"lng":12.634842,"lat":51.842724}},"arrival":{"platform":"1","scheduledTime":"2023-10-18T14:06:00.000Z","time":"2023-10-18T14:06:00.000Z","reihung":false},"departure":{"platform":"1","scheduledTime":"2023-10-18T14:07:00.000Z","time":"2023-10-18T14:07:00.000Z","reihung":false}},{"station":{"evaNumber":"8011150","name":"Bergwitz","coordinates":{"lng":12.576628,"lat":51.803881},"ril100":"LBWZ"},"arrival":{"platform":"1","scheduledTime":"2023-10-18T14:10:00.000Z","time":"2023-10-18T14:10:00.000Z","reihung":false},"departure":{"platform":"1","scheduledTime":"2023-10-18T14:11:00.000Z","time":"2023-10-18T14:11:00.000Z","reihung":false}},{"station":{"evaNumber":"8012704","name":"Radis","coordinates":{"lng":12.503941,"lat":51.754584},"ril100":"LRA"},"arrival":{"platform":"1","scheduledTime":"2023-10-18T14:15:00.000Z","time":"2023-10-18T14:15:00.000Z","reihung":false},"departure":{"platform":"1","scheduledTime":"2023-10-18T14:28:00.000Z","time":"2023-10-18T14:28:00.000Z","reihung":false}},{"station":{"evaNumber":"8011683","name":"Gräfenhainichen","coordinates":{"lng":12.460164,"lat":51.724803},"ril100":"LG"},"arrival":{"platform":"1","scheduledTime":"2023-10-18T14:31:00.000Z","time":"2023-10-18T14:31:00.000Z","reihung":false},"departure":{"platform":"1","scheduledTime":"2023-10-18T14:31:00.000Z","time":"2023-10-18T14:31:00.000Z","reihung":false}},{"station":{"evaNumber":"8011296","name":"Burgkemnitz","coordinates":{"lng":12.407999,"lat":51.689404},"ril100":"LBGK"},"arrival":{"platform":"1","scheduledTime":"2023-10-18T14:35:00.000Z","time":"2023-10-18T14:35:00.000Z","reihung":false},"departure":{"platform":"1","scheduledTime":"2023-10-18T14:35:00.000Z","time":"2023-10-18T14:35:00.000Z","reihung":false}},{"station":{"evaNumber":"8012409","name":"Muldenstein","coordinates":{"lng":12.354181,"lat":51.66765},"ril100":"LMD"},"arrival":{"platform":"1","scheduledTime":"2023-10-18T14:39:00.000Z","time":"2023-10-18T14:39:00.000Z","reihung":false},"departure":{"platform":"1","scheduledTime":"2023-10-18T14:39:00.000Z","time":"2023-10-18T14:39:00.000Z","reihung":false}},{"station":{"evaNumber":"8010050","name":"Bitterfeld","coordinates":{"lng":12.316966,"lat":51.622911},"ril100":"LBT"},"arrival":{"platform":"3","scheduledTime":"2023-10-18T14:43:00.000Z","time":"2023-10-18T14:43:00.000Z","reihung":false},"departure":{"platform":"3","scheduledTime":"2023-10-18T14:45:00.000Z","time":"2023-10-18T14:45:00.000Z","reihung":false}},{"station":{"evaNumber":"8012629","name":"Petersroda","coordinates":{"lng":12.285369,"lat":51.570045},"ril100":"LPRO"},"arrival":{"platform":"1","scheduledTime":"2023-10-18T14:49:00.000Z","time":"2023-10-18T14:49:00.000Z","reihung":false},"departure":{"platform":"1","scheduledTime":"2023-10-18T14:49:00.000Z","time":"2023-10-18T14:49:00.000Z","reihung":false}},{"station":{"evaNumber":"8010076","name":"Delitzsch unt Bf","coordinates":{"lng":12.345713,"lat":51.524497},"ril100":"LDL"},"arrival":{"platform":"1","scheduledTime":"2023-10-18T14:53:00.000Z","time":"2023-10-18T14:53:00.000Z","reihung":false},"departure":{"platform":"1","scheduledTime":"2023-10-18T14:54:00.000Z","time":"2023-10-18T14:54:00.000Z","reihung":false}},{"station":{"evaNumber":"8013428","name":"Zschortau","coordinates":{"lng":12.361498,"lat":51.48329},"ril100":"LZS"},"arrival":{"platform":"1","scheduledTime":"2023-10-18T14:57:00.000Z","time":"2023-10-18T14:57:00.000Z","reihung":false},"departure":{"platform":"1","scheduledTime":"2023-10-18T14:58:00.000Z","time":"2023-10-18T14:58:00.000Z","reihung":false}},{"station":{"evaNumber":"8012697","name":"Rackwitz(Leipzig)","coordinates":{"lng":12.375099,"lat":51.440286},"ril100":"LRK"},"arrival":{"platform":"2","scheduledTime":"2023-10-18T15:01:00.000Z","time":"2023-10-18T15:01:00.000Z","reihung":false},"departure":{"platform":"2","scheduledTime":"2023-10-18T15:01:00.000Z","time":"2023-10-18T15:01:00.000Z","reihung":false}},{"station":{"evaNumber":"8012478","name":"Leipzig Messe","coordinates":{"lng":12.389383,"lat":51.396167},"ril100":"LNW"},"arrival":{"platform":"1","scheduledTime":"2023-10-18T15:05:00.000Z","time":"2023-10-18T15:05:00.000Z","reihung":false},"departure":{"platform":"1","scheduledTime":"2023-10-18T15:05:00.000Z","time":"2023-10-18T15:05:00.000Z","reihung":false}},{"station":{"evaNumber":"8012200","name":"Leipzig Essener Straße","coordinates":{"lng":12.396988,"lat":51.376354},"ril100":"LLES"},"arrival":{"platform":"1","scheduledTime":"2023-10-18T15:07:00.000Z","time":"2023-10-18T15:07:00.000Z","reihung":false},"departure":{"platform":"1","scheduledTime":"2023-10-18T15:08:00.000Z","time":"2023-10-18T15:08:00.000Z","reihung":false}},{"station":{"evaNumber":"8012196","name":"Leipzig Nord","coordinates":{"lng":12.40141,"lat":51.365612}},"arrival":{"platform":"1","scheduledTime":"2023-10-18T15:09:00.000Z","time":"2023-10-18T15:09:00.000Z","reihung":false},"departure":{"platform":"1","scheduledTime":"2023-10-18T15:10:00.000Z","time":"2023-10-18T15:10:00.000Z","reihung":false}},{"station":{"evaNumber":"8098205","name":"Leipzig Hbf (tief)","coordinates":{"lng":12.379836,"lat":51.345216},"ril100":"LL  T"},"arrival":{"platform":"1","scheduledTime":"2023-10-18T15:13:00.000Z","time":"2023-10-18T15:13:00.000Z","reihung":false}}],"finalDestination":"Leipzig-Stötteritz","jid":"1|245259|1|80|18102023","messages":[{"type":"A","code":"FB","prio":260,"icoX":4,"txtN":"Fahrradmitnahme begrenzt möglich"},{"type":"A","code":"EH","prio":560,"icoX":2,"txtN":"Fahrzeuggebundene Einstiegshilfe vorhanden"},{"type":"A","code":"LS","prio":605,"icoX":2,"txtN":"Laptop-Steckdosen"},{"type":"A","code":"WV","prio":710,"icoX":2,"txtN":"WLAN verfügbar"}],"type":"JNY"},{"type":"WALK","train":{"name":"Fußweg","type":"Fußweg"},"arrival":{"scheduledTime":"2023-10-18T15:22:00.000Z","time":"2023-10-18T15:22:00.000Z","reihung":false},"departure":{"scheduledTime":"2023-10-18T15:13:00.000Z","time":"2023-10-18T15:13:00.000Z","reihung":false},"duration":540000,"segmentStart":{"evaNumber":"8098205","name":"Leipzig Hbf (tief)","coordinates":{"lng":12.379836,"lat":51.345216},"ril100":"LL  T"},"segmentDestination":{"evaNumber":"8010205","name":"Leipzig Hbf","coordinates":{"lng":12.381167,"lat":51.345081},"ril100":"LL"}},{"arrival":{"platform":"5","scheduledTime":"2023-10-18T16:25:00.000Z","time":"2023-10-18T16:25:00.000Z","reihung":false},"departure":{"platform":"23","scheduledTime":"2023-10-18T15:22:00.000Z","time":"2023-10-18T15:22:00.000Z","reihung":false},"duration":3780000,"train":{"name":"RE 6","line":"6","admin":"CXRE","number":"74184","type":"RE","operator":{"name":"Mitteldeutsche Regiobahn","icoX":7}},"segmentStart":{"name":"Leipzig Hbf","evaNumber":"8010205"},"segmentDestination":{"name":"Chemnitz Hbf","evaNumber":"8010184"},"stops":[{"station":{"evaNumber":"8010205","name":"Leipzig Hbf","coordinates":{"lng":12.381167,"lat":51.345081},"ril100":"LL"},"departure":{"platform":"23","scheduledTime":"2023-10-18T15:22:00.000Z","time":"2023-10-18T15:22:00.000Z","reihung":false}},{"station":{"evaNumber":"8011077","name":"Bad Lausick","coordinates":{"lng":12.648578,"lat":51.14392},"ril100":"LBLS"},"arrival":{"platform":"1","scheduledTime":"2023-10-18T15:46:00.000Z","time":"2023-10-18T15:46:00.000Z","reihung":false},"departure":{"platform":"1","scheduledTime":"2023-10-18T15:47:00.000Z","time":"2023-10-18T15:47:00.000Z","reihung":false}},{"station":{"evaNumber":"8010122","name":"Geithain","coordinates":{"lng":12.696841,"lat":51.05846},"ril100":"LGH"},"arrival":{"platform":"2","scheduledTime":"2023-10-18T15:55:00.000Z","time":"2023-10-18T15:55:00.000Z","reihung":false},"departure":{"platform":"2","scheduledTime":"2023-10-18T15:56:00.000Z","time":"2023-10-18T15:56:00.000Z","reihung":false}},{"station":{"evaNumber":"8010238","name":"Narsdorf","coordinates":{"lng":12.716455,"lat":51.010763},"ril100":"LNA"},"arrival":{"platform":"1","scheduledTime":"2023-10-18T16:01:00.000Z","time":"2023-10-18T16:01:00.000Z","reihung":false},"departure":{"platform":"1","scheduledTime":"2023-10-18T16:02:00.000Z","time":"2023-10-18T16:02:00.000Z","reihung":false}},{"station":{"evaNumber":"8011297","name":"Burgstädt","coordinates":{"lng":12.81255,"lat":50.915486}},"arrival":{"platform":"2","scheduledTime":"2023-10-18T16:12:00.000Z","time":"2023-10-18T16:12:00.000Z","reihung":false},"departure":{"platform":"2","scheduledTime":"2023-10-18T16:13:00.000Z","time":"2023-10-18T16:13:00.000Z","reihung":false}},{"station":{"evaNumber":"8010184","name":"Chemnitz Hbf","coordinates":{"lng":12.930713,"lat":50.838332},"ril100":"DC"},"arrival":{"platform":"5","scheduledTime":"2023-10-18T16:25:00.000Z","time":"2023-10-18T16:25:00.000Z","reihung":false}}],"finalDestination":"Chemnitz Hbf","jid":"1|300553|10|80|18102023","messages":[{"type":"A","code":"FB","prio":260,"icoX":4,"txtN":"Fahrradmitnahme begrenzt möglich"}],"type":"JNY"}],"segmentTypes":["RE","S","Fußweg","RE"]},{"checksum":"872c8abd_3","cid":"C-2","date":"2023-10-17T22:00:00.000Z","duration":13200000,"changes":1,"isRideable":true,"arrival":{"platform":"12","scheduledTime":"2023-10-18T16:25:00.000Z","time":"2023-10-18T16:25:00.000Z","reihung":false},"departure":{"platform":"2","scheduledTime":"2023-10-18T12:45:00.000Z","time":"2023-10-18T12:45:00.000Z","reihung":false},"segments":[{"arrival":{"platform":"1","scheduledTime":"2023-10-18T14:50:00.000Z","time":"2023-10-18T14:50:00.000Z","reihung":false},"departure":{"platform":"2","scheduledTime":"2023-10-18T12:45:00.000Z","time":"2023-10-18T12:45:00.000Z","reihung":false},"duration":7500000,"train":{"name":"EC 2577","line":"27","admin":"80","number":"2577","type":"EC","operator":{"name":"DB Fernverkehr AG","icoX":1}},"changeDuration":17,"segmentStart":{"name":"Berlin Hbf (tief)","evaNumber":"8098160"},"segmentDestination":{"name":"Dresden Hbf","evaNumber":"8010085"},"stops":[{"station":{"evaNumber":"8098160","name":"Berlin Hbf (tief)","coordinates":{"lng":13.368892,"lat":52.52585},"ril100":"BL"},"departure":{"platform":"2","scheduledTime":"2023-10-18T12:45:00.000Z","time":"2023-10-18T12:45:00.000Z","reihung":false}},{"station":{"evaNumber":"8011113","name":"Berlin Südkreuz","coordinates":{"lng":13.365863,"lat":52.47623},"ril100":"BPAF"},"departure":{"platform":"3","scheduledTime":"2023-10-18T12:52:00.000Z","time":"2023-10-18T12:52:00.000Z","reihung":false},"auslastung":{"first":1,"second":1}},{"station":{"evaNumber":"8010089","name":"Dresden-Neustadt","coordinates":{"lng":13.740524,"lat":51.065912},"ril100":"DN"},"arrival":{"platform":"8","scheduledTime":"2023-10-18T14:43:00.000Z","time":"2023-10-18T14:43:00.000Z","reihung":false}},{"station":{"evaNumber":"8010085","name":"Dresden Hbf","coordinates":{"lng":13.731409,"lat":51.040221},"ril100":"DH"},"arrival":{"platform":"1","scheduledTime":"2023-10-18T14:50:00.000Z","time":"2023-10-18T14:50:00.000Z","reihung":false}}],"finalDestination":"Dresden Hbf","jid":"1|204049|0|80|18102023","auslastung":{"first":1,"second":1},"messages":[{"type":"A","code":"EZ","prio":400,"icoX":2,"txtN":"Ersatzzug"}],"type":"JNY"},{"arrival":{"platform":"12","scheduledTime":"2023-10-18T16:25:00.000Z","time":"2023-10-18T16:25:00.000Z","reihung":false},"departure":{"platform":"9","scheduledTime":"2023-10-18T15:07:00.000Z","time":"2023-10-18T15:07:00.000Z","reihung":false},"duration":4680000,"train":{"name":"RB 30","line":"30","admin":"CXRB","number":"74068","type":"RB","operator":{"name":"Mitteldeutsche Regiobahn","icoX":7}},"segmentStart":{"name":"Dresden Hbf","evaNumber":"8010085"},"segmentDestination":{"name":"Chemnitz Hbf","evaNumber":"8010184"},"stops":[{"station":{"evaNumber":"8010085","name":"Dresden Hbf","coordinates":{"lng":13.731409,"lat":51.040221},"ril100":"DH"},"departure":{"platform":"9","scheduledTime":"2023-10-18T15:07:00.000Z","time":"2023-10-18T15:07:00.000Z","reihung":false}},{"station":{"evaNumber":"8013476","name":"Dresden-Plauen","coordinates":{"lng":13.7033,"lat":51.029784},"ril100":"DPL"},"arrival":{"platform":"2","scheduledTime":"2023-10-18T15:11:00.000Z","time":"2023-10-18T15:11:00.000Z","reihung":false},"departure":{"platform":"2","scheduledTime":"2023-10-18T15:11:00.000Z","time":"2023-10-18T15:11:00.000Z","reihung":false}},{"station":{"evaNumber":"8013445","name":"Freital-Potschappel","coordinates":{"lng":13.661635,"lat":51.01337},"ril100":"DPA"},"arrival":{"platform":"2","scheduledTime":"2023-10-18T15:15:00.000Z","time":"2023-10-18T15:15:00.000Z","reihung":false},"departure":{"platform":"2","scheduledTime":"2023-10-18T15:15:00.000Z","time":"2023-10-18T15:15:00.000Z","reihung":false}},{"station":{"evaNumber":"8011569","name":"Freital-Deuben","coordinates":{"lng":13.646506,"lat":50.999347},"ril100":"DFD"},"arrival":{"platform":"2","scheduledTime":"2023-10-18T15:17:00.000Z","time":"2023-10-18T15:17:00.000Z","reihung":false},"departure":{"platform":"2","scheduledTime":"2023-10-18T15:18:00.000Z","time":"2023-10-18T15:18:00.000Z","reihung":false}},{"station":{"evaNumber":"8010116","name":"Freital-Hainsberg","coordinates":{"lng":13.63767,"lat":50.988551},"ril100":"DFH"},"arrival":{"platform":"2","scheduledTime":"2023-10-18T15:19:00.000Z","time":"2023-10-18T15:19:00.000Z","reihung":false},"departure":{"platform":"2","scheduledTime":"2023-10-18T15:20:00.000Z","time":"2023-10-18T15:20:00.000Z","reihung":false}},{"station":{"evaNumber":"8011570","name":"Freital-Hainsberg West","coordinates":{"lng":13.62237,"lat":50.981099},"ril100":"DHGW"},"arrival":{"platform":"2","scheduledTime":"2023-10-18T15:22:00.000Z","time":"2023-10-18T15:22:00.000Z","reihung":false},"departure":{"platform":"2","scheduledTime":"2023-10-18T15:22:00.000Z","time":"2023-10-18T15:22:00.000Z","reihung":false}},{"station":{"evaNumber":"8013114","name":"Tharandt","coordinates":{"lng":13.591951,"lat":50.98295},"ril100":"DTH"},"arrival":{"platform":"1","scheduledTime":"2023-10-18T15:25:00.000Z","time":"2023-10-18T15:25:00.000Z","reihung":false},"departure":{"platform":"1","scheduledTime":"2023-10-18T15:26:00.000Z","time":"2023-10-18T15:26:00.000Z","reihung":false}},{"station":{"evaNumber":"8011451","name":"Edle Krone","coordinates":{"lng":13.583528,"lat":50.950095},"ril100":"DKR"},"arrival":{"platform":"1","scheduledTime":"2023-10-18T15:30:00.000Z","time":"2023-10-18T15:30:00.000Z","reihung":false},"departure":{"platform":"1","scheduledTime":"2023-10-18T15:30:00.000Z","time":"2023-10-18T15:30:00.000Z","reihung":false}},{"station":{"evaNumber":"8012044","name":"Klingenberg-Colmnitz","coordinates":{"lng":13.50187,"lat":50.926282},"ril100":"DKC"},"arrival":{"platform":"3","scheduledTime":"2023-10-18T15:37:00.000Z","time":"2023-10-18T15:37:00.000Z","reihung":false},"departure":{"platform":"3","scheduledTime":"2023-10-18T15:38:00.000Z","time":"2023-10-18T15:38:00.000Z","reihung":false}},{"station":{"evaNumber":"8012483","name":"Niederbobritzsch","coordinates":{"lng":13.441309,"lat":50.901185},"ril100":"DNBO"},"arrival":{"platform":"1","scheduledTime":"2023-10-18T15:41:00.000Z","time":"2023-10-18T15:41:00.000Z","reihung":false},"departure":{"platform":"1","scheduledTime":"2023-10-18T15:42:00.000Z","time":"2023-10-18T15:42:00.000Z","reihung":false}},{"station":{"evaNumber":"8012408","name":"Muldenhütten","coordinates":{"lng":13.389055,"lat":50.904897},"ril100":"DMH"},"arrival":{"platform":"1","scheduledTime":"2023-10-18T15:46:00.000Z","time":"2023-10-18T15:46:00.000Z","reihung":false},"departure":{"platform":"1","scheduledTime":"2023-10-18T15:46:00.000Z","time":"2023-10-18T15:46:00.000Z","reihung":false}},{"station":{"evaNumber":"8010115","name":"Freiberg(Sachs)","coordinates":{"lng":13.344568,"lat":50.908475},"ril100":"DFR"},"arrival":{"platform":"1","scheduledTime":"2023-10-18T15:50:00.000Z","time":"2023-10-18T15:50:00.000Z","reihung":false},"departure":{"platform":"1","scheduledTime":"2023-10-18T15:51:00.000Z","time":"2023-10-18T15:51:00.000Z","reihung":false}},{"station":{"evaNumber":"8012037","name":"Kleinschirma","coordinates":{"lng":13.281319,"lat":50.902866},"ril100":"DKMA"},"arrival":{"platform":"1","scheduledTime":"2023-10-18T15:55:00.000Z","time":"2023-10-18T15:55:00.000Z","reihung":false},"departure":{"platform":"1","scheduledTime":"2023-10-18T15:56:00.000Z","time":"2023-10-18T15:56:00.000Z","reihung":false}},{"station":{"evaNumber":"8011556","name":"Frankenstein(Sachs)","coordinates":{"lng":13.228238,"lat":50.902524},"ril100":"DFRS"},"arrival":{"platform":"1","scheduledTime":"2023-10-18T15:59:00.000Z","time":"2023-10-18T15:59:00.000Z","reihung":false},"departure":{"platform":"1","scheduledTime":"2023-10-18T15:59:00.000Z","time":"2023-10-18T15:59:00.000Z","reihung":false}},{"station":{"evaNumber":"8012550","name":"Oederan","coordinates":{"lng":13.176047,"lat":50.857335},"ril100":"DOR"},"arrival":{"platform":"1","scheduledTime":"2023-10-18T16:05:00.000Z","time":"2023-10-18T16:05:00.000Z","reihung":false},"departure":{"platform":"1","scheduledTime":"2023-10-18T16:05:00.000Z","time":"2023-10-18T16:05:00.000Z","reihung":false}},{"station":{"evaNumber":"8011529","name":"Falkenau(Sachs)Süd","coordinates":{"lng":13.109634,"lat":50.849299},"ril100":"DFUS"},"arrival":{"platform":"1","scheduledTime":"2023-10-18T16:10:00.000Z","time":"2023-10-18T16:10:00.000Z","reihung":false},"departure":{"platform":"1","scheduledTime":"2023-10-18T16:11:00.000Z","time":"2023-10-18T16:11:00.000Z","reihung":false}},{"station":{"evaNumber":"8010108","name":"Flöha","coordinates":{"lng":13.074738,"lat":50.854746}},"arrival":{"platform":"3","scheduledTime":"2023-10-18T16:13:00.000Z","time":"2023-10-18T16:13:00.000Z","reihung":false},"departure":{"platform":"3","scheduledTime":"2023-10-18T16:14:00.000Z","time":"2023-10-18T16:14:00.000Z","reihung":false}},{"station":{"evaNumber":"8010253","name":"Niederwiesa","coordinates":{"lng":13.023392,"lat":50.862675},"ril100":"DNR"},"arrival":{"platform":"1","scheduledTime":"2023-10-18T16:17:00.000Z","time":"2023-10-18T16:17:00.000Z","reihung":false},"departure":{"platform":"1","scheduledTime":"2023-10-18T16:17:00.000Z","time":"2023-10-18T16:17:00.000Z","reihung":false}},{"station":{"evaNumber":"8013450","name":"Chemnitz-Hilbersdorf","coordinates":{"lng":12.953761,"lat":50.861947},"ril100":"DCHP"},"arrival":{"platform":"1","scheduledTime":"2023-10-18T16:21:00.000Z","time":"2023-10-18T16:21:00.000Z","reihung":false},"departure":{"platform":"1","scheduledTime":"2023-10-18T16:22:00.000Z","time":"2023-10-18T16:22:00.000Z","reihung":false}},{"station":{"evaNumber":"8010184","name":"Chemnitz Hbf","coordinates":{"lng":12.930713,"lat":50.838332},"ril100":"DC"},"arrival":{"platform":"12","scheduledTime":"2023-10-18T16:25:00.000Z","time":"2023-10-18T16:25:00.000Z","reihung":false}}],"finalDestination":"Chemnitz Hbf","jid":"1|300266|2|80|18102023","messages":[{"type":"A","code":"FB","prio":260,"icoX":4,"txtN":"Fahrradmitnahme begrenzt möglich"},{"type":"M","code":"","icoX":19,"txtS":"RB 74068: Dresden Hbf->Chemnitz Hbf: Information.","txtN":"Bitte beachten Sie, dass der Bahnhof Chemnitz-Siegmar nicht barrierefrei ist. Mobilitätseingeschränkte Fahrgäste bitten wir sich bitte unter info@mitteldeutsche-regiobahn.de anmelden","sIdx":1}],"type":"JNY"}],"segmentTypes":["EC","RB"]},{"checksum":"60ca7d1c_3","cid":"C-3","date":"2023-10-17T22:00:00.000Z","duration":15060000,"changes":2,"isRideable":true,"arrival":{"platform":"5","scheduledTime":"2023-10-18T17:25:00.000Z","time":"2023-10-18T17:25:00.000Z","reihung":false},"departure":{"platform":"13","scheduledTime":"2023-10-18T13:14:00.000Z","time":"2023-10-18T13:14:00.000Z","reihung":false},"segments":[{"arrival":{"platform":"6","scheduledTime":"2023-10-18T14:53:00.000Z","time":"2023-10-18T14:53:00.000Z","reihung":false},"departure":{"platform":"13","scheduledTime":"2023-10-18T13:14:00.000Z","time":"2023-10-18T13:14:00.000Z","reihung":false},"duration":5940000,"train":{"name":"RE 7","line":"7","admin":"800165","number":"3727","type":"RE","operator":{"name":"DB Regio AG Nordost","icoX":10}},"changeDuration":18,"segmentStart":{"name":"Berlin Hbf","evaNumber":"8011160"},"segmentDestination":{"name":"Dessau Hbf","evaNumber":"8010077"},"stops":[{"station":{"evaNumber":"8011160","name":"Berlin Hbf","coordinates":{"lng":13.369629,"lat":52.524924},"ril100":"BLS"},"departure":{"platform":"13","scheduledTime":"2023-10-18T13:14:00.000Z","time":"2023-10-18T13:14:00.000Z","reihung":false}},{"station":{"evaNumber":"8010406","name":"Berlin Zoologischer Garten","coordinates":{"lng":13.332414,"lat":52.507242},"ril100":"BZOO"},"arrival":{"platform":"3","scheduledTime":"2023-10-18T13:19:00.000Z","time":"2023-10-18T13:19:00.000Z","reihung":false},"departure":{"platform":"3","scheduledTime":"2023-10-18T13:20:00.000Z","time":"2023-10-18T13:20:00.000Z","reihung":false}},{"station":{"evaNumber":"8010403","name":"Berlin-Charlottenburg","coordinates":{"lng":13.302049,"lat":52.504195},"ril100":"BCHB"},"arrival":{"platform":"4","scheduledTime":"2023-10-18T13:23:00.000Z","time":"2023-10-18T13:23:00.000Z","reihung":false},"departure":{"platform":"4","scheduledTime":"2023-10-18T13:24:00.000Z","time":"2023-10-18T13:24:00.000Z","reihung":false}},{"station":{"evaNumber":"8010405","name":"Berlin-Wannsee","coordinates":{"lng":13.179696,"lat":52.420955},"ril100":"BWS"},"arrival":{"platform":"5","scheduledTime":"2023-10-18T13:33:00.000Z","time":"2023-10-18T13:33:00.000Z","reihung":false},"departure":{"platform":"5","scheduledTime":"2023-10-18T13:34:00.000Z","time":"2023-10-18T13:34:00.000Z","reihung":false}},{"station":{"evaNumber":"8011430","name":"Potsdam Medienstadt Babelsberg","coordinates":{"lng":13.121941,"lat":52.382436},"ril100":"BDW"},"arrival":{"platform":"1","scheduledTime":"2023-10-18T13:38:00.000Z","time":"2023-10-18T13:38:00.000Z","reihung":false},"departure":{"platform":"1","scheduledTime":"2023-10-18T13:39:00.000Z","time":"2023-10-18T13:39:00.000Z","reihung":false}},{"station":{"evaNumber":"8012733","name":"Potsdam-Rehbrücke","coordinates":{"lng":13.098308,"lat":52.358471},"ril100":"BRC"},"arrival":{"platform":"1","scheduledTime":"2023-10-18T13:42:00.000Z","time":"2023-10-18T13:42:00.000Z","reihung":false},"departure":{"platform":"1","scheduledTime":"2023-10-18T13:43:00.000Z","time":"2023-10-18T13:43:00.000Z","reihung":false}},{"station":{"evaNumber":"8010378","name":"Wilhelmshorst","coordinates":{"lng":13.068293,"lat":52.331818},"ril100":"BWHO"},"arrival":{"platform":"1","scheduledTime":"2023-10-18T13:46:00.000Z","time":"2023-10-18T13:46:00.000Z","reihung":false},"departure":{"platform":"1","scheduledTime":"2023-10-18T13:46:00.000Z","time":"2023-10-18T13:46:00.000Z","reihung":false}},{"station":{"evaNumber":"8010233","name":"Michendorf","coordinates":{"lng":13.029918,"lat":52.315952},"ril100":"BMIP"},"arrival":{"platform":"1","scheduledTime":"2023-10-18T13:49:00.000Z","time":"2023-10-18T13:49:00.000Z","reihung":false},"departure":{"platform":"1","scheduledTime":"2023-10-18T13:50:00.000Z","time":"2023-10-18T13:50:00.000Z","reihung":false}},{"station":{"evaNumber":"8013492","name":"Seddin","coordinates":{"lng":12.984954,"lat":52.291672},"ril100":"BSE"},"arrival":{"platform":"1","scheduledTime":"2023-10-18T13:54:00.000Z","time":"2023-10-18T13:54:00.000Z","reihung":false},"departure":{"platform":"1","scheduledTime":"2023-10-18T13:55:00.000Z","time":"2023-10-18T13:55:00.000Z","reihung":false}},{"station":{"evaNumber":"8013467","name":"Beelitz-Heilstätten","coordinates":{"lng":12.926048,"lat":52.262385},"ril100":"BBEL"},"arrival":{"platform":"1","scheduledTime":"2023-10-18T13:58:00.000Z","time":"2023-10-18T13:58:00.000Z","reihung":false},"departure":{"platform":"1","scheduledTime":"2023-10-18T13:59:00.000Z","time":"2023-10-18T13:59:00.000Z","reihung":false}},{"station":{"evaNumber":"8011238","name":"Borkheide","coordinates":{"lng":12.854404,"lat":52.230761},"ril100":"BBK"},"arrival":{"platform":"1","scheduledTime":"2023-10-18T14:03:00.000Z","time":"2023-10-18T14:03:00.000Z","reihung":false},"departure":{"platform":"1","scheduledTime":"2023-10-18T14:03:00.000Z","time":"2023-10-18T14:03:00.000Z","reihung":false}},{"station":{"evaNumber":"8011271","name":"Brück(Mark)","coordinates":{"lng":12.75857,"lat":52.186867},"ril100":"BBRK"},"arrival":{"platform":"1","scheduledTime":"2023-10-18T14:08:00.000Z","time":"2023-10-18T14:08:00.000Z","reihung":false},"departure":{"platform":"1","scheduledTime":"2023-10-18T14:08:00.000Z","time":"2023-10-18T14:08:00.000Z","reihung":false}},{"station":{"evaNumber":"8011100","name":"Baitz","coordinates":{"lng":12.685128,"lat":52.164133}},"arrival":{"platform":"1","scheduledTime":"2023-10-18T14:12:00.000Z","time":"2023-10-18T14:12:00.000Z","reihung":false},"departure":{"platform":"1","scheduledTime":"2023-10-18T14:13:00.000Z","time":"2023-10-18T14:13:00.000Z","reihung":false}},{"station":{"evaNumber":"8010031","name":"Bad Belzig","coordinates":{"lng":12.595092,"lat":52.135853},"ril100":"BBIG"},"arrival":{"platform":"1","scheduledTime":"2023-10-18T14:17:00.000Z","time":"2023-10-18T14:17:00.000Z","reihung":false},"departure":{"platform":"1","scheduledTime":"2023-10-18T14:19:00.000Z","time":"2023-10-18T14:19:00.000Z","reihung":false}},{"station":{"evaNumber":"8010376","name":"Wiesenburg(Mark)","coordinates":{"lng":12.431632,"lat":52.098746},"ril100":"BWG"},"arrival":{"platform":"1","scheduledTime":"2023-10-18T14:26:00.000Z","time":"2023-10-18T14:26:00.000Z","reihung":false},"departure":{"platform":"1","scheduledTime":"2023-10-18T14:26:00.000Z","time":"2023-10-18T14:26:00.000Z","reihung":false}},{"station":{"evaNumber":"8012322","name":"Medewitz(Mark)","coordinates":{"lng":12.3919,"lat":52.060658},"ril100":"BMZ"},"arrival":{"platform":"1","scheduledTime":"2023-10-18T14:30:00.000Z","time":"2023-10-18T14:30:00.000Z","reihung":false},"departure":{"platform":"1","scheduledTime":"2023-10-18T14:31:00.000Z","time":"2023-10-18T14:31:00.000Z","reihung":false}},{"station":{"evaNumber":"8011952","name":"Jeber-Bergfrieden","coordinates":{"lng":12.349632,"lat":51.984717}},"arrival":{"platform":"2","scheduledTime":"2023-10-18T14:37:00.000Z","time":"2023-10-18T14:37:00.000Z","reihung":false},"departure":{"platform":"2","scheduledTime":"2023-10-18T14:38:00.000Z","time":"2023-10-18T14:38:00.000Z","reihung":false}},{"station":{"evaNumber":"8010302","name":"Roßlau(Elbe)","coordinates":{"lng":12.237087,"lat":51.884308},"ril100":"LR"},"arrival":{"platform":"2","scheduledTime":"2023-10-18T14:47:00.000Z","time":"2023-10-18T14:47:00.000Z","reihung":false},"departure":{"platform":"2","scheduledTime":"2023-10-18T14:48:00.000Z","time":"2023-10-18T14:48:00.000Z","reihung":false}},{"station":{"evaNumber":"8010077","name":"Dessau Hbf","coordinates":{"lng":12.23493,"lat":51.839964},"ril100":"LD"},"arrival":{"platform":"6","scheduledTime":"2023-10-18T14:53:00.000Z","time":"2023-10-18T14:53:00.000Z","reihung":false}}],"finalDestination":"Dessau Hbf","jid":"1|219526|0|80|18102023","messages":[{"type":"A","code":"FB","prio":260,"icoX":4,"txtN":"Fahrradmitnahme begrenzt möglich"},{"type":"A","code":"EH","prio":560,"icoX":2,"txtN":"Fahrzeuggebundene Einstiegshilfe vorhanden"},{"type":"A","code":"WV","prio":710,"icoX":2,"txtN":"WLAN verfügbar"},{"type":"M","code":"","icoX":19,"txtS":"RE 3727: Potsdam Medienstadt Babelsberg->Potsdam-Rehbrücke: Information.","txtN":"Erfahrungsgemäß hat dieser Zug eine hohe Auslastung.","sIdx":0}],"type":"JNY"},{"arrival":{"platform":"10","scheduledTime":"2023-10-18T15:56:00.000Z","time":"2023-10-18T15:56:00.000Z","reihung":false},"departure":{"platform":"3","scheduledTime":"2023-10-18T15:11:00.000Z","time":"2023-10-18T15:11:00.000Z","reihung":false},"duration":2700000,"train":{"name":"RE 13","line":"13","admin":"8004A9","number":"16123","type":"RE","operator":{"name":"DB Regio AG Südost","icoX":15}},"changeDuration":26,"segmentStart":{"name":"Dessau Hbf","evaNumber":"8010077"},"segmentDestination":{"name":"Leipzig Hbf","evaNumber":"8010205"},"stops":[{"station":{"evaNumber":"8010077","name":"Dessau Hbf","coordinates":{"lng":12.23493,"lat":51.839964},"ril100":"LD"},"departure":{"platform":"3","scheduledTime":"2023-10-18T15:11:00.000Z","time":"2023-10-18T15:11:00.000Z","reihung":false}},{"station":{"evaNumber":"8013335","name":"Wolfen(Bitterfeld)","coordinates":{"lng":12.279526,"lat":51.661151},"ril100":"LWO"},"arrival":{"platform":"1","scheduledTime":"2023-10-18T15:23:00.000Z","time":"2023-10-18T15:23:00.000Z","reihung":false},"departure":{"platform":"1","scheduledTime":"2023-10-18T15:24:00.000Z","time":"2023-10-18T15:24:00.000Z","reihung":false}},{"station":{"evaNumber":"8010050","name":"Bitterfeld","coordinates":{"lng":12.316966,"lat":51.622911},"ril100":"LBT"},"arrival":{"platform":"4","scheduledTime":"2023-10-18T15:28:00.000Z","time":"2023-10-18T15:28:00.000Z","reihung":false},"departure":{"platform":"4","scheduledTime":"2023-10-18T15:31:00.000Z","time":"2023-10-18T15:31:00.000Z","reihung":false}},{"station":{"evaNumber":"8010076","name":"Delitzsch unt Bf","coordinates":{"lng":12.345713,"lat":51.524497},"ril100":"LDL"},"arrival":{"platform":"1","scheduledTime":"2023-10-18T15:39:00.000Z","time":"2023-10-18T15:39:00.000Z","reihung":false},"departure":{"platform":"1","scheduledTime":"2023-10-18T15:40:00.000Z","time":"2023-10-18T15:40:00.000Z","reihung":false}},{"station":{"evaNumber":"8012478","name":"Leipzig Messe","coordinates":{"lng":12.389383,"lat":51.396167},"ril100":"LNW"},"arrival":{"platform":"1","scheduledTime":"2023-10-18T15:49:00.000Z","time":"2023-10-18T15:49:00.000Z","reihung":false},"departure":{"platform":"1","scheduledTime":"2023-10-18T15:50:00.000Z","time":"2023-10-18T15:50:00.000Z","reihung":false}},{"station":{"evaNumber":"8010205","name":"Leipzig Hbf","coordinates":{"lng":12.381167,"lat":51.345081},"ril100":"LL"},"arrival":{"platform":"10","scheduledTime":"2023-10-18T15:56:00.000Z","time":"2023-10-18T15:56:00.000Z","reihung":false}}],"finalDestination":"Leipzig Hbf","jid":"1|241480|0|80|18102023","messages":[{"type":"A","code":"FB","prio":260,"icoX":4,"txtN":"Fahrradmitnahme begrenzt möglich"},{"type":"A","code":"EH","prio":560,"icoX":2,"txtN":"Fahrzeuggebundene Einstiegshilfe vorhanden"},{"type":"A","code":"LS","prio":605,"icoX":2,"txtN":"Laptop-Steckdosen"},{"type":"A","code":"WV","prio":710,"icoX":2,"txtN":"WLAN verfügbar"},{"type":"M","code":"","icoX":19,"txtS":"RE 16123: Dessau Hbf->Leipzig Hbf: Information.","txtN":"Erfahrungsgemäß hat dieser Zug eine hohe Auslastung.","sIdx":1}],"type":"JNY"},{"arrival":{"platform":"5","scheduledTime":"2023-10-18T17:25:00.000Z","time":"2023-10-18T17:25:00.000Z","reihung":false},"departure":{"platform":"23","scheduledTime":"2023-10-18T16:22:00.000Z","time":"2023-10-18T16:22:00.000Z","reihung":false},"duration":3780000,"train":{"name":"RE 6","line":"6","admin":"CXRE","number":"74186","type":"RE","operator":{"name":"Mitteldeutsche Regiobahn","icoX":7}},"segmentStart":{"name":"Leipzig Hbf","evaNumber":"8010205"},"segmentDestination":{"name":"Chemnitz Hbf","evaNumber":"8010184"},"stops":[{"station":{"evaNumber":"8010205","name":"Leipzig Hbf","coordinates":{"lng":12.381167,"lat":51.345081},"ril100":"LL"},"departure":{"platform":"23","scheduledTime":"2023-10-18T16:22:00.000Z","time":"2023-10-18T16:22:00.000Z","reihung":false}},{"station":{"evaNumber":"8011077","name":"Bad Lausick","coordinates":{"lng":12.648578,"lat":51.14392},"ril100":"LBLS"},"arrival":{"platform":"1","scheduledTime":"2023-10-18T16:46:00.000Z","time":"2023-10-18T16:46:00.000Z","reihung":false},"departure":{"platform":"1","scheduledTime":"2023-10-18T16:47:00.000Z","time":"2023-10-18T16:47:00.000Z","reihung":false}},{"station":{"evaNumber":"8010122","name":"Geithain","coordinates":{"lng":12.696841,"lat":51.05846},"ril100":"LGH"},"arrival":{"platform":"2","scheduledTime":"2023-10-18T16:55:00.000Z","time":"2023-10-18T16:55:00.000Z","reihung":false},"departure":{"platform":"2","scheduledTime":"2023-10-18T16:56:00.000Z","time":"2023-10-18T16:56:00.000Z","reihung":false}},{"station":{"evaNumber":"8010238","name":"Narsdorf","coordinates":{"lng":12.716455,"lat":51.010763},"ril100":"LNA"},"arrival":{"platform":"1","scheduledTime":"2023-10-18T17:01:00.000Z","time":"2023-10-18T17:01:00.000Z","reihung":false},"departure":{"platform":"1","scheduledTime":"2023-10-18T17:02:00.000Z","time":"2023-10-18T17:02:00.000Z","reihung":false}},{"station":{"evaNumber":"8011297","name":"Burgstädt","coordinates":{"lng":12.81255,"lat":50.915486}},"arrival":{"platform":"2","scheduledTime":"2023-10-18T17:12:00.000Z","time":"2023-10-18T17:12:00.000Z","reihung":false},"departure":{"platform":"2","scheduledTime":"2023-10-18T17:13:00.000Z","time":"2023-10-18T17:13:00.000Z","reihung":false}},{"station":{"evaNumber":"8010184","name":"Chemnitz Hbf","coordinates":{"lng":12.930713,"lat":50.838332},"ril100":"DC"},"arrival":{"platform":"5","scheduledTime":"2023-10-18T17:25:00.000Z","time":"2023-10-18T17:25:00.000Z","reihung":false}}],"finalDestination":"Chemnitz Hbf","jid":"1|300553|11|80|18102023","messages":[{"type":"A","code":"FB","prio":260,"icoX":4,"txtN":"Fahrradmitnahme begrenzt möglich"}],"type":"JNY"}],"segmentTypes":["RE","RE","RE"]},{"checksum":"7403b4b8_3","cid":"C-4","date":"2023-10-17T22:00:00.000Z","duration":10740000,"changes":1,"isRideable":true,"arrival":{"platform":"5","scheduledTime":"2023-10-18T16:25:00.000Z","time":"2023-10-18T16:25:00.000Z","reihung":false},"departure":{"platform":"2","scheduledTime":"2023-10-18T13:26:00.000Z","time":"2023-10-18T13:26:00.000Z","reihung":false},"segments":[{"arrival":{"platform":"11","scheduledTime":"2023-10-18T14:42:00.000Z","time":"2023-10-18T14:42:00.000Z","reihung":false},"departure":{"platform":"2","scheduledTime":"2023-10-18T13:26:00.000Z","time":"2023-10-18T13:26:00.000Z","reihung":false},"duration":4560000,"train":{"name":"ICE 1171","line":"20","admin":"80","number":"1171","type":"ICE","operator":{"name":"DB Fernverkehr AG","icoX":1}},"changeDuration":40,"segmentStart":{"name":"Berlin Hbf (tief)","evaNumber":"8098160"},"segmentDestination":{"name":"Leipzig Hbf","evaNumber":"8010205"},"stops":[{"station":{"evaNumber":"8098160","name":"Berlin Hbf (tief)","coordinates":{"lng":13.368892,"lat":52.52585},"ril100":"BL"},"departure":{"platform":"2","scheduledTime":"2023-10-18T13:26:00.000Z","time":"2023-10-18T13:26:00.000Z","reihung":false}},{"station":{"evaNumber":"8011113","name":"Berlin Südkreuz","coordinates":{"lng":13.365863,"lat":52.47623},"ril100":"BPAF"},"departure":{"platform":"3","scheduledTime":"2023-10-18T13:33:00.000Z","time":"2023-10-18T13:33:00.000Z","reihung":false},"auslastung":{"first":2,"second":2}},{"station":{"evaNumber":"8010222","name":"Lutherstadt Wittenberg Hbf","coordinates":{"lng":12.661999,"lat":51.867579},"ril100":"LW"},"arrival":{"platform":"2","scheduledTime":"2023-10-18T14:09:00.000Z","time":"2023-10-18T14:09:00.000Z","reihung":false},"departure":{"platform":"2","scheduledTime":"2023-10-18T14:10:00.000Z","time":"2023-10-18T14:10:00.000Z","reihung":false},"auslastung":{"first":2,"second":2}},{"station":{"evaNumber":"8010205","name":"Leipzig Hbf","coordinates":{"lng":12.381167,"lat":51.345081},"ril100":"LL"},"arrival":{"platform":"11","scheduledTime":"2023-10-18T14:42:00.000Z","time":"2023-10-18T14:42:00.000Z","reihung":false}}],"finalDestination":"Basel SBB","jid":"1|197128|0|80|18102023","auslastung":{"first":2,"second":2},"messages":[{"type":"A","code":"CK","prio":200,"icoX":2,"txtN":"Sicher & kontaktlos ohne Ticketkontrolle reisen mit Komfort Check-in"},{"type":"A","code":"FR","prio":260,"icoX":3,"txtN":"Fahrradmitnahme reservierungspflichtig"},{"type":"A","code":"FB","prio":260,"icoX":4,"txtN":"Fahrradmitnahme begrenzt möglich"},{"type":"A","code":"BR","prio":450,"icoX":5,"txtN":"Bordrestaurant"},{"type":"A","code":"EH","prio":560,"icoX":2,"txtN":"Fahrzeuggebundene Einstiegshilfe vorhanden"}],"type":"JNY"},{"arrival":{"platform":"5","scheduledTime":"2023-10-18T16:25:00.000Z","time":"2023-10-18T16:25:00.000Z","reihung":false},"departure":{"platform":"23","scheduledTime":"2023-10-18T15:22:00.000Z","time":"2023-10-18T15:22:00.000Z","reihung":false},"duration":3780000,"train":{"name":"RE 6","line":"6","admin":"CXRE","number":"74184","type":"RE","operator":{"name":"Mitteldeutsche Regiobahn","icoX":7}},"segmentStart":{"name":"Leipzig Hbf","evaNumber":"8010205"},"segmentDestination":{"name":"Chemnitz Hbf","evaNumber":"8010184"},"stops":[{"station":{"evaNumber":"8010205","name":"Leipzig Hbf","coordinates":{"lng":12.381167,"lat":51.345081},"ril100":"LL"},"departure":{"platform":"23","scheduledTime":"2023-10-18T15:22:00.000Z","time":"2023-10-18T15:22:00.000Z","reihung":false}},{"station":{"evaNumber":"8011077","name":"Bad Lausick","coordinates":{"lng":12.648578,"lat":51.14392},"ril100":"LBLS"},"arrival":{"platform":"1","scheduledTime":"2023-10-18T15:46:00.000Z","time":"2023-10-18T15:46:00.000Z","reihung":false},"departure":{"platform":"1","scheduledTime":"2023-10-18T15:47:00.000Z","time":"2023-10-18T15:47:00.000Z","reihung":false}},{"station":{"evaNumber":"8010122","name":"Geithain","coordinates":{"lng":12.696841,"lat":51.05846},"ril100":"LGH"},"arrival":{"platform":"2","scheduledTime":"2023-10-18T15:55:00.000Z","time":"2023-10-18T15:55:00.000Z","reihung":false},"departure":{"platform":"2","scheduledTime":"2023-10-18T15:56:00.000Z","time":"2023-10-18T15:56:00.000Z","reihung":false}},{"station":{"evaNumber":"8010238","name":"Narsdorf","coordinates":{"lng":12.716455,"lat":51.010763},"ril100":"LNA"},"arrival":{"platform":"1","scheduledTime":"2023-10-18T16:01:00.000Z","time":"2023-10-18T16:01:00.000Z","reihung":false},"departure":{"platform":"1","scheduledTime":"2023-10-18T16:02:00.000Z","time":"2023-10-18T16:02:00.000Z","reihung":false}},{"station":{"evaNumber":"8011297","name":"Burgstädt","coordinates":{"lng":12.81255,"lat":50.915486}},"arrival":{"platform":"2","scheduledTime":"2023-10-18T16:12:00.000Z","time":"2023-10-18T16:12:00.000Z","reihung":false},"departure":{"platform":"2","scheduledTime":"2023-10-18T16:13:00.000Z","time":"2023-10-18T16:13:00.000Z","reihung":false}},{"station":{"evaNumber":"8010184","name":"Chemnitz Hbf","coordinates":{"lng":12.930713,"lat":50.838332},"ril100":"DC"},"arrival":{"platform":"5","scheduledTime":"2023-10-18T16:25:00.000Z","time":"2023-10-18T16:25:00.000Z","reihung":false}}],"finalDestination":"Chemnitz Hbf","jid":"1|300553|10|80|18102023","messages":[{"type":"A","code":"FB","prio":260,"icoX":4,"txtN":"Fahrradmitnahme begrenzt möglich"}],"type":"JNY"}],"segmentTypes":["ICE","RE"]},{"checksum":"e3d8b272_3","cid":"C-5","date":"2023-10-17T22:00:00.000Z","duration":14040000,"changes":3,"isRideable":true,"arrival":{"platform":"5","scheduledTime":"2023-10-18T17:25:00.000Z","time":"2023-10-18T17:25:00.000Z","reihung":false},"departure":{"platform":"3","scheduledTime":"2023-10-18T13:31:00.000Z","time":"2023-10-18T13:31:00.000Z","reihung":false},"segments":[{"arrival":{"platform":"5","scheduledTime":"2023-10-18T14:26:00.000Z","time":"2023-10-18T14:26:00.000Z","reihung":false},"departure":{"platform":"3","scheduledTime":"2023-10-18T13:31:00.000Z","time":"2023-10-18T13:31:00.000Z","reihung":false},"duration":3300000,"train":{"name":"RE 3","line":"3","admin":"800158","number":"3311","type":"RE","operator":{"name":"DB Regio AG Nordost","icoX":10}},"changeDuration":13,"segmentStart":{"name":"Berlin Hbf (tief)","evaNumber":"8098160"},"segmentDestination":{"name":"Jüterbog","evaNumber":"8010182"},"stops":[{"station":{"evaNumber":"8098160","name":"Berlin Hbf (tief)","coordinates":{"lng":13.368892,"lat":52.52585},"ril100":"BL"},"departure":{"platform":"3","scheduledTime":"2023-10-18T13:31:00.000Z","time":"2023-10-18T13:31:00.000Z","reihung":false}},{"station":{"evaNumber":"8011118","name":"Berlin Potsdamer Platz","coordinates":{"lng":13.375904,"lat":52.509436},"ril100":"BPOF"},"arrival":{"platform":"2","scheduledTime":"2023-10-18T13:34:00.000Z","time":"2023-10-18T13:34:00.000Z","reihung":false},"departure":{"platform":"2","scheduledTime":"2023-10-18T13:36:00.000Z","time":"2023-10-18T13:36:00.000Z","reihung":false}},{"station":{"evaNumber":"8011113","name":"Berlin Südkreuz","coordinates":{"lng":13.365863,"lat":52.47623},"ril100":"BPAF"},"arrival":{"platform":"4","scheduledTime":"2023-10-18T13:42:00.000Z","time":"2023-10-18T13:42:00.000Z","reihung":false},"departure":{"platform":"4","scheduledTime":"2023-10-18T13:44:00.000Z","time":"2023-10-18T13:44:00.000Z","reihung":false}},{"station":{"evaNumber":"8011041","name":"Berlin-Lichterfelde Ost","coordinates":{"lng":13.328054,"lat":52.429126},"ril100":"BLIH"},"arrival":{"platform":"3","scheduledTime":"2023-10-18T13:48:00.000Z","time":"2023-10-18T13:48:00.000Z","reihung":false},"departure":{"platform":"3","scheduledTime":"2023-10-18T13:49:00.000Z","time":"2023-10-18T13:49:00.000Z","reihung":false}},{"station":{"evaNumber":"8013100","name":"Teltow","coordinates":{"lng":13.299837,"lat":52.388504},"ril100":"BTL"},"arrival":{"platform":"1","scheduledTime":"2023-10-18T13:53:00.000Z","time":"2023-10-18T13:53:00.000Z","reihung":false},"departure":{"platform":"1","scheduledTime":"2023-10-18T13:54:00.000Z","time":"2023-10-18T13:54:00.000Z","reihung":false}},{"station":{"evaNumber":"8011740","name":"Großbeeren","coordinates":{"lng":13.283171,"lat":52.347126}},"arrival":{"platform":"1","scheduledTime":"2023-10-18T13:57:00.000Z","time":"2023-10-18T13:57:00.000Z","reihung":false},"departure":{"platform":"1","scheduledTime":"2023-10-18T13:58:00.000Z","time":"2023-10-18T13:58:00.000Z","reihung":false}},{"station":{"evaNumber":"8080170","name":"Birkengrund","coordinates":{"lng":13.272195,"lat":52.316626},"ril100":"BBSH"},"arrival":{"platform":"1","scheduledTime":"2023-10-18T14:01:00.000Z","time":"2023-10-18T14:01:00.000Z","reihung":false},"departure":{"platform":"1","scheduledTime":"2023-10-18T14:02:00.000Z","time":"2023-10-18T14:02:00.000Z","reihung":false}},{"station":{"evaNumber":"8010215","name":"Ludwigsfelde","coordinates":{"lng":13.267602,"lat":52.299214},"ril100":"BLF"},"arrival":{"platform":"1","scheduledTime":"2023-10-18T14:05:00.000Z","time":"2023-10-18T14:05:00.000Z","reihung":false},"departure":{"platform":"1","scheduledTime":"2023-10-18T14:06:00.000Z","time":"2023-10-18T14:06:00.000Z","reihung":false}},{"station":{"evaNumber":"8012260","name":"Luckenwalde","coordinates":{"lng":13.160352,"lat":52.090574},"ril100":"BLD"},"arrival":{"platform":"3","scheduledTime":"2023-10-18T14:18:00.000Z","time":"2023-10-18T14:18:00.000Z","reihung":false},"departure":{"platform":"3","scheduledTime":"2023-10-18T14:18:00.000Z","time":"2023-10-18T14:18:00.000Z","reihung":false}},{"station":{"evaNumber":"8010182","name":"Jüterbog","coordinates":{"lng":13.05409,"lat":51.997563},"ril100":"BJUE"},"arrival":{"platform":"5","scheduledTime":"2023-10-18T14:26:00.000Z","time":"2023-10-18T14:26:00.000Z","reihung":false}}],"finalDestination":"Jüterbog","jid":"1|1642959|0|80|18102023","messages":[{"type":"A","code":"FB","prio":260,"icoX":4,"txtN":"Fahrradmitnahme begrenzt möglich"},{"type":"A","code":"EH","prio":560,"icoX":2,"txtN":"Fahrzeuggebundene Einstiegshilfe vorhanden"},{"type":"A","code":"SN","prio":580,"icoX":13,"txtN":"SnackPoint/Imbiss im Zug"}],"type":"JNY"},{"arrival":{"platform":"3","scheduledTime":"2023-10-18T15:40:00.000Z","time":"2023-10-18T15:40:00.000Z","reihung":false},"departure":{"platform":"2","scheduledTime":"2023-10-18T14:39:00.000Z","time":"2023-10-18T14:39:00.000Z","reihung":false},"duration":3660000,"train":{"name":"S 8","line":"8","admin":"8004A9","number":"37857","type":"S","operator":{"name":"DB Regio AG Südost","icoX":15}},"changeDuration":5,"segmentStart":{"name":"Jüterbog","evaNumber":"8010182"},"segmentDestination":{"name":"Bitterfeld","evaNumber":"8010050"},"stops":[{"station":{"evaNumber":"8010182","name":"Jüterbog","coordinates":{"lng":13.05409,"lat":51.997563},"ril100":"BJUE"},"departure":{"platform":"2","scheduledTime":"2023-10-18T14:39:00.000Z","time":"2023-10-18T14:39:00.000Z","reihung":false}},{"station":{"evaNumber":"8012487","name":"Niedergörsdorf","coordinates":{"lng":12.979273,"lat":51.967979},"ril100":"LNF"},"arrival":{"platform":"1","scheduledTime":"2023-10-18T14:43:00.000Z","time":"2023-10-18T14:43:00.000Z","reihung":false},"departure":{"platform":"1","scheduledTime":"2023-10-18T14:44:00.000Z","time":"2023-10-18T14:44:00.000Z","reihung":false}},{"station":{"evaNumber":"8011210","name":"Blönsdorf","coordinates":{"lng":12.895314,"lat":51.955421}},"arrival":{"platform":"2","scheduledTime":"2023-10-18T14:47:00.000Z","time":"2023-10-18T14:47:00.000Z","reihung":false},"departure":{"platform":"2","scheduledTime":"2023-10-18T14:48:00.000Z","time":"2023-10-18T14:48:00.000Z","reihung":false}},{"station":{"evaNumber":"8013371","name":"Zahna","coordinates":{"lng":12.781115,"lat":51.920022},"ril100":"LZA"},"arrival":{"platform":"3","scheduledTime":"2023-10-18T14:53:00.000Z","time":"2023-10-18T14:53:00.000Z","reihung":false},"departure":{"platform":"3","scheduledTime":"2023-10-18T14:53:00.000Z","time":"2023-10-18T14:53:00.000Z","reihung":false}},{"station":{"evaNumber":"8011290","name":"Bülzig","coordinates":{"lng":12.752017,"lat":51.894367},"ril100":"LBZG"},"arrival":{"platform":"1","scheduledTime":"2023-10-18T14:56:00.000Z","time":"2023-10-18T14:56:00.000Z","reihung":false},"departure":{"platform":"1","scheduledTime":"2023-10-18T14:57:00.000Z","time":"2023-10-18T14:57:00.000Z","reihung":false}},{"station":{"evaNumber":"8013418","name":"Zörnigall","coordinates":{"lng":12.731485,"lat":51.882932},"ril100":"LZGL"},"arrival":{"platform":"1","scheduledTime":"2023-10-18T14:59:00.000Z","time":"2023-10-18T14:59:00.000Z","reihung":false},"departure":{"platform":"1","scheduledTime":"2023-10-18T14:59:00.000Z","time":"2023-10-18T14:59:00.000Z","reihung":false}},{"station":{"evaNumber":"8010222","name":"Lutherstadt Wittenberg Hbf","coordinates":{"lng":12.661999,"lat":51.867579},"ril100":"LW"},"arrival":{"platform":"2","scheduledTime":"2023-10-18T15:02:00.000Z","time":"2023-10-18T15:02:00.000Z","reihung":false},"departure":{"platform":"2","scheduledTime":"2023-10-18T15:03:00.000Z","time":"2023-10-18T15:03:00.000Z","reihung":false}},{"station":{"evaNumber":"8010281","name":"Pratau","coordinates":{"lng":12.634842,"lat":51.842724}},"arrival":{"platform":"1","scheduledTime":"2023-10-18T15:06:00.000Z","time":"2023-10-18T15:06:00.000Z","reihung":false},"departure":{"platform":"1","scheduledTime":"2023-10-18T15:06:00.000Z","time":"2023-10-18T15:06:00.000Z","reihung":false}},{"station":{"evaNumber":"8011150","name":"Bergwitz","coordinates":{"lng":12.576628,"lat":51.803881},"ril100":"LBWZ"},"arrival":{"platform":"1","scheduledTime":"2023-10-18T15:10:00.000Z","time":"2023-10-18T15:10:00.000Z","reihung":false},"departure":{"platform":"1","scheduledTime":"2023-10-18T15:10:00.000Z","time":"2023-10-18T15:10:00.000Z","reihung":false}},{"station":{"evaNumber":"8012704","name":"Radis","coordinates":{"lng":12.503941,"lat":51.754584},"ril100":"LRA"},"arrival":{"platform":"1","scheduledTime":"2023-10-18T15:15:00.000Z","time":"2023-10-18T15:15:00.000Z","reihung":false},"departure":{"platform":"1","scheduledTime":"2023-10-18T15:24:00.000Z","time":"2023-10-18T15:24:00.000Z","reihung":false}},{"station":{"evaNumber":"8011683","name":"Gräfenhainichen","coordinates":{"lng":12.460164,"lat":51.724803},"ril100":"LG"},"arrival":{"platform":"1","scheduledTime":"2023-10-18T15:27:00.000Z","time":"2023-10-18T15:27:00.000Z","reihung":false},"departure":{"platform":"1","scheduledTime":"2023-10-18T15:27:00.000Z","time":"2023-10-18T15:27:00.000Z","reihung":false}},{"station":{"evaNumber":"8011296","name":"Burgkemnitz","coordinates":{"lng":12.407999,"lat":51.689404},"ril100":"LBGK"},"arrival":{"platform":"1","scheduledTime":"2023-10-18T15:31:00.000Z","time":"2023-10-18T15:31:00.000Z","reihung":false},"departure":{"platform":"1","scheduledTime":"2023-10-18T15:31:00.000Z","time":"2023-10-18T15:31:00.000Z","reihung":false}},{"station":{"evaNumber":"8012409","name":"Muldenstein","coordinates":{"lng":12.354181,"lat":51.66765},"ril100":"LMD"},"arrival":{"platform":"1","scheduledTime":"2023-10-18T15:35:00.000Z","time":"2023-10-18T15:35:00.000Z","reihung":false},"departure":{"platform":"1","scheduledTime":"2023-10-18T15:35:00.000Z","time":"2023-10-18T15:35:00.000Z","reihung":false}},{"station":{"evaNumber":"8010050","name":"Bitterfeld","coordinates":{"lng":12.316966,"lat":51.622911},"ril100":"LBT"},"arrival":{"platform":"3","scheduledTime":"2023-10-18T15:40:00.000Z","time":"2023-10-18T15:40:00.000Z","reihung":false}}],"finalDestination":"Halle(Saale)Hbf","jid":"1|247152|0|80|18102023","messages":[{"type":"A","code":"FB","prio":260,"icoX":4,"txtN":"Fahrradmitnahme begrenzt möglich"},{"type":"A","code":"EH","prio":560,"icoX":2,"txtN":"Fahrzeuggebundene Einstiegshilfe vorhanden"},{"type":"A","code":"LS","prio":605,"icoX":2,"txtN":"Laptop-Steckdosen"},{"type":"A","code":"WV","prio":710,"icoX":2,"txtN":"WLAN verfügbar"}],"type":"JNY"},{"arrival":{"platform":"1","scheduledTime":"2023-10-18T16:13:00.000Z","time":"2023-10-18T16:13:00.000Z","reihung":false},"departure":{"platform":"4","scheduledTime":"2023-10-18T15:45:00.000Z","time":"2023-10-18T15:45:00.000Z","reihung":false},"duration":1680000,"train":{"name":"S 2","line":"2","admin":"8004A9","number":"37259","type":"S","operator":{"name":"DB Regio AG Südost","icoX":15}},"changeDuration":9,"segmentStart":{"name":"Bitterfeld","evaNumber":"8010050"},"segmentDestination":{"name":"Leipzig Hbf (tief)","evaNumber":"8098205"},"stops":[{"station":{"evaNumber":"8010050","name":"Bitterfeld","coordinates":{"lng":12.316966,"lat":51.622911},"ril100":"LBT"},"departure":{"platform":"4","scheduledTime":"2023-10-18T15:45:00.000Z","time":"2023-10-18T15:45:00.000Z","reihung":false}},{"station":{"evaNumber":"8012629","name":"Petersroda","coordinates":{"lng":12.285369,"lat":51.570045},"ril100":"LPRO"},"arrival":{"platform":"1","scheduledTime":"2023-10-18T15:49:00.000Z","time":"2023-10-18T15:49:00.000Z","reihung":false},"departure":{"platform":"1","scheduledTime":"2023-10-18T15:49:00.000Z","time":"2023-10-18T15:49:00.000Z","reihung":false}},{"station":{"evaNumber":"8010076","name":"Delitzsch unt Bf","coordinates":{"lng":12.345713,"lat":51.524497},"ril100":"LDL"},"arrival":{"platform":"1","scheduledTime":"2023-10-18T15:53:00.000Z","time":"2023-10-18T15:53:00.000Z","reihung":false},"departure":{"platform":"1","scheduledTime":"2023-10-18T15:54:00.000Z","time":"2023-10-18T15:54:00.000Z","reihung":false}},{"station":{"evaNumber":"8013428","name":"Zschortau","coordinates":{"lng":12.361498,"lat":51.48329},"ril100":"LZS"},"arrival":{"platform":"1","scheduledTime":"2023-10-18T15:57:00.000Z","time":"2023-10-18T15:57:00.000Z","reihung":false},"departure":{"platform":"1","scheduledTime":"2023-10-18T15:58:00.000Z","time":"2023-10-18T15:58:00.000Z","reihung":false}},{"station":{"evaNumber":"8012697","name":"Rackwitz(Leipzig)","coordinates":{"lng":12.375099,"lat":51.440286},"ril100":"LRK"},"arrival":{"platform":"2","scheduledTime":"2023-10-18T16:01:00.000Z","time":"2023-10-18T16:01:00.000Z","reihung":false},"departure":{"platform":"2","scheduledTime":"2023-10-18T16:01:00.000Z","time":"2023-10-18T16:01:00.000Z","reihung":false}},{"station":{"evaNumber":"8012478","name":"Leipzig Messe","coordinates":{"lng":12.389383,"lat":51.396167},"ril100":"LNW"},"arrival":{"platform":"1","scheduledTime":"2023-10-18T16:05:00.000Z","time":"2023-10-18T16:05:00.000Z","reihung":false},"departure":{"platform":"1","scheduledTime":"2023-10-18T16:05:00.000Z","time":"2023-10-18T16:05:00.000Z","reihung":false}},{"station":{"evaNumber":"8012200","name":"Leipzig Essener Straße","coordinates":{"lng":12.396988,"lat":51.376354},"ril100":"LLES"},"arrival":{"platform":"1","scheduledTime":"2023-10-18T16:07:00.000Z","time":"2023-10-18T16:07:00.000Z","reihung":false},"departure":{"platform":"1","scheduledTime":"2023-10-18T16:08:00.000Z","time":"2023-10-18T16:08:00.000Z","reihung":false}},{"station":{"evaNumber":"8012196","name":"Leipzig Nord","coordinates":{"lng":12.40141,"lat":51.365612}},"arrival":{"platform":"1","scheduledTime":"2023-10-18T16:09:00.000Z","time":"2023-10-18T16:09:00.000Z","reihung":false},"departure":{"platform":"1","scheduledTime":"2023-10-18T16:10:00.000Z","time":"2023-10-18T16:10:00.000Z","reihung":false}},{"station":{"evaNumber":"8098205","name":"Leipzig Hbf (tief)","coordinates":{"lng":12.379836,"lat":51.345216},"ril100":"LL  T"},"arrival":{"platform":"1","scheduledTime":"2023-10-18T16:13:00.000Z","time":"2023-10-18T16:13:00.000Z","reihung":false}}],"finalDestination":"Leipzig-Stötteritz","jid":"1|245236|5|80|18102023","messages":[{"type":"A","code":"FB","prio":260,"icoX":4,"txtN":"Fahrradmitnahme begrenzt möglich"},{"type":"A","code":"EH","prio":560,"icoX":2,"txtN":"Fahrzeuggebundene Einstiegshilfe vorhanden"},{"type":"A","code":"LS","prio":605,"icoX":2,"txtN":"Laptop-Steckdosen"},{"type":"A","code":"WV","prio":710,"icoX":2,"txtN":"WLAN verfügbar"},{"type":"M","code":"","icoX":19,"txtS":"S 2: Bitterfeld->Leipzig Hbf (tief): Information.","txtN":"Erfahrungsgemäß hat dieser Zug eine hohe Auslastung.","sIdx":2}],"type":"JNY"},{"type":"WALK","train":{"name":"Fußweg","type":"Fußweg"},"arrival":{"scheduledTime":"2023-10-18T16:22:00.000Z","time":"2023-10-18T16:22:00.000Z","reihung":false},"departure":{"scheduledTime":"2023-10-18T16:13:00.000Z","time":"2023-10-18T16:13:00.000Z","reihung":false},"duration":540000,"segmentStart":{"evaNumber":"8098205","name":"Leipzig Hbf (tief)","coordinates":{"lng":12.379836,"lat":51.345216},"ril100":"LL  T"},"segmentDestination":{"evaNumber":"8010205","name":"Leipzig Hbf","coordinates":{"lng":12.381167,"lat":51.345081},"ril100":"LL"}},{"arrival":{"platform":"5","scheduledTime":"2023-10-18T17:25:00.000Z","time":"2023-10-18T17:25:00.000Z","reihung":false},"departure":{"platform":"23","scheduledTime":"2023-10-18T16:22:00.000Z","time":"2023-10-18T16:22:00.000Z","reihung":false},"duration":3780000,"train":{"name":"RE 6","line":"6","admin":"CXRE","number":"74186","type":"RE","operator":{"name":"Mitteldeutsche Regiobahn","icoX":7}},"segmentStart":{"name":"Leipzig Hbf","evaNumber":"8010205"},"segmentDestination":{"name":"Chemnitz Hbf","evaNumber":"8010184"},"stops":[{"station":{"evaNumber":"8010205","name":"Leipzig Hbf","coordinates":{"lng":12.381167,"lat":51.345081},"ril100":"LL"},"departure":{"platform":"23","scheduledTime":"2023-10-18T16:22:00.000Z","time":"2023-10-18T16:22:00.000Z","reihung":false}},{"station":{"evaNumber":"8011077","name":"Bad Lausick","coordinates":{"lng":12.648578,"lat":51.14392},"ril100":"LBLS"},"arrival":{"platform":"1","scheduledTime":"2023-10-18T16:46:00.000Z","time":"2023-10-18T16:46:00.000Z","reihung":false},"departure":{"platform":"1","scheduledTime":"2023-10-18T16:47:00.000Z","time":"2023-10-18T16:47:00.000Z","reihung":false}},{"station":{"evaNumber":"8010122","name":"Geithain","coordinates":{"lng":12.696841,"lat":51.05846},"ril100":"LGH"},"arrival":{"platform":"2","scheduledTime":"2023-10-18T16:55:00.000Z","time":"2023-10-18T16:55:00.000Z","reihung":false},"departure":{"platform":"2","scheduledTime":"2023-10-18T16:56:00.000Z","time":"2023-10-18T16:56:00.000Z","reihung":false}},{"station":{"evaNumber":"8010238","name":"Narsdorf","coordinates":{"lng":12.716455,"lat":51.010763},"ril100":"LNA"},"arrival":{"platform":"1","scheduledTime":"2023-10-18T17:01:00.000Z","time":"2023-10-18T17:01:00.000Z","reihung":false},"departure":{"platform":"1","scheduledTime":"2023-10-18T17:02:00.000Z","time":"2023-10-18T17:02:00.000Z","reihung":false}},{"station":{"evaNumber":"8011297","name":"Burgstädt","coordinates":{"lng":12.81255,"lat":50.915486}},"arrival":{"platform":"2","scheduledTime":"2023-10-18T17:12:00.000Z","time":"2023-10-18T17:12:00.000Z","reihung":false},"departure":{"platform":"2","scheduledTime":"2023-10-18T17:13:00.000Z","time":"2023-10-18T17:13:00.000Z","reihung":false}},{"station":{"evaNumber":"8010184","name":"Chemnitz Hbf","coordinates":{"lng":12.930713,"lat":50.838332},"ril100":"DC"},"arrival":{"platform":"5","scheduledTime":"2023-10-18T17:25:00.000Z","time":"2023-10-18T17:25:00.000Z","reihung":false}}],"finalDestination":"Chemnitz Hbf","jid":"1|300553|11|80|18102023","messages":[{"type":"A","code":"FB","prio":260,"icoX":4,"txtN":"Fahrradmitnahme begrenzt möglich"}],"type":"JNY"}],"segmentTypes":["RE","S","S","Fußweg","RE"]},{"checksum":"03db39b5_3","cid":"C-6","date":"2023-10-17T22:00:00.000Z","duration":10260000,"changes":2,"isRideable":true,"arrival":{"platform":"5","scheduledTime":"2023-10-18T16:25:00.000Z","time":"2023-10-18T16:25:00.000Z","reihung":false},"departure":{"platform":"1","scheduledTime":"2023-10-18T13:34:00.000Z","time":"2023-10-18T13:34:00.000Z","reihung":false},"segments":[{"arrival":{"platform":"3","scheduledTime":"2023-10-18T14:32:00.000Z","time":"2023-10-18T14:32:00.000Z","reihung":false},"departure":{"platform":"1","scheduledTime":"2023-10-18T13:34:00.000Z","time":"2023-10-18T13:34:00.000Z","reihung":false},"duration":3480000,"train":{"name":"ICE 709","line":"18","admin":"80","number":"709","type":"ICE","operator":{"name":"DB Fernverkehr AG","icoX":1}},"changeDuration":13,"segmentStart":{"name":"Berlin Hbf (tief)","evaNumber":"8098160"},"segmentDestination":{"name":"Bitterfeld","evaNumber":"8010050"},"stops":[{"station":{"evaNumber":"8098160","name":"Berlin Hbf (tief)","coordinates":{"lng":13.368892,"lat":52.52585},"ril100":"BL"},"departure":{"platform":"1","scheduledTime":"2023-10-18T13:34:00.000Z","time":"2023-10-18T13:34:00.000Z","reihung":false}},{"station":{"evaNumber":"8011113","name":"Berlin Südkreuz","coordinates":{"lng":13.365863,"lat":52.47623},"ril100":"BPAF"},"arrival":{"platform":"3","scheduledTime":"2023-10-18T13:39:00.000Z","time":"2023-10-18T13:39:00.000Z","reihung":false},"departure":{"platform":"3","scheduledTime":"2023-10-18T13:41:00.000Z","time":"2023-10-18T13:41:00.000Z","reihung":false},"auslastung":{"first":1,"second":1}},{"station":{"evaNumber":"8010050","name":"Bitterfeld","coordinates":{"lng":12.316966,"lat":51.622911},"ril100":"LBT"},"arrival":{"platform":"3","scheduledTime":"2023-10-18T14:32:00.000Z","time":"2023-10-18T14:32:00.000Z","reihung":false}}],"finalDestination":"München Hbf","jid":"1|209234|0|80|18102023","auslastung":{"first":1,"second":1},"messages":[{"type":"A","code":"CK","prio":200,"icoX":2,"txtN":"Sicher & kontaktlos ohne Ticketkontrolle reisen mit Komfort Check-in"},{"type":"A","code":"FR","prio":260,"icoX":3,"txtN":"Fahrradmitnahme reservierungspflichtig"},{"type":"A","code":"FB","prio":260,"icoX":4,"txtN":"Fahrradmitnahme begrenzt möglich"},{"type":"A","code":"BR","prio":450,"icoX":5,"txtN":"Bordrestaurant"},{"type":"A","code":"EH","prio":560,"icoX":2,"txtN":"Fahrzeuggebundene Einstiegshilfe vorhanden"}],"type":"JNY"},{"arrival":{"platform":"1","scheduledTime":"2023-10-18T15:13:00.000Z","time":"2023-10-18T15:13:00.000Z","reihung":false},"departure":{"platform":"3","scheduledTime":"2023-10-18T14:45:00.000Z","time":"2023-10-18T14:45:00.000Z","reihung":false},"duration":1680000,"train":{"name":"S 2","line":"2","admin":"8004A9","number":"37255","type":"S","operator":{"name":"DB Regio AG Südost","icoX":15}},"changeDuration":9,"segmentStart":{"name":"Bitterfeld","evaNumber":"8010050"},"segmentDestination":{"name":"Leipzig Hbf (tief)","evaNumber":"8098205"},"stops":[{"station":{"evaNumber":"8010050","name":"Bitterfeld","coordinates":{"lng":12.316966,"lat":51.622911},"ril100":"LBT"},"departure":{"platform":"3","scheduledTime":"2023-10-18T14:45:00.000Z","time":"2023-10-18T14:45:00.000Z","reihung":false}},{"station":{"evaNumber":"8012629","name":"Petersroda","coordinates":{"lng":12.285369,"lat":51.570045},"ril100":"LPRO"},"arrival":{"platform":"1","scheduledTime":"2023-10-18T14:49:00.000Z","time":"2023-10-18T14:49:00.000Z","reihung":false},"departure":{"platform":"1","scheduledTime":"2023-10-18T14:49:00.000Z","time":"2023-10-18T14:49:00.000Z","reihung":false}},{"station":{"evaNumber":"8010076","name":"Delitzsch unt Bf","coordinates":{"lng":12.345713,"lat":51.524497},"ril100":"LDL"},"arrival":{"platform":"1","scheduledTime":"2023-10-18T14:53:00.000Z","time":"2023-10-18T14:53:00.000Z","reihung":false},"departure":{"platform":"1","scheduledTime":"2023-10-18T14:54:00.000Z","time":"2023-10-18T14:54:00.000Z","reihung":false}},{"station":{"evaNumber":"8013428","name":"Zschortau","coordinates":{"lng":12.361498,"lat":51.48329},"ril100":"LZS"},"arrival":{"platform":"1","scheduledTime":"2023-10-18T14:57:00.000Z","time":"2023-10-18T14:57:00.000Z","reihung":false},"departure":{"platform":"1","scheduledTime":"2023-10-18T14:58:00.000Z","time":"2023-10-18T14:58:00.000Z","reihung":false}},{"station":{"evaNumber":"8012697","name":"Rackwitz(Leipzig)","coordinates":{"lng":12.375099,"lat":51.440286},"ril100":"LRK"},"arrival":{"platform":"2","scheduledTime":"2023-10-18T15:01:00.000Z","time":"2023-10-18T15:01:00.000Z","reihung":false},"departure":{"platform":"2","scheduledTime":"2023-10-18T15:01:00.000Z","time":"2023-10-18T15:01:00.000Z","reihung":false}},{"station":{"evaNumber":"8012478","name":"Leipzig Messe","coordinates":{"lng":12.389383,"lat":51.396167},"ril100":"LNW"},"arrival":{"platform":"1","scheduledTime":"2023-10-18T15:05:00.000Z","time":"2023-10-18T15:05:00.000Z","reihung":false},"departure":{"platform":"1","scheduledTime":"2023-10-18T15:05:00.000Z","time":"2023-10-18T15:05:00.000Z","reihung":false}},{"station":{"evaNumber":"8012200","name":"Leipzig Essener Straße","coordinates":{"lng":12.396988,"lat":51.376354},"ril100":"LLES"},"arrival":{"platform":"1","scheduledTime":"2023-10-18T15:07:00.000Z","time":"2023-10-18T15:07:00.000Z","reihung":false},"departure":{"platform":"1","scheduledTime":"2023-10-18T15:08:00.000Z","time":"2023-10-18T15:08:00.000Z","reihung":false}},{"station":{"evaNumber":"8012196","name":"Leipzig Nord","coordinates":{"lng":12.40141,"lat":51.365612}},"arrival":{"platform":"1","scheduledTime":"2023-10-18T15:09:00.000Z","time":"2023-10-18T15:09:00.000Z","reihung":false},"departure":{"platform":"1","scheduledTime":"2023-10-18T15:10:00.000Z","time":"2023-10-18T15:10:00.000Z","reihung":false}},{"station":{"evaNumber":"8098205","name":"Leipzig Hbf (tief)","coordinates":{"lng":12.379836,"lat":51.345216},"ril100":"LL  T"},"arrival":{"platform":"1","scheduledTime":"2023-10-18T15:13:00.000Z","time":"2023-10-18T15:13:00.000Z","reihung":false}}],"finalDestination":"Leipzig-Stötteritz","jid":"1|245259|1|80|18102023","messages":[{"type":"A","code":"FB","prio":260,"icoX":4,"txtN":"Fahrradmitnahme begrenzt möglich"},{"type":"A","code":"EH","prio":560,"icoX":2,"txtN":"Fahrzeuggebundene Einstiegshilfe vorhanden"},{"type":"A","code":"LS","prio":605,"icoX":2,"txtN":"Laptop-Steckdosen"},{"type":"A","code":"WV","prio":710,"icoX":2,"txtN":"WLAN verfügbar"}],"type":"JNY"},{"type":"WALK","train":{"name":"Fußweg","type":"Fußweg"},"arrival":{"scheduledTime":"2023-10-18T15:22:00.000Z","time":"2023-10-18T15:22:00.000Z","reihung":false},"departure":{"scheduledTime":"2023-10-18T15:13:00.000Z","time":"2023-10-18T15:13:00.000Z","reihung":false},"duration":540000,"segmentStart":{"evaNumber":"8098205","name":"Leipzig Hbf (tief)","coordinates":{"lng":12.379836,"lat":51.345216},"ril100":"LL  T"},"segmentDestination":{"evaNumber":"8010205","name":"Leipzig Hbf","coordinates":{"lng":12.381167,"lat":51.345081},"ril100":"LL"}},{"arrival":{"platform":"5","scheduledTime":"2023-10-18T16:25:00.000Z","time":"2023-10-18T16:25:00.000Z","reihung":false},"departure":{"platform":"23","scheduledTime":"2023-10-18T15:22:00.000Z","time":"2023-10-18T15:22:00.000Z","reihung":false},"duration":3780000,"train":{"name":"RE 6","line":"6","admin":"CXRE","number":"74184","type":"RE","operator":{"name":"Mitteldeutsche Regiobahn","icoX":7}},"segmentStart":{"name":"Leipzig Hbf","evaNumber":"8010205"},"segmentDestination":{"name":"Chemnitz Hbf","evaNumber":"8010184"},"stops":[{"station":{"evaNumber":"8010205","name":"Leipzig Hbf","coordinates":{"lng":12.381167,"lat":51.345081},"ril100":"LL"},"departure":{"platform":"23","scheduledTime":"2023-10-18T15:22:00.000Z","time":"2023-10-18T15:22:00.000Z","reihung":false}},{"station":{"evaNumber":"8011077","name":"Bad Lausick","coordinates":{"lng":12.648578,"lat":51.14392},"ril100":"LBLS"},"arrival":{"platform":"1","scheduledTime":"2023-10-18T15:46:00.000Z","time":"2023-10-18T15:46:00.000Z","reihung":false},"departure":{"platform":"1","scheduledTime":"2023-10-18T15:47:00.000Z","time":"2023-10-18T15:47:00.000Z","reihung":false}},{"station":{"evaNumber":"8010122","name":"Geithain","coordinates":{"lng":12.696841,"lat":51.05846},"ril100":"LGH"},"arrival":{"platform":"2","scheduledTime":"2023-10-18T15:55:00.000Z","time":"2023-10-18T15:55:00.000Z","reihung":false},"departure":{"platform":"2","scheduledTime":"2023-10-18T15:56:00.000Z","time":"2023-10-18T15:56:00.000Z","reihung":false}},{"station":{"evaNumber":"8010238","name":"Narsdorf","coordinates":{"lng":12.716455,"lat":51.010763},"ril100":"LNA"},"arrival":{"platform":"1","scheduledTime":"2023-10-18T16:01:00.000Z","time":"2023-10-18T16:01:00.000Z","reihung":false},"departure":{"platform":"1","scheduledTime":"2023-10-18T16:02:00.000Z","time":"2023-10-18T16:02:00.000Z","reihung":false}},{"station":{"evaNumber":"8011297","name":"Burgstädt","coordinates":{"lng":12.81255,"lat":50.915486}},"arrival":{"platform":"2","scheduledTime":"2023-10-18T16:12:00.000Z","time":"2023-10-18T16:12:00.000Z","reihung":false},"departure":{"platform":"2","scheduledTime":"2023-10-18T16:13:00.000Z","time":"2023-10-18T16:13:00.000Z","reihung":false}},{"station":{"evaNumber":"8010184","name":"Chemnitz Hbf","coordinates":{"lng":12.930713,"lat":50.838332},"ril100":"DC"},"arrival":{"platform":"5","scheduledTime":"2023-10-18T16:25:00.000Z","time":"2023-10-18T16:25:00.000Z","reihung":false}}],"finalDestination":"Chemnitz Hbf","jid":"1|300553|10|80|18102023","messages":[{"type":"A","code":"FB","prio":260,"icoX":4,"txtN":"Fahrradmitnahme begrenzt möglich"}],"type":"JNY"}],"segmentTypes":["ICE","S","Fußweg","RE"]}]}