{"context":{"earlier":"3|OB|MT#14#451625#451625#451934#451934#0#0#66101#451576#1#0#27#0#0#-2147483648#1#2|PDH#bbe10b32f5270e429a5a473728022d1b|RD#18102023|RT#141653|US#0|RS#INIT","later":"3|OF|MT#14#451654#451654#451994#452028#0#0#565#451626#9#0#3#0#0#-2147483648#1#2|PDH#bbe10b32f5270e429a5a473728022d1b|RD#18102023|RT#141653|US#0|RS#INIT"},"routes":[{"checksum":"2e322ff1_3","cid":"C-0","date":"2023-10-17T22:00:00.000Z","duration":18540000,"changes":2,"isRideable":true,"arrival":{"platform":"9","scheduledTime":"2023-10-18T18:14:00.000Z","time":"2023-10-18T18:14:00.000Z","reihung":false},"departure":{"platform":"2","scheduledTime":"2023-10-18T13:05:00.000Z","time":"2023-10-18T13:05:00.000Z","reihung":false},"segments":[{"arrival":{"platform":"6","scheduledTime":"2023-10-18T16:59:00.000Z","time":"2023-10-18T16:59:00.000Z","reihung":false},"departure":{"platform":"2","scheduledTime":"2023-10-18T13:05:00.000Z","time":"2023-10-18T13:05:00.000Z","reihung":false},"duration":14040000,"train":{"name":"ICE 771","line":"22","admin":"80","number":"771","type":"ICE","operator":{"name":"DB Fernverkehr AG","icoX":1}},"changeDuration":13,"segmentStart":{"name":"Berlin Hbf (tief)","evaNumber":"8098160"},"segmentDestination":{"name":"Frankfurt(Main)Hbf","evaNumber":"8000105"},"stops":[{"station":{"evaNumber":"8098160","name":"Berlin Hbf (tief)","coordinates":{"lng":13.368892,"lat":52.52585},"ril100":"BL"},"departure":{"platform":"2","scheduledTime":"2023-10-18T13:05:00.000Z","time":"2023-10-18T13:05:00.000Z","reihung":false}},{"station":{"evaNumber":"8011113","name":"Berlin Südkreuz","coordinates":{"lng":13.365863,"lat":52.47623},"ril100":"BPAF"},"departure":{"platform":"3","scheduledTime":"2023-10-18T13:11:00.000Z","time":"2023-10-18T13:11:00.000Z","reihung":false},"auslastung":{"first":3,"second":2}},{"station":{"evaNumber":"8010159","name":"Halle(Saale)Hbf","coordinates":{"lng":11.98699,"lat":51.477079},"ril100":"LH"},"arrival":{"platform":"6","scheduledTime":"2023-10-18T14:13:00.000Z","time":"2023-10-18T14:13:00.000Z","reihung":false},"departure":{"platform":"6","scheduledTime":"2023-10-18T14:18:00.000Z","time":"2023-10-18T14:18:00.000Z","reihung":false},"auslastung":{"first":3,"second":2}},{"station":{"evaNumber":"8010101","name":"Erfurt Hbf","coordinates":{"lng":11.038502,"lat":50.97255},"ril100":"UE  P"},"arrival":{"platform":"1","scheduledTime":"2023-10-18T14:48:00.000Z","time":"2023-10-18T14:48:00.000Z","reihung":false},"departure":{"platform":"1","scheduledTime":"2023-10-18T14:50:00.000Z","time":"2023-10-18T14:50:00.000Z","reihung":false},"auslastung":{"first":3,"second":2}},{"station":{"evaNumber":"8000105","name":"Frankfurt(Main)Hbf","coordinates":{"lng":8.663003,"lat":50.106817},"ril100":"FF"},"arrival":{"platform":"6","scheduledTime":"2023-10-18T16:59:00.000Z","time":"2023-10-18T16:59:00.000Z","reihung":false}}],"finalDestination":"Stuttgart Hbf","jid":"1|209870|0|80|18102023","auslastung":{"first":3,"second":2},"messages":[{"type":"A","code":"CK","prio":200,"icoX":3,"txtN":"Sicher & kontaktlos ohne Ticketkontrolle reisen mit Komfort Check-in"},{"type":"A","code":"FR","prio":260,"icoX":4,"txtN":"Fahrradmitnahme reservierungspflichtig"},{"type":"A","code":"FB","prio":260,"icoX":5,"txtN":"Fahrradmitnahme begrenzt möglich"},{"type":"A","code":"BR","prio":450,"icoX":6,"txtN":"Bordrestaurant"},{"type":"A","code":"EH","prio":560,"icoX":3,"txtN":"Fahrzeuggebundene Einstiegshilfe vorhanden"},{"type":"A","code":"IT","prio":100,"icoX":7,"txtN":"ICE Sprinter"}],"type":"JNY"},{"arrival":{"platform":"3","scheduledTime":"2023-10-18T17:59:00.000Z","time":"2023-10-18T17:59:00.000Z","reihung":false},"departure":{"platform":"17","scheduledTime":"2023-10-18T17:12:00.000Z","time":"2023-10-18T17:12:00.000Z","reihung":false},"duration":2820000,"train":{"name":"RE 70","line":"70","admin":"800574","number":"4581","type":"RE","operator":{"name":"DB Regio AG Mitte","icoX":9}},"changeDuration":6,"segmentStart":{"name":"Frankfurt(Main)Hbf","evaNumber":"8000105"},"segmentDestination":{"name":"Biblis","evaNumber":"8000503"},"stops":[{"station":{"evaNumber":"8000105","name":"Frankfurt(Main)Hbf","coordinates":{"lng":8.663003,"lat":50.106817},"ril100":"FF"},"departure":{"platform":"17","scheduledTime":"2023-10-18T17:12:00.000Z","time":"2023-10-18T17:12:00.000Z","reihung":false}},{"station":{"evaNumber":"8002050","name":"Frankfurt-Niederrad","coordinates":{"lng":8.637393,"lat":50.080865},"ril100":"FNI"},"arrival":{"platform":"2","scheduledTime":"2023-10-18T17:18:00.000Z","time":"2023-10-18T17:18:00.000Z","reihung":false},"departure":{"platform":"2","scheduledTime":"2023-10-18T17:18:00.000Z","time":"2023-10-18T17:18:00.000Z","reihung":false}},{"station":{"evaNumber":"8006175","name":"Walldorf(Hess)","coordinates":{"lng":8.580806,"lat":50.001328},"ril100":"FWF"},"arrival":{"platform":"12","scheduledTime":"2023-10-18T17:25:00.000Z","time":"2023-10-18T17:25:00.000Z","reihung":false},"departure":{"platform":"12","scheduledTime":"2023-10-18T17:25:00.000Z","time":"2023-10-18T17:25:00.000Z","reihung":false}},{"station":{"evaNumber":"8004065","name":"Mörfelden","coordinates":{"lng":8.565381,"lat":49.978963},"ril100":"FMF"},"arrival":{"platform":"3","scheduledTime":"2023-10-18T17:28:00.000Z","time":"2023-10-18T17:28:00.000Z","reihung":false},"departure":{"platform":"3","scheduledTime":"2023-10-18T17:32:00.000Z","time":"2023-10-18T17:32:00.000Z","reihung":false}},{"station":{"evaNumber":"8002386","name":"Groß Gerau-Dornberg","coordinates":{"lng":8.494797,"lat":49.912272},"ril100":"FDG"},"arrival":{"platform":"3","scheduledTime":"2023-10-18T17:37:00.000Z","time":"2023-10-18T17:37:00.000Z","reihung":false},"departure":{"platform":"3","scheduledTime":"2023-10-18T17:38:00.000Z","time":"2023-10-18T17:38:00.000Z","reihung":false}},{"station":{"evaNumber":"8000126","name":"Riedstadt-Goddelau","coordinates":{"lng":8.489763,"lat":49.833985},"ril100":"FGE"},"arrival":{"platform":"5","scheduledTime":"2023-10-18T17:43:00.000Z","time":"2023-10-18T17:43:00.000Z","reihung":false},"departure":{"platform":"5","scheduledTime":"2023-10-18T17:43:00.000Z","time":"2023-10-18T17:43:00.000Z","reihung":false}},{"station":{"evaNumber":"8005740","name":"Stockstadt(Rhein)","coordinates":{"lng":8.472639,"lat":49.809687},"ril100":"FSTR"},"arrival":{"platform":"1","scheduledTime":"2023-10-18T17:46:00.000Z","time":"2023-10-18T17:46:00.000Z","reihung":false},"departure":{"platform":"1","scheduledTime":"2023-10-18T17:46:00.000Z","time":"2023-10-18T17:46:00.000Z","reihung":false}},{"station":{"evaNumber":"8000951","name":"Biebesheim","coordinates":{"lng":8.474014,"lat":49.781947},"ril100":"FBBM"},"arrival":{"platform":"3","scheduledTime":"2023-10-18T17:49:00.000Z","time":"2023-10-18T17:49:00.000Z","reihung":false},"departure":{"platform":"3","scheduledTime":"2023-10-18T17:49:00.000Z","time":"2023-10-18T17:49:00.000Z","reihung":false}},{"station":{"evaNumber":"8002249","name":"Gernsheim","coordinates":{"lng":8.489826,"lat":49.754952},"ril100":"FGHM"},"arrival":{"platform":"1","scheduledTime":"2023-10-18T17:52:00.000Z","time":"2023-10-18T17:52:00.000Z","reihung":false},"departure":{"platform":"1","scheduledTime":"2023-10-18T17:52:00.000Z","time":"2023-10-18T17:52:00.000Z","reihung":false}},{"station":{"evaNumber":"8002391","name":"Groß Rohrheim","coordinates":{"lng":8.476972,"lat":49.714231},"ril100":"FGRO"},"arrival":{"platform":"1","scheduledTime":"2023-10-18T17:56:00.000Z","time":"2023-10-18T17:56:00.000Z","reihung":false},"departure":{"platform":"1","scheduledTime":"2023-10-18T17:56:00.000Z","time":"2023-10-18T17:56:00.000Z","reihung":false}},{"station":{"evaNumber":"8000503","name":"Biblis","coordinates":{"lng":8.450426,"lat":49.688863},"ril100":"FBL"},"arrival":{"platform":"3","scheduledTime":"2023-10-18T17:59:00.000Z","time":"2023-10-18T17:59:00.000Z","reihung":false}}],"finalDestination":"Mannheim Hbf","jid":"1|256529|0|80|18102023","messages":[{"type":"A","code":"FB","prio":260,"icoX":5,"txtN":"Fahrradmitnahme begrenzt möglich"},{"type":"A","code":"EH","prio":560,"icoX":3,"txtN":"Fahrzeuggebundene Einstiegshilfe vorhanden"},{"type":"A","code":"KL","prio":610,"icoX":3,"txtN":"Klimaanlage"}],"type":"JNY"},{"arrival":{"platform":"9","scheduledTime":"2023-10-18T18:14:00.000Z","time":"2023-10-18T18:14:00.000Z","reihung":false},"departure":{"platform":"5","scheduledTime":"2023-10-18T18:05:00.000Z","time":"2023-10-18T18:05:00.000Z","reihung":false},"duration":540000,"train":{"name":"RB 62","line":"62","admin":"8015A6","number":"13681","type":"RB","operator":{"name":"DB Regio AG Mitte","icoX":9}},"segmentStart":{"name":"Biblis","evaNumber":"8000503"},"segmentDestination":{"name":"Worms Hbf","evaNumber":"8000257"},"stops":[{"station":{"evaNumber":"8000503","name":"Biblis","coordinates":{"lng":8.450426,"lat":49.688863},"ril100":"FBL"},"departure":{"platform":"5","scheduledTime":"2023-10-18T18:05:00.000Z","time":"2023-10-18T18:05:00.000Z","reihung":false}},{"station":{"evaNumber":"8002934","name":"Hofheim (Ried)","coordinates":{"lng":8.40895,"lat":49.659496},"ril100":"FHOR"},"arrival":{"platform":"2","scheduledTime":"2023-10-18T18:08:00.000Z","time":"2023-10-18T18:08:00.000Z","reihung":false},"departure":{"platform":"2","scheduledTime":"2023-10-18T18:09:00.000Z","time":"2023-10-18T18:09:00.000Z","reihung":false}},{"station":{"evaNumber":"8000257","name":"Worms Hbf","coordinates":{"lng":8.356633,"lat":49.634973},"ril100":"FWOR"},"arrival":{"platform":"9","scheduledTime":"2023-10-18T18:14:00.000Z","time":"2023-10-18T18:14:00.000Z","reihung":false}}],"finalDestination":"Worms Hbf","jid":"1|250827|5|80|18102023","messages":[{"type":"A","code":"FB","prio":260,"icoX":5,"txtN":"Fahrradmitnahme begrenzt möglich"},{"type":"A","code":"EH","prio":560,"icoX":3,"txtN":"Fahrzeuggebundene Einstiegshilfe vorhanden"},{"type":"A","code":"KL","prio":610,"icoX":3,"txtN":"Klimaanlage"}],"type":"JNY"}],"segmentTypes":["ICE","RE","RB"]},{"checksum":"8d148c46_3","cid":"C-1","date":"2023-10-17T22:00:00.000Z","duration":19920000,"changes":1,"isRideable":true,"arrival":{"platform":"5","scheduledTime":"2023-10-18T18:37:00.000Z","time":"2023-10-18T18:37:00.000Z","reihung":false},"departure":{"platform":"2","scheduledTime":"2023-10-18T13:05:00.000Z","time":"2023-10-18T13:05:00.000Z","reihung":false},"segments":[{"arrival":{"platform":"5","scheduledTime":"2023-10-18T17:55:00.000Z","time":"2023-10-18T17:55:00.000Z","reihung":false},"departure":{"platform":"2","scheduledTime":"2023-10-18T13:05:00.000Z","time":"2023-10-18T13:05:00.000Z","reihung":false},"duration":17400000,"train":{"name":"ICE 771","line":"22","admin":"80","number":"771","type":"ICE","operator":{"name":"DB Fernverkehr AG","icoX":1}},"changeDuration":20,"segmentStart":{"name":"Berlin Hbf (tief)","evaNumber":"8098160"},"segmentDestination":{"name":"Mannheim Hbf","evaNumber":"8000244"},"stops":[{"station":{"evaNumber":"8098160","name":"Berlin Hbf (tief)","coordinates":{"lng":13.368892,"lat":52.52585},"ril100":"BL"},"departure":{"platform":"2","scheduledTime":"2023-10-18T13:05:00.000Z","time":"2023-10-18T13:05:00.000Z","reihung":false}},{"station":{"evaNumber":"8011113","name":"Berlin Südkreuz","coordinates":{"lng":13.365863,"lat":52.47623},"ril100":"BPAF"},"departure":{"platform":"3","scheduledTime":"2023-10-18T13:11:00.000Z","time":"2023-10-18T13:11:00.000Z","reihung":false},"auslastung":{"first":3,"second":2}},{"station":{"evaNumber":"8010159","name":"Halle(Saale)Hbf","coordinates":{"lng":11.98699,"lat":51.477079},"ril100":"LH"},"arrival":{"platform":"6","scheduledTime":"2023-10-18T14:13:00.000Z","time":"2023-10-18T14:13:00.000Z","reihung":false},"departure":{"platform":"6","scheduledTime":"2023-10-18T14:18:00.000Z","time":"2023-10-18T14:18:00.000Z","reihung":false},"auslastung":{"first":3,"second":2}},{"station":{"evaNumber":"8010101","name":"Erfurt Hbf","coordinates":{"lng":11.038502,"lat":50.97255},"ril100":"UE  P"},"arrival":{"platform":"1","scheduledTime":"2023-10-18T14:48:00.000Z","time":"2023-10-18T14:48:00.000Z","reihung":false},"departure":{"platform":"1","scheduledTime":"2023-10-18T14:50:00.000Z","time":"2023-10-18T14:50:00.000Z","reihung":false},"auslastung":{"first":3,"second":2}},{"station":{"evaNumber":"8000105","name":"Frankfurt(Main)Hbf","coordinates":{"lng":8.663003,"lat":50.106817},"ril100":"FF"},"arrival":{"platform":"6","scheduledTime":"2023-10-18T16:59:00.000Z","time":"2023-10-18T16:59:00.000Z","reihung":false},"departure":{"platform":"6","scheduledTime":"2023-10-18T17:06:00.000Z","time":"2023-10-18T17:06:00.000Z","reihung":false}},{"station":{"evaNumber":"8070003","name":"Frankfurt(M) Flughafen Fernbf","coordinates":{"lng":8.569776,"lat":50.052926},"ril100":"FFLF"},"arrival":{"platform":"Fern 5","scheduledTime":"2023-10-18T17:18:00.000Z","time":"2023-10-18T17:18:00.000Z","reihung":false},"departure":{"platform":"Fern 5","scheduledTime":"2023-10-18T17:24:00.000Z","time":"2023-10-18T17:24:00.000Z","reihung":false},"auslastung":{"first":2,"second":1}},{"station":{"evaNumber":"8000244","name":"Mannheim Hbf","coordinates":{"lng":8.469268,"lat":49.479181},"ril100":"RM"},"arrival":{"platform":"5","scheduledTime":"2023-10-18T17:55:00.000Z","time":"2023-10-18T17:55:00.000Z","reihung":false}}],"finalDestination":"Stuttgart Hbf","jid":"1|209870|0|80|18102023","auslastung":{"first":3,"second":2},"messages":[{"type":"A","code":"CK","prio":200,"icoX":3,"txtN":"Sicher & kontaktlos ohne Ticketkontrolle reisen mit Komfort Check-in"},{"type":"A","code":"FR","prio":260,"icoX":4,"txtN":"Fahrradmitnahme reservierungspflichtig"},{"type":"A","code":"FB","prio":260,"icoX":5,"txtN":"Fahrradmitnahme begrenzt möglich"},{"type":"A","code":"BR","prio":450,"icoX":6,"txtN":"Bordrestaurant"},{"type":"A","code":"EH","prio":560,"icoX":3,"txtN":"Fahrzeuggebundene Einstiegshilfe vorhanden"}],"type":"JNY"},{"arrival":{"platform":"5","scheduledTime":"2023-10-18T18:37:00.000Z","time":"2023-10-18T18:37:00.000Z","reihung":false},"departure":{"platform":"4","scheduledTime":"2023-10-18T18:15:00.000Z","time":"2023-10-18T18:15:00.000Z","reihung":false},"duration":1320000,"train":{"name":"S 6","line":"6","admin":"801518","number":"38680","type":"S","operator":{"name":"DB Regio AG Mitte","icoX":9}},"segmentStart":{"name":"Mannheim Hbf","evaNumber":"8000244"},"segmentDestination":{"name":"Worms Hbf","evaNumber":"8000257"},"stops":[{"station":{"evaNumber":"8000244","name":"Mannheim Hbf","coordinates":{"lng":8.469268,"lat":49.479181},"ril100":"RM"},"departure":{"platform":"4","scheduledTime":"2023-10-18T18:15:00.000Z","time":"2023-10-18T18:15:00.000Z","reihung":false}},{"station":{"evaNumber":"8003759","name":"Ludwigshafen(Rhein) Mitte","coordinates":{"lng":8.452215,"lat":49.478938},"ril100":"RLSM"},"arrival":{"platform":"2","scheduledTime":"2023-10-18T18:17:00.000Z","time":"2023-10-18T18:17:00.000Z","reihung":false},"departure":{"platform":"2","scheduledTime":"2023-10-18T18:17:00.000Z","time":"2023-10-18T18:17:00.000Z","reihung":false}},{"station":{"evaNumber":"8000236","name":"Ludwigshafen(Rh)Hbf","coordinates":{"lng":8.433769,"lat":49.477257},"ril100":"RL"},"arrival":{"platform":"1","scheduledTime":"2023-10-18T18:20:00.000Z","time":"2023-10-18T18:20:00.000Z","reihung":false},"departure":{"platform":"1","scheduledTime":"2023-10-18T18:20:00.000Z","time":"2023-10-18T18:20:00.000Z","reihung":false}},{"station":{"evaNumber":"8003766","name":"Ludwigshafen-Oggersheim","coordinates":{"lng":8.381587,"lat":49.49324},"ril100":"RLO"},"arrival":{"platform":"2","scheduledTime":"2023-10-18T18:24:00.000Z","time":"2023-10-18T18:24:00.000Z","reihung":false},"departure":{"platform":"2","scheduledTime":"2023-10-18T18:24:00.000Z","time":"2023-10-18T18:24:00.000Z","reihung":false}},{"station":{"evaNumber":"8002025","name":"Frankenthal Süd","coordinates":{"lng":8.349559,"lat":49.522698},"ril100":"RFTS"},"arrival":{"platform":"1","scheduledTime":"2023-10-18T18:27:00.000Z","time":"2023-10-18T18:27:00.000Z","reihung":false},"departure":{"platform":"1","scheduledTime":"2023-10-18T18:27:00.000Z","time":"2023-10-18T18:27:00.000Z","reihung":false}},{"station":{"evaNumber":"8000332","name":"Frankenthal Hbf","coordinates":{"lng":8.349657,"lat":49.535633},"ril100":"RFT"},"arrival":{"platform":"1","scheduledTime":"2023-10-18T18:29:00.000Z","time":"2023-10-18T18:29:00.000Z","reihung":false},"departure":{"platform":"1","scheduledTime":"2023-10-18T18:29:00.000Z","time":"2023-10-18T18:29:00.000Z","reihung":false}},{"station":{"evaNumber":"8001032","name":"Bobenheim","coordinates":{"lng":8.35035,"lat":49.588139},"ril100":"RBOB"},"arrival":{"platform":"1","scheduledTime":"2023-10-18T18:33:00.000Z","time":"2023-10-18T18:33:00.000Z","reihung":false},"departure":{"platform":"1","scheduledTime":"2023-10-18T18:33:00.000Z","time":"2023-10-18T18:33:00.000Z","reihung":false}},{"station":{"evaNumber":"8000257","name":"Worms Hbf","coordinates":{"lng":8.356633,"lat":49.634973},"ril100":"FWOR"},"arrival":{"platform":"5","scheduledTime":"2023-10-18T18:37:00.000Z","time":"2023-10-18T18:37:00.000Z","reihung":false}}],"finalDestination":"Mainz Hbf","jid":"1|254838|0|80|18102023","messages":[{"type":"A","code":"FB","prio":260,"icoX":5,"txtN":"Fahrradmitnahme begrenzt möglich"},{"type":"A","code":"EH","prio":560,"icoX":3,"txtN":"Fahrzeuggebundene Einstiegshilfe vorhanden"},{"type":"A","code":"LS","prio":605,"icoX":3,"txtN":"Laptop-Steckdosen"},{"type":"A","code":"KL","prio":610,"icoX":3,"txtN":"Klimaanlage"}],"type":"JNY"}],"segmentTypes":["ICE","S"]},{"checksum":"9bf0cd34_3","cid":"C-2","date":"2023-10-17T22:00:00.000Z","duration":22920000,"changes":1,"isRideable":true,"arrival":{"platform":"5","scheduledTime":"2023-10-18T19:48:00.000Z","time":"2023-10-18T19:48:00.000Z","reihung":false},"departure":{"platform":"2","scheduledTime":"2023-10-18T13:26:00.000Z","time":"2023-10-18T13:26:00.000Z","reihung":false},"segments":[{"arrival":{"platform":"8","scheduledTime":"2023-10-18T18:44:00.000Z","time":"2023-10-18T18:44:00.000Z","reihung":false},"departure":{"platform":"2","scheduledTime":"2023-10-18T13:26:00.000Z","time":"2023-10-18T13:26:00.000Z","reihung":false},"duration":19080000,"train":{"name":"ICE 1171","line":"20","admin":"80","number":"1171","type":"ICE","operator":{"name":"DB Fernverkehr AG","icoX":1}},"changeDuration":36,"segmentStart":{"name":"Berlin Hbf (tief)","evaNumber":"8098160"},"segmentDestination":{"name":"Mannheim Hbf","evaNumber":"8000244"},"stops":[{"station":{"evaNumber":"8098160","name":"Berlin Hbf (tief)","coordinates":{"lng":13.368892,"lat":52.52585},"ril100":"BL"},"departure":{"platform":"2","scheduledTime":"2023-10-18T13:26:00.000Z","time":"2023-10-18T13:26:00.000Z","reihung":false}},{"station":{"evaNumber":"8011113","name":"Berlin Südkreuz","coordinates":{"lng":13.365863,"lat":52.47623},"ril100":"BPAF"},"departure":{"platform":"3","scheduledTime":"2023-10-18T13:33:00.000Z","time":"2023-10-18T13:33:00.000Z","reihung":false},"auslastung":{"first":2,"second":2}},{"station":{"evaNumber":"8010222","name":"Lutherstadt Wittenberg Hbf","coordinates":{"lng":12.661999,"lat":51.867579},"ril100":"LW"},"arrival":{"platform":"2","scheduledTime":"2023-10-18T14:09:00.000Z","time":"2023-10-18T14:09:00.000Z","reihung":false},"departure":{"platform":"2","scheduledTime":"2023-10-18T14:10:00.000Z","time":"2023-10-18T14:10:00.000Z","reihung":false},"auslastung":{"first":2,"second":2}},{"station":{"evaNumber":"8010205","name":"Leipzig Hbf","coordinates":{"lng":12.381167,"lat":51.345081},"ril100":"LL"},"arrival":{"platform":"11","scheduledTime":"2023-10-18T14:42:00.000Z","time":"2023-10-18T14:42:00.000Z","reihung":false},"departure":{"platform":"11","scheduledTime":"2023-10-18T14:48:00.000Z","time":"2023-10-18T14:48:00.000Z","reihung":false},"auslastung":{"first":2,"second":2}},{"station":{"evaNumber":"8010101","name":"Erfurt Hbf","coordinates":{"lng":11.038502,"lat":50.97255},"ril100":"UE  P"},"arrival":{"platform":"2","scheduledTime":"2023-10-18T15:28:00.000Z","time":"2023-10-18T15:28:00.000Z","reihung":false},"departure":{"platform":"2","scheduledTime":"2023-10-18T15:30:00.000Z","time":"2023-10-18T15:30:00.000Z","reihung":false},"auslastung":{"first":2,"second":2}},{"station":{"evaNumber":"8010097","name":"Eisenach","coordinates":{"lng":10.33212,"lat":50.976928},"ril100":"UEI"},"arrival":{"platform":"5","scheduledTime":"2023-10-18T15:54:00.000Z","time":"2023-10-18T15:54:00.000Z","reihung":false},"departure":{"platform":"5","scheduledTime":"2023-10-18T15:55:00.000Z","time":"2023-10-18T15:55:00.000Z","reihung":false},"auslastung":{"first":2,"second":2}},{"station":{"evaNumber":"8000115","name":"Fulda","coordinates":{"lng":9.684178,"lat":50.554794},"ril100":"FFU"},"arrival":{"platform":"3","scheduledTime":"2023-10-18T16:48:00.000Z","time":"2023-10-18T16:48:00.000Z","reihung":false},"departure":{"platform":"3","scheduledTime":"2023-10-18T16:50:00.000Z","time":"2023-10-18T16:50:00.000Z","reihung":false},"auslastung":{"first":2,"second":1}},{"station":{"evaNumber":"8000150","name":"Hanau Hbf","coordinates":{"lng":8.92921,"lat":50.120903},"ril100":"FH"},"arrival":{"platform":"6","scheduledTime":"2023-10-18T17:32:00.000Z","time":"2023-10-18T17:32:00.000Z","reihung":false},"departure":{"platform":"6","scheduledTime":"2023-10-18T17:34:00.000Z","time":"2023-10-18T17:34:00.000Z","reihung":false},"auslastung":{"first":2,"second":1}},{"station":{"evaNumber":"8000105","name":"Frankfurt(Main)Hbf","coordinates":{"lng":8.663003,"lat":50.106817},"ril100":"FF"},"arrival":{"platform":"6","scheduledTime":"2023-10-18T17:52:00.000Z","time":"2023-10-18T17:52:00.000Z","reihung":false},"departure":{"platform":"6","scheduledTime":"2023-10-18T18:06:00.000Z","time":"2023-10-18T18:06:00.000Z","reihung":false},"auslastung":{"first":2,"second":1}},{"station":{"evaNumber":"8000244","name":"Mannheim Hbf","coordinates":{"lng":8.469268,"lat":49.479181},"ril100":"RM"},"arrival":{"platform":"8","scheduledTime":"2023-10-18T18:44:00.000Z","time":"2023-10-18T18:44:00.000Z","reihung":false}}],"finalDestination":"Basel SBB","jid":"1|197128|0|80|18102023","auslastung":{"first":2,"second":2},"messages":[{"type":"A","code":"CK","prio":200,"icoX":3,"txtN":"Sicher & kontaktlos ohne Ticketkontrolle reisen mit Komfort Check-in"},{"type":"A","code":"FR","prio":260,"icoX":4,"txtN":"Fahrradmitnahme reservierungspflichtig"},{"type":"A","code":"FB","prio":260,"icoX":5,"txtN":"Fahrradmitnahme begrenzt möglich"},{"type":"A","code":"BR","prio":450,"icoX":6,"txtN":"Bordrestaurant"},{"type":"A","code":"EH","prio":560,"icoX":3,"txtN":"Fahrzeuggebundene Einstiegshilfe vorhanden"}],"type":"JNY"},{"arrival":{"platform":"5","scheduledTime":"2023-10-18T19:48:00.000Z","time":"2023-10-18T19:48:00.000Z","reihung":false},"departure":{"platform":"1","scheduledTime":"2023-10-18T19:20:00.000Z","time":"2023-10-18T19:20:00.000Z","reihung":false},"duration":1680000,"train":{"name":"S 6","line":"6","admin":"801518","number":"38692","type":"S","operator":{"name":"DB Regio AG Mitte","icoX":9}},"segmentStart":{"name":"Mannheim Hbf","evaNumber":"8000244"},"segmentDestination":{"name":"Worms Hbf","evaNumber":"8000257"},"stops":[{"station":{"evaNumber":"8000244","name":"Mannheim Hbf","coordinates":{"lng":8.469268,"lat":49.479181},"ril100":"RM"},"departure":{"platform":"1","scheduledTime":"2023-10-18T19:20:00.000Z","time":"2023-10-18T19:20:00.000Z","reihung":false}},{"station":{"evaNumber":"8003759","name":"Ludwigshafen(Rhein) Mitte","coordinates":{"lng":8.452215,"lat":49.478938},"ril100":"RLSM"},"arrival":{"platform":"1","scheduledTime":"2023-10-18T19:22:00.000Z","time":"2023-10-18T19:22:00.000Z","reihung":false},"departure":{"platform":"1","scheduledTime":"2023-10-18T19:23:00.000Z","time":"2023-10-18T19:23:00.000Z","reihung":false}},{"station":{"evaNumber":"8000236","name":"Ludwigshafen(Rh)Hbf","coordinates":{"lng":8.433769,"lat":49.477257},"ril100":"RL"},"arrival":{"platform":"1","scheduledTime":"2023-10-18T19:25:00.000Z","time":"2023-10-18T19:25:00.000Z","reihung":false},"departure":{"platform":"1","scheduledTime":"2023-10-18T19:26:00.000Z","time":"2023-10-18T19:26:00.000Z","reihung":false}},{"station":{"evaNumber":"8003766","name":"Ludwigshafen-Oggersheim","coordinates":{"lng":8.381587,"lat":49.49324},"ril100":"RLO"},"arrival":{"platform":"2","scheduledTime":"2023-10-18T19:30:00.000Z","time":"2023-10-18T19:30:00.000Z","reihung":false},"departure":{"platform":"2","scheduledTime":"2023-10-18T19:30:00.000Z","time":"2023-10-18T19:30:00.000Z","reihung":false}},{"station":{"evaNumber":"8002025","name":"Frankenthal Süd","coordinates":{"lng":8.349559,"lat":49.522698},"ril100":"RFTS"},"arrival":{"platform":"1","scheduledTime":"2023-10-18T19:33:00.000Z","time":"2023-10-18T19:33:00.000Z","reihung":false},"departure":{"platform":"1","scheduledTime":"2023-10-18T19:33:00.000Z","time":"2023-10-18T19:33:00.000Z","reihung":false}},{"station":{"evaNumber":"8000332","name":"Frankenthal Hbf","coordinates":{"lng":8.349657,"lat":49.535633},"ril100":"RFT"},"arrival":{"platform":"1","scheduledTime":"2023-10-18T19:35:00.000Z","time":"2023-10-18T19:35:00.000Z","reihung":false},"departure":{"platform":"1","scheduledTime":"2023-10-18T19:36:00.000Z","time":"2023-10-18T19:36:00.000Z","reihung":false}},{"station":{"evaNumber":"8001032","name":"Bobenheim","coordinates":{"lng":8.35035,"lat":49.588139},"ril100":"RBOB"},"arrival":{"platform":"1","scheduledTime":"2023-10-18T19:39:00.000Z","time":"2023-10-18T19:39:00.000Z","reihung":false},"departure":{"platform":"1","scheduledTime":"2023-10-18T19:40:00.000Z","time":"2023-10-18T19:40:00.000Z","reihung":false}},{"station":{"evaNumber":"8000257","name":"Worms Hbf","coordinates":{"lng":8.356633,"lat":49.634973},"ril100":"FWOR"},"arrival":{"platform":"5","scheduledTime":"2023-10-18T19:48:00.000Z","time":"2023-10-18T19:48:00.000Z","reihung":false}}],"finalDestination":"Worms Hbf","jid":"1|254871|0|80|18102023","messages":[{"type":"A","code":"FB","prio":260,"icoX":5,"txtN":"Fahrradmitnahme begrenzt möglich"},{"type":"A","code":"EH","prio":560,"icoX":3,"txtN":"Fahrzeuggebundene Einstiegshilfe vorhanden"},{"type":"A","code":"LS","prio":605,"icoX":3,"txtN":"Laptop-Steckdosen"},{"type":"A","code":"KL","prio":610,"icoX":3,"txtN":"Klimaanlage"}],"type":"JNY"}],"segmentTypes":["ICE","S"]},{"checksum":"aad5e5f6_3","cid":"C-3","date":"2023-10-17T22:00:00.000Z","duration":20820000,"changes":3,"isRideable":true,"arrival":{"platform":"9","scheduledTime":"2023-10-18T19:14:00.000Z","time":"2023-10-18T19:14:00.000Z","reihung":false},"departure":{"platform":"4","scheduledTime":"2023-10-18T13:27:00.000Z","time":"2023-10-18T13:27:00.000Z","reihung":false},"segments":[{"arrival":{"platform":"9","scheduledTime":"2023-10-18T17:32:00.000Z","time":"2023-10-18T17:32:00.000Z","reihung":false},"departure":{"platform":"4","scheduledTime":"2023-10-18T13:27:00.000Z","time":"2023-10-18T13:27:00.000Z","reihung":false},"duration":14700000,"train":{"name":"FLX 1247","line":"10","admin":"FLX10","number":"1247","type":"FLX","operator":{"name":"FlixTrain","icoX":16}},"changeDuration":16,"segmentStart":{"name":"Berlin Hbf (tief)","evaNumber":"8098160"},"segmentDestination":{"name":"Frankfurt(Main)Süd","evaNumber":"8002041"},"stops":[{"station":{"evaNumber":"8098160","name":"Berlin Hbf (tief)","coordinates":{"lng":13.368892,"lat":52.52585},"ril100":"BL"},"departure":{"platform":"4","scheduledTime":"2023-10-18T13:27:00.000Z","time":"2023-10-18T13:27:00.000Z","reihung":false}},{"station":{"evaNumber":"8010159","name":"Halle(Saale)Hbf","coordinates":{"lng":11.98699,"lat":51.477079},"ril100":"LH"},"arrival":{"platform":"6","scheduledTime":"2023-10-18T14:42:00.000Z","time":"2023-10-18T14:42:00.000Z","reihung":false},"departure":{"platform":"6","scheduledTime":"2023-10-18T14:44:00.000Z","time":"2023-10-18T14:44:00.000Z","reihung":false}},{"station":{"evaNumber":"8010101","name":"Erfurt Hbf","coordinates":{"lng":11.038502,"lat":50.97255},"ril100":"UE  P"},"arrival":{"platform":"1","scheduledTime":"2023-10-18T15:18:00.000Z","time":"2023-10-18T15:18:00.000Z","reihung":false},"departure":{"platform":"1","scheduledTime":"2023-10-18T15:20:00.000Z","time":"2023-10-18T15:20:00.000Z","reihung":false}},{"station":{"evaNumber":"8010136","name":"Gotha","coordinates":{"lng":10.712688,"lat":50.939029},"ril100":"UGO"},"arrival":{"platform":"2","scheduledTime":"2023-10-18T15:38:00.000Z","time":"2023-10-18T15:38:00.000Z","reihung":false},"departure":{"platform":"2","scheduledTime":"2023-10-18T15:39:00.000Z","time":"2023-10-18T15:39:00.000Z","reihung":false}},{"station":{"evaNumber":"8000115","name":"Fulda","coordinates":{"lng":9.684178,"lat":50.554794},"ril100":"FFU"},"arrival":{"platform":"3","scheduledTime":"2023-10-18T16:41:00.000Z","time":"2023-10-18T16:41:00.000Z","reihung":false},"departure":{"platform":"3","scheduledTime":"2023-10-18T16:43:00.000Z","time":"2023-10-18T16:43:00.000Z","reihung":false}},{"station":{"evaNumber":"8002041","name":"Frankfurt(Main)Süd","coordinates":{"lng":8.686187,"lat":50.099302},"ril100":"FFS"},"arrival":{"platform":"9","scheduledTime":"2023-10-18T17:32:00.000Z","time":"2023-10-18T17:32:00.000Z","reihung":false}}],"finalDestination":"Stuttgart Hbf","jid":"1|286358|0|80|18102023","messages":[{"type":"A","code":"DU","prio":110,"icoX":3,"txtN":"DB-Fahrscheine gelten nicht"},{"type":"A","code":"RP","prio":185,"icoX":17,"txtN":"Reservierungspflicht"},{"type":"A","code":"9N","prio":186,"icoX":3,"txtN":"Deutschland-Ticket nicht gültig"},{"type":"A","code":"FN","prio":555,"icoX":3,"txtN":"Einstieg nur mit gültigem FlixTrain- oder FlixBus Ticket"},{"type":"A","code":"FX","prio":560,"icoX":3,"txtN":"Tickets unter www.flixtrain.de"},{"type":"A","code":"FG","prio":603,"icoX":3,"txtN":"Sitzplatzgarantie"},{"type":"A","code":"LS","prio":605,"icoX":3,"txtN":"Laptop-Steckdosen"},{"type":"A","code":"WV","prio":710,"icoX":3,"txtN":"WLAN verfügbar"}],"type":"JNY"},{"arrival":{"platform":"104","scheduledTime":"2023-10-18T17:58:00.000Z","time":"2023-10-18T17:58:00.000Z","reihung":false},"departure":{"platform":"4","scheduledTime":"2023-10-18T17:48:00.000Z","time":"2023-10-18T17:48:00.000Z","reihung":false},"duration":600000,"train":{"name":"S 4","line":"4","admin":"800528","number":"35466","type":"S","operator":{"name":"DB Regio AG S-Bahn Rhein-Main","icoX":18}},"changeDuration":14,"segmentStart":{"name":"Frankfurt(Main)Süd","evaNumber":"8002041"},"segmentDestination":{"name":"Frankfurt Hbf (tief)","evaNumber":"8098105"},"stops":[{"station":{"evaNumber":"8002041","name":"Frankfurt(Main)Süd","coordinates":{"lng":8.686187,"lat":50.099302},"ril100":"FFS"},"departure":{"platform":"4","scheduledTime":"2023-10-18T17:48:00.000Z","time":"2023-10-18T17:48:00.000Z","reihung":false}},{"station":{"evaNumber":"8002038","name":"Frankfurt(M)Lokalbahnhof","coordinates":{"lng":8.693036,"lat":50.102268},"ril100":"FLBF"},"arrival":{"platform":"2","scheduledTime":"2023-10-18T17:49:00.000Z","time":"2023-10-18T17:49:00.000Z","reihung":false},"departure":{"platform":"2","scheduledTime":"2023-10-18T17:50:00.000Z","time":"2023-10-18T17:50:00.000Z","reihung":false}},{"station":{"evaNumber":"8002058","name":"Frankfurt(M)Ostendstraße","coordinates":{"lng":8.697252,"lat":50.112309},"ril100":"FOST"},"arrival":{"platform":"2","scheduledTime":"2023-10-18T17:51:00.000Z","time":"2023-10-18T17:51:00.000Z","reihung":false},"departure":{"platform":"2","scheduledTime":"2023-10-18T17:52:00.000Z","time":"2023-10-18T17:52:00.000Z","reihung":false}},{"station":{"evaNumber":"8004429","name":"Frankfurt(M)Konstablerwache","coordinates":{"lng":8.686393,"lat":50.114637},"ril100":"FKON"},"arrival":{"platform":"3","scheduledTime":"2023-10-18T17:53:00.000Z","time":"2023-10-18T17:53:00.000Z","reihung":false},"departure":{"platform":"3","scheduledTime":"2023-10-18T17:54:00.000Z","time":"2023-10-18T17:54:00.000Z","reihung":false}},{"station":{"evaNumber":"8006692","name":"Frankfurt(M)Hauptwache","coordinates":{"lng":8.678105,"lat":50.114053},"ril100":"FHAU"},"arrival":{"platform":"3","scheduledTime":"2023-10-18T17:55:00.000Z","time":"2023-10-18T17:55:00.000Z","reihung":false},"departure":{"platform":"3","scheduledTime":"2023-10-18T17:55:00.000Z","time":"2023-10-18T17:55:00.000Z","reihung":false}},{"station":{"evaNumber":"8006691","name":"Frankfurt(M)Taunusanlage","coordinates":{"lng":8.66846,"lat":50.113343},"ril100":"FFTA"},"arrival":{"platform":"2","scheduledTime":"2023-10-18T17:56:00.000Z","time":"2023-10-18T17:56:00.000Z","reihung":false},"departure":{"platform":"2","scheduledTime":"2023-10-18T17:57:00.000Z","time":"2023-10-18T17:57:00.000Z","reihung":false}},{"station":{"evaNumber":"8098105","name":"Frankfurt Hbf (tief)","coordinates":{"lng":8.662761,"lat":50.107347}},"arrival":{"platform":"104","scheduledTime":"2023-10-18T17:58:00.000Z","time":"2023-10-18T17:58:00.000Z","reihung":false}}],"finalDestination":"Kronberg(Taunus)","jid":"1|281624|23|80|18102023","messages":[{"type":"A","code":"FB","prio":260,"icoX":5,"txtN":"Fahrradmitnahme begrenzt möglich"},{"type":"A","code":"EH","prio":560,"icoX":3,"txtN":"Fahrzeuggebundene Einstiegshilfe vorhanden"},{"type":"A","code":"KL","prio":610,"icoX":3,"txtN":"Klimaanlage"},{"type":"A","code":"WV","prio":710,"icoX":3,"txtN":"WLAN verfügbar"}],"type":"JNY"},{"type":"WALK","train":{"name":"Fußweg","type":"Fußweg"},"arrival":{"scheduledTime":"2023-10-18T18:08:00.000Z","time":"2023-10-18T18:08:00.000Z","reihung":false},"departure":{"scheduledTime":"2023-10-18T17:58:00.000Z","time":"2023-10-18T17:58:00.000Z","reihung":false},"duration":600000,"segmentStart":{"evaNumber":"8098105","name":"Frankfurt Hbf (tief)","coordinates":{"lng":8.662761,"lat":50.107347}},"segmentDestination":{"evaNumber":"8000105","name":"Frankfurt(Main)Hbf","coordinates":{"lng":8.663003,"lat":50.106817},"ril100":"FF"}},{"arrival":{"platform":"3","scheduledTime":"2023-10-18T18:56:00.000Z","time":"2023-10-18T18:56:00.000Z","reihung":false},"departure":{"platform":"17","scheduledTime":"2023-10-18T18:12:00.000Z","time":"2023-10-18T18:12:00.000Z","reihung":false},"duration":2640000,"train":{"name":"RE 70","line":"70","admin":"800574","number":"4583","type":"RE","operator":{"name":"DB Regio AG Mitte","icoX":9}},"changeDuration":9,"segmentStart":{"name":"Frankfurt(Main)Hbf","evaNumber":"8000105"},"segmentDestination":{"name":"Biblis","evaNumber":"8000503"},"stops":[{"station":{"evaNumber":"8000105","name":"Frankfurt(Main)Hbf","coordinates":{"lng":8.663003,"lat":50.106817},"ril100":"FF"},"departure":{"platform":"17","scheduledTime":"2023-10-18T18:12:00.000Z","time":"2023-10-18T18:12:00.000Z","reihung":false}},{"station":{"evaNumber":"8002050","name":"Frankfurt-Niederrad","coordinates":{"lng":8.637393,"lat":50.080865},"ril100":"FNI"},"arrival":{"platform":"2","scheduledTime":"2023-10-18T18:18:00.000Z","time":"2023-10-18T18:18:00.000Z","reihung":false},"departure":{"platform":"2","scheduledTime":"2023-10-18T18:18:00.000Z","time":"2023-10-18T18:18:00.000Z","reihung":false}},{"station":{"evaNumber":"8006175","name":"Walldorf(Hess)","coordinates":{"lng":8.580806,"lat":50.001328},"ril100":"FWF"},"arrival":{"platform":"12","scheduledTime":"2023-10-18T18:25:00.000Z","time":"2023-10-18T18:25:00.000Z","reihung":false},"departure":{"platform":"12","scheduledTime":"2023-10-18T18:25:00.000Z","time":"2023-10-18T18:25:00.000Z","reihung":false}},{"station":{"evaNumber":"8004065","name":"Mörfelden","coordinates":{"lng":8.565381,"lat":49.978963},"ril100":"FMF"},"arrival":{"platform":"2","scheduledTime":"2023-10-18T18:28:00.000Z","time":"2023-10-18T18:28:00.000Z","reihung":false},"departure":{"platform":"2","scheduledTime":"2023-10-18T18:28:00.000Z","time":"2023-10-18T18:28:00.000Z","reihung":false}},{"station":{"evaNumber":"8002386","name":"Groß Gerau-Dornberg","coordinates":{"lng":8.494797,"lat":49.912272},"ril100":"FDG"},"arrival":{"platform":"3","scheduledTime":"2023-10-18T18:33:00.000Z","time":"2023-10-18T18:33:00.000Z","reihung":false},"departure":{"platform":"3","scheduledTime":"2023-10-18T18:34:00.000Z","time":"2023-10-18T18:34:00.000Z","reihung":false}},{"station":{"evaNumber":"8000126","name":"Riedstadt-Goddelau","coordinates":{"lng":8.489763,"lat":49.833985},"ril100":"FGE"},"arrival":{"platform":"5","scheduledTime":"2023-10-18T18:39:00.000Z","time":"2023-10-18T18:39:00.000Z","reihung":false},"departure":{"platform":"5","scheduledTime":"2023-10-18T18:39:00.000Z","time":"2023-10-18T18:39:00.000Z","reihung":false}},{"station":{"evaNumber":"8005740","name":"Stockstadt(Rhein)","coordinates":{"lng":8.472639,"lat":49.809687},"ril100":"FSTR"},"arrival":{"platform":"1","scheduledTime":"2023-10-18T18:42:00.000Z","time":"2023-10-18T18:42:00.000Z","reihung":false},"departure":{"platform":"1","scheduledTime":"2023-10-18T18:42:00.000Z","time":"2023-10-18T18:42:00.000Z","reihung":false}},{"station":{"evaNumber":"8000951","name":"Biebesheim","coordinates":{"lng":8.474014,"lat":49.781947},"ril100":"FBBM"},"arrival":{"platform":"3","scheduledTime":"2023-10-18T18:45:00.000Z","time":"2023-10-18T18:45:00.000Z","reihung":false},"departure":{"platform":"3","scheduledTime":"2023-10-18T18:45:00.000Z","time":"2023-10-18T18:45:00.000Z","reihung":false}},{"station":{"evaNumber":"8002249","name":"Gernsheim","coordinates":{"lng":8.489826,"lat":49.754952},"ril100":"FGHM"},"arrival":{"platform":"1","scheduledTime":"2023-10-18T18:48:00.000Z","time":"2023-10-18T18:48:00.000Z","reihung":false},"departure":{"platform":"1","scheduledTime":"2023-10-18T18:49:00.000Z","time":"2023-10-18T18:49:00.000Z","reihung":false}},{"station":{"evaNumber":"8002391","name":"Groß Rohrheim","coordinates":{"lng":8.476972,"lat":49.714231},"ril100":"FGRO"},"arrival":{"platform":"1","scheduledTime":"2023-10-18T18:53:00.000Z","time":"2023-10-18T18:53:00.000Z","reihung":false},"departure":{"platform":"1","scheduledTime":"2023-10-18T18:53:00.000Z","time":"2023-10-18T18:53:00.000Z","reihung":false}},{"station":{"evaNumber":"8000503","name":"Biblis","coordinates":{"lng":8.450426,"lat":49.688863},"ril100":"FBL"},"arrival":{"platform":"3","scheduledTime":"2023-10-18T18:56:00.000Z","time":"2023-10-18T18:56:00.000Z","reihung":false}}],"finalDestination":"Mannheim Hbf","jid":"1|256563|0|80|18102023","messages":[{"type":"A","code":"FB","prio":260,"icoX":5,"txtN":"Fahrradmitnahme begrenzt möglich"},{"type":"A","code":"EH","prio":560,"icoX":3,"txtN":"Fahrzeuggebundene Einstiegshilfe vorhanden"},{"type":"A","code":"KL","prio":610,"icoX":3,"txtN":"Klimaanlage"}],"type":"JNY"},{"arrival":{"platform":"9","scheduledTime":"2023-10-18T19:14:00.000Z","time":"2023-10-18T19:14:00.000Z","reihung":false},"departure":{"platform":"5","scheduledTime":"2023-10-18T19:05:00.000Z","time":"2023-10-18T19:05:00.000Z","reihung":false},"duration":540000,"train":{"name":"RB 62","line":"62","admin":"8015A6","number":"13683","type":"RB","operator":{"name":"DB Regio AG Mitte","icoX":9}},"segmentStart":{"name":"Biblis","evaNumber":"8000503"},"segmentDestination":{"name":"Worms Hbf","evaNumber":"8000257"},"stops":[{"station":{"evaNumber":"8000503","name":"Biblis","coordinates":{"lng":8.450426,"lat":49.688863},"ril100":"FBL"},"departure":{"platform":"5","scheduledTime":"2023-10-18T19:05:00.000Z","time":"2023-10-18T19:05:00.000Z","reihung":false}},{"station":{"evaNumber":"8002934","name":"Hofheim (Ried)","coordinates":{"lng":8.40895,"lat":49.659496},"ril100":"FHOR"},"arrival":{"platform":"2","scheduledTime":"2023-10-18T19:08:00.000Z","time":"2023-10-18T19:08:00.000Z","reihung":false},"departure":{"platform":"2","scheduledTime":"2023-10-18T19:09:00.000Z","time":"2023-10-18T19:09:00.000Z","reihung":false}},{"station":{"evaNumber":"8000257","name":"Worms Hbf","coordinates":{"lng":8.356633,"lat":49.634973},"ril100":"FWOR"},"arrival":{"platform":"9","scheduledTime":"2023-10-18T19:14:00.000Z","time":"2023-10-18T19:14:00.000Z","reihung":false}}],"finalDestination":"Worms Hbf","jid":"1|250831|0|80|18102023","messages":[{"type":"A","code":"FB","prio":260,"icoX":5,"txtN":"Fahrradmitnahme begrenzt möglich"},{"type":"A","code":"EH","prio":560,"icoX":3,"txtN":"Fahrzeuggebundene Einstiegshilfe vorhanden"},{"type":"A","code":"KL","prio":610,"icoX":3,"txtN":"Klimaanlage"}],"type":"JNY"}],"segmentTypes":["FLX","S","Fußweg","RE","RB"]},{"checksum":"ad1e65e8_3","cid":"C-4","date":"2023-10-17T22:00:00.000Z","duration":22860000,"changes":2,"isRideable":true,"arrival":{"platform":"5","scheduledTime":"2023-10-18T19:48:00.000Z","time":"2023-10-18T19:48:00.000Z","reihung":false},"departure":{"platform":"4","scheduledTime":"2023-10-18T13:27:00.000Z","time":"2023-10-18T13:27:00.000Z","reihung":false},"segments":[{"arrival":{"platform":"8","scheduledTime":"2023-10-18T18:33:00.000Z","time":"2023-10-18T18:33:00.000Z","reihung":false},"departure":{"platform":"4","scheduledTime":"2023-10-18T13:27:00.000Z","time":"2023-10-18T13:27:00.000Z","reihung":false},"duration":18360000,"train":{"name":"FLX 1247","line":"10","admin":"FLX10","number":"1247","type":"FLX","operator":{"name":"FlixTrain","icoX":16}},"changeDuration":17,"segmentStart":{"name":"Berlin Hbf (tief)","evaNumber":"8098160"},"segmentDestination":{"name":"Heidelberg Hbf","evaNumber":"8000156"},"stops":[{"station":{"evaNumber":"8098160","name":"Berlin Hbf (tief)","coordinates":{"lng":13.368892,"lat":52.52585},"ril100":"BL"},"departure":{"platform":"4","scheduledTime":"2023-10-18T13:27:00.000Z","time":"2023-10-18T13:27:00.000Z","reihung":false}},{"station":{"evaNumber":"8010159","name":"Halle(Saale)Hbf","coordinates":{"lng":11.98699,"lat":51.477079},"ril100":"LH"},"arrival":{"platform":"6","scheduledTime":"2023-10-18T14:42:00.000Z","time":"2023-10-18T14:42:00.000Z","reihung":false},"departure":{"platform":"6","scheduledTime":"2023-10-18T14:44:00.000Z","time":"2023-10-18T14:44:00.000Z","reihung":false}},{"station":{"evaNumber":"8010101","name":"Erfurt Hbf","coordinates":{"lng":11.038502,"lat":50.97255},"ril100":"UE  P"},"arrival":{"platform":"1","scheduledTime":"2023-10-18T15:18:00.000Z","time":"2023-10-18T15:18:00.000Z","reihung":false},"departure":{"platform":"1","scheduledTime":"2023-10-18T15:20:00.000Z","time":"2023-10-18T15:20:00.000Z","reihung":false}},{"station":{"evaNumber":"8010136","name":"Gotha","coordinates":{"lng":10.712688,"lat":50.939029},"ril100":"UGO"},"arrival":{"platform":"2","scheduledTime":"2023-10-18T15:38:00.000Z","time":"2023-10-18T15:38:00.000Z","reihung":false},"departure":{"platform":"2","scheduledTime":"2023-10-18T15:39:00.000Z","time":"2023-10-18T15:39:00.000Z","reihung":false}},{"station":{"evaNumber":"8000115","name":"Fulda","coordinates":{"lng":9.684178,"lat":50.554794},"ril100":"FFU"},"arrival":{"platform":"3","scheduledTime":"2023-10-18T16:41:00.000Z","time":"2023-10-18T16:41:00.000Z","reihung":false},"departure":{"platform":"3","scheduledTime":"2023-10-18T16:43:00.000Z","time":"2023-10-18T16:43:00.000Z","reihung":false}},{"station":{"evaNumber":"8002041","name":"Frankfurt(Main)Süd","coordinates":{"lng":8.686187,"lat":50.099302},"ril100":"FFS"},"arrival":{"platform":"9","scheduledTime":"2023-10-18T17:32:00.000Z","time":"2023-10-18T17:32:00.000Z","reihung":false},"departure":{"platform":"9","scheduledTime":"2023-10-18T17:36:00.000Z","time":"2023-10-18T17:36:00.000Z","reihung":false}},{"station":{"evaNumber":"8000068","name":"Darmstadt Hbf","coordinates":{"lng":8.629707,"lat":49.872549},"ril100":"FD"},"arrival":{"platform":"10","scheduledTime":"2023-10-18T17:52:00.000Z","time":"2023-10-18T17:52:00.000Z","reihung":false},"departure":{"platform":"10","scheduledTime":"2023-10-18T17:54:00.000Z","time":"2023-10-18T17:54:00.000Z","reihung":false}},{"station":{"evaNumber":"8000156","name":"Heidelberg Hbf","coordinates":{"lng":8.67548,"lat":49.403582},"ril100":"RH"},"arrival":{"platform":"8","scheduledTime":"2023-10-18T18:33:00.000Z","time":"2023-10-18T18:33:00.000Z","reihung":false}}],"finalDestination":"Stuttgart Hbf","jid":"1|286358|0|80|18102023","messages":[{"type":"A","code":"DU","prio":110,"icoX":3,"txtN":"DB-Fahrscheine gelten nicht"},{"type":"A","code":"RP","prio":185,"icoX":17,"txtN":"Reservierungspflicht"},{"type":"A","code":"9N","prio":186,"icoX":3,"txtN":"Deutschland-Ticket nicht gültig"},{"type":"A","code":"FN","prio":555,"icoX":3,"txtN":"Einstieg nur mit gültigem FlixTrain- oder FlixBus Ticket"},{"type":"A","code":"FX","prio":560,"icoX":3,"txtN":"Tickets unter www.flixtrain.de"},{"type":"A","code":"FG","prio":603,"icoX":3,"txtN":"Sitzplatzgarantie"},{"type":"A","code":"LS","prio":605,"icoX":3,"txtN":"Laptop-Steckdosen"},{"type":"A","code":"WV","prio":710,"icoX":3,"txtN":"WLAN verfügbar"}],"type":"JNY"},{"arrival":{"platform":"10","scheduledTime":"2023-10-18T19:06:00.000Z","time":"2023-10-18T19:06:00.000Z","reihung":false},"departure":{"platform":"1","scheduledTime":"2023-10-18T18:50:00.000Z","time":"2023-10-18T18:50:00.000Z","reihung":false},"duration":960000,"train":{"name":"RE 73","line":"73","admin":"800572","number":"26152","type":"RE","operator":{"name":"DB Regio AG Mitte","icoX":9}},"changeDuration":14,"segmentStart":{"name":"Heidelberg Hbf","evaNumber":"8000156"},"segmentDestination":{"name":"Mannheim Hbf","evaNumber":"8000244"},"stops":[{"station":{"evaNumber":"8000156","name":"Heidelberg Hbf","coordinates":{"lng":8.67548,"lat":49.403582},"ril100":"RH"},"departure":{"platform":"1","scheduledTime":"2023-10-18T18:50:00.000Z","time":"2023-10-18T18:50:00.000Z","reihung":false}},{"station":{"evaNumber":"8000244","name":"Mannheim Hbf","coordinates":{"lng":8.469268,"lat":49.479181},"ril100":"RM"},"arrival":{"platform":"10","scheduledTime":"2023-10-18T19:06:00.000Z","time":"2023-10-18T19:06:00.000Z","reihung":false}}],"finalDestination":"Mannheim Hbf","jid":"1|253034|0|80|18102023","messages":[{"type":"A","code":"FB","prio":260,"icoX":5,"txtN":"Fahrradmitnahme begrenzt möglich"},{"type":"A","code":"EH","prio":560,"icoX":3,"txtN":"Fahrzeuggebundene Einstiegshilfe vorhanden"},{"type":"A","code":"LS","prio":605,"icoX":3,"txtN":"Laptop-Steckdosen"},{"type":"A","code":"KL","prio":610,"icoX":3,"txtN":"Klimaanlage"}],"type":"JNY"},{"arrival":{"platform":"5","scheduledTime":"2023-10-18T19:48:00.000Z","time":"2023-10-18T19:48:00.000Z","reihung":false},"departure":{"platform":"1","scheduledTime":"2023-10-18T19:20:00.000Z","time":"2023-10-18T19:20:00.000Z","reihung":false},"duration":1680000,"train":{"name":"S 6","line":"6","admin":"801518","number":"38692","type":"S","operator":{"name":"DB Regio AG Mitte","icoX":9}},"segmentStart":{"name":"Mannheim Hbf","evaNumber":"8000244"},"segmentDestination":{"name":"Worms Hbf","evaNumber":"8000257"},"stops":[{"station":{"evaNumber":"8000244","name":"Mannheim Hbf","coordinates":{"lng":8.469268,"lat":49.479181},"ril100":"RM"},"departure":{"platform":"1","scheduledTime":"2023-10-18T19:20:00.000Z","time":"2023-10-18T19:20:00.000Z","reihung":false}},{"station":{"evaNumber":"8003759","name":"Ludwigshafen(Rhein) Mitte","coordinates":{"lng":8.452215,"lat":49.478938},"ril100":"RLSM"},"arrival":{"platform":"1","scheduledTime":"2023-10-18T19:22:00.000Z","time":"2023-10-18T19:22:00.000Z","reihung":false},"departure":{"platform":"1","scheduledTime":"2023-10-18T19:23:00.000Z","time":"2023-10-18T19:23:00.000Z","reihung":false}},{"station":{"evaNumber":"8000236","name":"Ludwigshafen(Rh)Hbf","coordinates":{"lng":8.433769,"lat":49.477257},"ril100":"RL"},"arrival":{"platform":"1","scheduledTime":"2023-10-18T19:25:00.000Z","time":"2023-10-18T19:25:00.000Z","reihung":false},"departure":{"platform":"1","scheduledTime":"2023-10-18T19:26:00.000Z","time":"2023-10-18T19:26:00.000Z","reihung":false}},{"station":{"evaNumber":"8003766","name":"Ludwigshafen-Oggersheim","coordinates":{"lng":8.381587,"lat":49.49324},"ril100":"RLO"},"arrival":{"platform":"2","scheduledTime":"2023-10-18T19:30:00.000Z","time":"2023-10-18T19:30:00.000Z","reihung":false},"departure":{"platform":"2","scheduledTime":"2023-10-18T19:30:00.000Z","time":"2023-10-18T19:30:00.000Z","reihung":false}},{"station":{"evaNumber":"8002025","name":"Frankenthal Süd","coordinates":{"lng":8.349559,"lat":49.522698},"ril100":"RFTS"},"arrival":{"platform":"1","scheduledTime":"2023-10-18T19:33:00.000Z","time":"2023-10-18T19:33:00.000Z","reihung":false},"departure":{"platform":"1","scheduledTime":"2023-10-18T19:33:00.000Z","time":"2023-10-18T19:33:00.000Z","reihung":false}},{"station":{"evaNumber":"8000332","name":"Frankenthal Hbf","coordinates":{"lng":8.349657,"lat":49.535633},"ril100":"RFT"},"arrival":{"platform":"1","scheduledTime":"2023-10-18T19:35:00.000Z","time":"2023-10-18T19:35:00.000Z","reihung":false},"departure":{"platform":"1","scheduledTime":"2023-10-18T19:36:00.000Z","time":"2023-10-18T19:36:00.000Z","reihung":false}},{"station":{"evaNumber":"8001032","name":"Bobenheim","coordinates":{"lng":8.35035,"lat":49.588139},"ril100":"RBOB"},"arrival":{"platform":"1","scheduledTime":"2023-10-18T19:39:00.000Z","time":"2023-10-18T19:39:00.000Z","reihung":false},"departure":{"platform":"1","scheduledTime":"2023-10-18T19:40:00.000Z","time":"2023-10-18T19:40:00.000Z","reihung":false}},{"station":{"evaNumber":"8000257","name":"Worms Hbf","coordinates":{"lng":8.356633,"lat":49.634973},"ril100":"FWOR"},"arrival":{"platform":"5","scheduledTime":"2023-10-18T19:48:00.000Z","time":"2023-10-18T19:48:00.000Z","reihung":false}}],"finalDestination":"Worms Hbf","jid":"1|254871|0|80|18102023","messages":[{"type":"A","code":"FB","prio":260,"icoX":5,"txtN":"Fahrradmitnahme begrenzt möglich"},{"type":"A","code":"EH","prio":560,"icoX":3,"txtN":"Fahrzeuggebundene Einstiegshilfe vorhanden"},{"type":"A","code":"LS","prio":605,"icoX":3,"txtN":"Laptop-Steckdosen"},{"type":"A","code":"KL","prio":610,"icoX":3,"txtN":"Klimaanlage"}],"type":"JNY"}],"segmentTypes":["FLX","RE","S"]},{"checksum":"e1fc65f5_3","cid":"C-5","date":"2023-10-17T22:00:00.000Z","duration":20700000,"changes":2,"isRideable":true,"arrival":{"platform":"9","scheduledTime":"2023-10-18T19:14:00.000Z","time":"2023-10-18T19:14:00.000Z","reihung":false},"departure":{"platform":"14","scheduledTime":"2023-10-18T13:29:00.000Z","time":"2023-10-18T13:29:00.000Z","reihung":false},"segments":[{"arrival":{"platform":"13","scheduledTime":"2023-10-18T18:03:00.000Z","time":"2023-10-18T18:03:00.000Z","reihung":false},"departure":{"platform":"14","scheduledTime":"2023-10-18T13:29:00.000Z","time":"2023-10-18T13:29:00.000Z","reihung":false},"duration":16440000,"train":{"name":"ICE 799","line":"13","admin":"80","number":"799","type":"ICE","operator":{"name":"DB Fernverkehr AG","icoX":1}},"changeDuration":9,"segmentStart":{"name":"Berlin Hbf","evaNumber":"8011160"},"segmentDestination":{"name":"Frankfurt(Main)Hbf","evaNumber":"8000105"},"stops":[{"station":{"evaNumber":"8011160","name":"Berlin Hbf","coordinates":{"lng":13.369629,"lat":52.524924},"ril100":"BLS"},"departure":{"platform":"14","scheduledTime":"2023-10-18T13:29:00.000Z","time":"2023-10-18T13:29:00.000Z","reihung":false}},{"station":{"evaNumber":"8010404","name":"Berlin-Spandau","coordinates":{"lng":13.200947,"lat":52.533787},"ril100":"BSPD"},"departure":{"platform":"4","scheduledTime":"2023-10-18T13:47:00.000Z","time":"2023-10-18T13:47:00.000Z","reihung":false},"auslastung":{"first":1,"second":2}},{"station":{"evaNumber":"8006552","name":"Wolfsburg Hbf","coordinates":{"lng":10.787757,"lat":52.429495},"ril100":"HWOB"},"arrival":{"platform":"1","scheduledTime":"2023-10-18T14:40:00.000Z","time":"2023-10-18T14:40:00.000Z","reihung":false},"departure":{"platform":"1","scheduledTime":"2023-10-18T14:42:00.000Z","time":"2023-10-18T14:42:00.000Z","reihung":false},"auslastung":{"first":2,"second":2}},{"station":{"evaNumber":"8000049","name":"Braunschweig Hbf","coordinates":{"lng":10.540436,"lat":52.252128},"ril100":"HBS"},"arrival":{"platform":"6","scheduledTime":"2023-10-18T14:57:00.000Z","time":"2023-10-18T14:57:00.000Z","reihung":false},"departure":{"platform":"6","scheduledTime":"2023-10-18T14:59:00.000Z","time":"2023-10-18T14:59:00.000Z","reihung":false},"auslastung":{"first":2,"second":2}},{"station":{"evaNumber":"8000169","name":"Hildesheim Hbf","coordinates":{"lng":9.952281,"lat":52.160169},"ril100":"HHI"},"arrival":{"platform":"3","scheduledTime":"2023-10-18T15:20:00.000Z","time":"2023-10-18T15:20:00.000Z","reihung":false},"departure":{"platform":"3","scheduledTime":"2023-10-18T15:21:00.000Z","time":"2023-10-18T15:21:00.000Z","reihung":false},"auslastung":{"first":2,"second":2}},{"station":{"evaNumber":"8000128","name":"Göttingen","coordinates":{"lng":9.926257,"lat":51.536758},"ril100":"HG"},"arrival":{"platform":"10","scheduledTime":"2023-10-18T15:49:00.000Z","time":"2023-10-18T15:49:00.000Z","reihung":false},"departure":{"platform":"10","scheduledTime":"2023-10-18T15:51:00.000Z","time":"2023-10-18T15:51:00.000Z","reihung":false},"auslastung":{"first":1,"second":1}},{"station":{"evaNumber":"8003200","name":"Kassel-Wilhelmshöhe","coordinates":{"lng":9.446845,"lat":51.312998},"ril100":"FKW"},"arrival":{"platform":"2","scheduledTime":"2023-10-18T16:11:00.000Z","time":"2023-10-18T16:11:00.000Z","reihung":false},"departure":{"platform":"2","scheduledTime":"2023-10-18T16:13:00.000Z","time":"2023-10-18T16:13:00.000Z","reihung":false},"auslastung":{"first":1,"second":1}},{"station":{"evaNumber":"8000105","name":"Frankfurt(Main)Hbf","coordinates":{"lng":8.663003,"lat":50.106817},"ril100":"FF"},"arrival":{"platform":"13","scheduledTime":"2023-10-18T18:03:00.000Z","time":"2023-10-18T18:03:00.000Z","reihung":false}}],"finalDestination":"Frankfurt(Main)Hbf","jid":"1|210363|0|80|18102023","auslastung":{"first":2,"second":2},"messages":[{"type":"A","code":"CK","prio":200,"icoX":3,"txtN":"Sicher & kontaktlos ohne Ticketkontrolle reisen mit Komfort Check-in"},{"type":"A","code":"BR","prio":450,"icoX":6,"txtN":"Bordrestaurant"}],"type":"JNY"},{"arrival":{"platform":"3","scheduledTime":"2023-10-18T18:56:00.000Z","time":"2023-10-18T18:56:00.000Z","reihung":false},"departure":{"platform":"17","scheduledTime":"2023-10-18T18:12:00.000Z","time":"2023-10-18T18:12:00.000Z","reihung":false},"duration":2640000,"train":{"name":"RE 70","line":"70","admin":"800574","number":"4583","type":"RE","operator":{"name":"DB Regio AG Mitte","icoX":9}},"changeDuration":9,"segmentStart":{"name":"Frankfurt(Main)Hbf","evaNumber":"8000105"},"segmentDestination":{"name":"Biblis","evaNumber":"8000503"},"stops":[{"station":{"evaNumber":"8000105","name":"Frankfurt(Main)Hbf","coordinates":{"lng":8.663003,"lat":50.106817},"ril100":"FF"},"departure":{"platform":"17","scheduledTime":"2023-10-18T18:12:00.000Z","time":"2023-10-18T18:12:00.000Z","reihung":false}},{"station":{"evaNumber":"8002050","name":"Frankfurt-Niederrad","coordinates":{"lng":8.637393,"lat":50.080865},"ril100":"FNI"},"arrival":{"platform":"2","scheduledTime":"2023-10-18T18:18:00.000Z","time":"2023-10-18T18:18:00.000Z","reihung":false},"departure":{"platform":"2","scheduledTime":"2023-10-18T18:18:00.000Z","time":"2023-10-18T18:18:00.000Z","reihung":false}},{"station":{"evaNumber":"8006175","name":"Walldorf(Hess)","coordinates":{"lng":8.580806,"lat":50.001328},"ril100":"FWF"},"arrival":{"platform":"12","scheduledTime":"2023-10-18T18:25:00.000Z","time":"2023-10-18T18:25:00.000Z","reihung":false},"departure":{"platform":"12","scheduledTime":"2023-10-18T18:25:00.000Z","time":"2023-10-18T18:25:00.000Z","reihung":false}},{"station":{"evaNumber":"8004065","name":"Mörfelden","coordinates":{"lng":8.565381,"lat":49.978963},"ril100":"FMF"},"arrival":{"platform":"2","scheduledTime":"2023-10-18T18:28:00.000Z","time":"2023-10-18T18:28:00.000Z","reihung":false},"departure":{"platform":"2","scheduledTime":"2023-10-18T18:28:00.000Z","time":"2023-10-18T18:28:00.000Z","reihung":false}},{"station":{"evaNumber":"8002386","name":"Groß Gerau-Dornberg","coordinates":{"lng":8.494797,"lat":49.912272},"ril100":"FDG"},"arrival":{"platform":"3","scheduledTime":"2023-10-18T18:33:00.000Z","time":"2023-10-18T18:33:00.000Z","reihung":false},"departure":{"platform":"3","scheduledTime":"2023-10-18T18:34:00.000Z","time":"2023-10-18T18:34:00.000Z","reihung":false}},{"station":{"evaNumber":"8000126","name":"Riedstadt-Goddelau","coordinates":{"lng":8.489763,"lat":49.833985},"ril100":"FGE"},"arrival":{"platform":"5","scheduledTime":"2023-10-18T18:39:00.000Z","time":"2023-10-18T18:39:00.000Z","reihung":false},"departure":{"platform":"5","scheduledTime":"2023-10-18T18:39:00.000Z","time":"2023-10-18T18:39:00.000Z","reihung":false}},{"station":{"evaNumber":"8005740","name":"Stockstadt(Rhein)","coordinates":{"lng":8.472639,"lat":49.809687},"ril100":"FSTR"},"arrival":{"platform":"1","scheduledTime":"2023-10-18T18:42:00.000Z","time":"2023-10-18T18:42:00.000Z","reihung":false},"departure":{"platform":"1","scheduledTime":"2023-10-18T18:42:00.000Z","time":"2023-10-18T18:42:00.000Z","reihung":false}},{"station":{"evaNumber":"8000951","name":"Biebesheim","coordinates":{"lng":8.474014,"lat":49.781947},"ril100":"FBBM"},"arrival":{"platform":"3","scheduledTime":"2023-10-18T18:45:00.000Z","time":"2023-10-18T18:45:00.000Z","reihung":false},"departure":{"platform":"3","scheduledTime":"2023-10-18T18:45:00.000Z","time":"2023-10-18T18:45:00.000Z","reihung":false}},{"station":{"evaNumber":"8002249","name":"Gernsheim","coordinates":{"lng":8.489826,"lat":49.754952},"ril100":"FGHM"},"arrival":{"platform":"1","scheduledTime":"2023-10-18T18:48:00.000Z","time":"2023-10-18T18:48:00.000Z","reihung":false},"departure":{"platform":"1","scheduledTime":"2023-10-18T18:49:00.000Z","time":"2023-10-18T18:49:00.000Z","reihung":false}},{"station":{"evaNumber":"8002391","name":"Groß Rohrheim","coordinates":{"lng":8.476972,"lat":49.714231},"ril100":"FGRO"},"arrival":{"platform":"1","scheduledTime":"2023-10-18T18:53:00.000Z","time":"2023-10-18T18:53:00.000Z","reihung":false},"departure":{"platform":"1","scheduledTime":"2023-10-18T18:53:00.000Z","time":"2023-10-18T18:53:00.000Z","reihung":false}},{"station":{"evaNumber":"8000503","name":"Biblis","coordinates":{"lng":8.450426,"lat":49.688863},"ril100":"FBL"},"arrival":{"platform":"3","scheduledTime":"2023-10-18T18:56:00.000Z","time":"2023-10-18T18:56:00.000Z","reihung":false}}],"finalDestination":"Mannheim Hbf","jid":"1|256563|0|80|18102023","messages":[{"type":"A","code":"FB","prio":260,"icoX":5,"txtN":"Fahrradmitnahme begrenzt möglich"},{"type":"A","code":"EH","prio":560,"icoX":3,"txtN":"Fahrzeuggebundene Einstiegshilfe vorhanden"},{"type":"A","code":"KL","prio":610,"icoX":3,"txtN":"Klimaanlage"}],"type":"JNY"},{"arrival":{"platform":"9","scheduledTime":"2023-10-18T19:14:00.000Z","time":"2023-10-18T19:14:00.000Z","reihung":false},"departure":{"platform":"5","scheduledTime":"2023-10-18T19:05:00.000Z","time":"2023-10-18T19:05:00.000Z","reihung":false},"duration":540000,"train":{"name":"RB 62","line":"62","admin":"8015A6","number":"13683","type":"RB","operator":{"name":"DB Regio AG Mitte","icoX":9}},"segmentStart":{"name":"Biblis","evaNumber":"8000503"},"segmentDestination":{"name":"Worms Hbf","evaNumber":"8000257"},"stops":[{"station":{"evaNumber":"8000503","name":"Biblis","coordinates":{"lng":8.450426,"lat":49.688863},"ril100":"FBL"},"departure":{"platform":"5","scheduledTime":"2023-10-18T19:05:00.000Z","time":"2023-10-18T19:05:00.000Z","reihung":false}},{"station":{"evaNumber":"8002934","name":"Hofheim (Ried)","coordinates":{"lng":8.40895,"lat":49.659496},"ril100":"FHOR"},"arrival":{"platform":"2","scheduledTime":"2023-10-18T19:08:00.000Z","time":"2023-10-18T19:08:00.000Z","reihung":false},"departure":{"platform":"2","scheduledTime":"2023-10-18T19:09:00.000Z","time":"2023-10-18T19:09:00.000Z","reihung":false}},{"station":{"evaNumber":"8000257","name":"Worms Hbf","coordinates":{"lng":8.356633,"lat":49.634973},"ril100":"FWOR"},"arrival":{"platform":"9","scheduledTime":"2023-10-18T19:14:00.000Z","time":"2023-10-18T19:14:00.000Z","reihung":false}}],"finalDestination":"Worms Hbf","jid":"1|250831|0|80|18102023","messages":[{"type":"A","code":"FB","prio":260,"icoX":5,"txtN":"Fahrradmitnahme begrenzt möglich"},{"type":"A","code":"EH","prio":560,"icoX":3,"txtN":"Fahrzeuggebundene Einstiegshilfe vorhanden"},{"type":"A","code":"KL","prio":610,"icoX":3,"txtN":"Klimaanlage"}],"type":"JNY"}],"segmentTypes":["ICE","RE","RB"]},{"checksum":"51fb466d_3","cid":"C-6","date":"2023-10-17T22:00:00.000Z","duration":23160000,"changes":1,"isRideable":true,"arrival":{"platform":"2","scheduledTime":"2023-10-18T19:55:00.000Z","time":"2023-10-18T19:55:00.000Z","reihung":false},"departure":{"platform":"14","scheduledTime":"2023-10-18T13:29:00.000Z","time":"2023-10-18T13:29:00.000Z","reihung":false},"segments":[{"arrival":{"platform":"13","scheduledTime":"2023-10-18T18:03:00.000Z","time":"2023-10-18T18:03:00.000Z","reihung":false},"departure":{"platform":"14","scheduledTime":"2023-10-18T13:29:00.000Z","time":"2023-10-18T13:29:00.000Z","reihung":false},"duration":16440000,"train":{"name":"ICE 799","line":"13","admin":"80","number":"799","type":"ICE","operator":{"name":"DB Fernverkehr AG","icoX":1}},"changeDuration":35,"segmentStart":{"name":"Berlin Hbf","evaNumber":"8011160"},"segmentDestination":{"name":"Frankfurt(Main)Hbf","evaNumber":"8000105"},"stops":[{"station":{"evaNumber":"8011160","name":"Berlin Hbf","coordinates":{"lng":13.369629,"lat":52.524924},"ril100":"BLS"},"departure":{"platform":"14","scheduledTime":"2023-10-18T13:29:00.000Z","time":"2023-10-18T13:29:00.000Z","reihung":false}},{"station":{"evaNumber":"8010404","name":"Berlin-Spandau","coordinates":{"lng":13.200947,"lat":52.533787},"ril100":"BSPD"},"departure":{"platform":"4","scheduledTime":"2023-10-18T13:47:00.000Z","time":"2023-10-18T13:47:00.000Z","reihung":false},"auslastung":{"first":1,"second":2}},{"station":{"evaNumber":"8006552","name":"Wolfsburg Hbf","coordinates":{"lng":10.787757,"lat":52.429495},"ril100":"HWOB"},"arrival":{"platform":"1","scheduledTime":"2023-10-18T14:40:00.000Z","time":"2023-10-18T14:40:00.000Z","reihung":false},"departure":{"platform":"1","scheduledTime":"2023-10-18T14:42:00.000Z","time":"2023-10-18T14:42:00.000Z","reihung":false},"auslastung":{"first":2,"second":2}},{"station":{"evaNumber":"8000049","name":"Braunschweig Hbf","coordinates":{"lng":10.540436,"lat":52.252128},"ril100":"HBS"},"arrival":{"platform":"6","scheduledTime":"2023-10-18T14:57:00.000Z","time":"2023-10-18T14:57:00.000Z","reihung":false},"departure":{"platform":"6","scheduledTime":"2023-10-18T14:59:00.000Z","time":"2023-10-18T14:59:00.000Z","reihung":false},"auslastung":{"first":2,"second":2}},{"station":{"evaNumber":"8000169","name":"Hildesheim Hbf","coordinates":{"lng":9.952281,"lat":52.160169},"ril100":"HHI"},"arrival":{"platform":"3","scheduledTime":"2023-10-18T15:20:00.000Z","time":"2023-10-18T15:20:00.000Z","reihung":false},"departure":{"platform":"3","scheduledTime":"2023-10-18T15:21:00.000Z","time":"2023-10-18T15:21:00.000Z","reihung":false},"auslastung":{"first":2,"second":2}},{"station":{"evaNumber":"8000128","name":"Göttingen","coordinates":{"lng":9.926257,"lat":51.536758},"ril100":"HG"},"arrival":{"platform":"10","scheduledTime":"2023-10-18T15:49:00.000Z","time":"2023-10-18T15:49:00.000Z","reihung":false},"departure":{"platform":"10","scheduledTime":"2023-10-18T15:51:00.000Z","time":"2023-10-18T15:51:00.000Z","reihung":false},"auslastung":{"first":1,"second":1}},{"station":{"evaNumber":"8003200","name":"Kassel-Wilhelmshöhe","coordinates":{"lng":9.446845,"lat":51.312998},"ril100":"FKW"},"arrival":{"platform":"2","scheduledTime":"2023-10-18T16:11:00.000Z","time":"2023-10-18T16:11:00.000Z","reihung":false},"departure":{"platform":"2","scheduledTime":"2023-10-18T16:13:00.000Z","time":"2023-10-18T16:13:00.000Z","reihung":false},"auslastung":{"first":1,"second":1}},{"station":{"evaNumber":"8000105","name":"Frankfurt(Main)Hbf","coordinates":{"lng":8.663003,"lat":50.106817},"ril100":"FF"},"arrival":{"platform":"13","scheduledTime":"2023-10-18T18:03:00.000Z","time":"2023-10-18T18:03:00.000Z","reihung":false}}],"finalDestination":"Frankfurt(Main)Hbf","jid":"1|210363|0|80|18102023","auslastung":{"first":2,"second":2},"messages":[{"type":"A","code":"CK","prio":200,"icoX":3,"txtN":"Sicher & kontaktlos ohne Ticketkontrolle reisen mit Komfort Check-in"},{"type":"A","code":"BR","prio":450,"icoX":6,"txtN":"Bordrestaurant"}],"type":"JNY"},{"arrival":{"platform":"2","scheduledTime":"2023-10-18T19:55:00.000Z","time":"2023-10-18T19:55:00.000Z","reihung":false},"departure":{"platform":"24","scheduledTime":"2023-10-18T18:38:00.000Z","time":"2023-10-18T18:38:00.000Z","reihung":false},"duration":4620000,"train":{"name":"RE 14","line":"14","admin":"800640","number":"4759","type":"RE","operator":{"name":"DB Regio AG Mitte SÜWEX","icoX":21}},"segmentStart":{"name":"Frankfurt(Main)Hbf","evaNumber":"8000105"},"segmentDestination":{"name":"Worms Hbf","evaNumber":"8000257"},"stops":[{"station":{"evaNumber":"8000105","name":"Frankfurt(Main)Hbf","coordinates":{"lng":8.663003,"lat":50.106817},"ril100":"FF"},"departure":{"platform":"24","scheduledTime":"2023-10-18T18:38:00.000Z","time":"2023-10-18T18:38:00.000Z","reihung":false}},{"station":{"evaNumber":"8000106","name":"Frankfurt-Höchst","coordinates":{"lng":8.542449,"lat":50.102754},"ril100":"FHOE"},"arrival":{"platform":"6","scheduledTime":"2023-10-18T18:47:00.000Z","time":"2023-10-18T18:47:00.000Z","reihung":false},"departure":{"platform":"6","scheduledTime":"2023-10-18T18:47:00.000Z","time":"2023-10-18T18:47:00.000Z","reihung":false}},{"station":{"evaNumber":"8002872","name":"Hochheim(Main)","coordinates":{"lng":8.350709,"lat":50.004259},"ril100":"FHM"},"arrival":{"platform":"1","scheduledTime":"2023-10-18T18:58:00.000Z","time":"2023-10-18T18:58:00.000Z","reihung":false},"departure":{"platform":"1","scheduledTime":"2023-10-18T18:58:00.000Z","time":"2023-10-18T18:58:00.000Z","reihung":false}},{"station":{"evaNumber":"8000240","name":"Mainz Hbf","coordinates":{"lng":8.258453,"lat":50.001239},"ril100":"FMZ"},"arrival":{"platform":"5a","scheduledTime":"2023-10-18T19:11:00.000Z","time":"2023-10-18T19:11:00.000Z","reihung":false},"departure":{"platform":"5a","scheduledTime":"2023-10-18T19:17:00.000Z","time":"2023-10-18T19:17:00.000Z","reihung":false}},{"station":{"evaNumber":"8003816","name":"Mainz Römisches Theater","coordinates":{"lng":8.277393,"lat":49.993517},"ril100":"FMS"},"arrival":{"platform":"4","scheduledTime":"2023-10-18T19:21:00.000Z","time":"2023-10-18T19:21:00.000Z","reihung":false},"departure":{"platform":"4","scheduledTime":"2023-10-18T19:21:00.000Z","time":"2023-10-18T19:21:00.000Z","reihung":false}},{"station":{"evaNumber":"8000359","name":"Bodenheim","coordinates":{"lng":8.311229,"lat":49.930529},"ril100":"FBOD"},"arrival":{"platform":"1","scheduledTime":"2023-10-18T19:27:00.000Z","time":"2023-10-18T19:27:00.000Z","reihung":false},"departure":{"platform":"1","scheduledTime":"2023-10-18T19:27:00.000Z","time":"2023-10-18T19:27:00.000Z","reihung":false}},{"station":{"evaNumber":"8004193","name":"Nackenheim","coordinates":{"lng":8.341882,"lat":49.919104},"ril100":"FNAC"},"arrival":{"platform":"1","scheduledTime":"2023-10-18T19:30:00.000Z","time":"2023-10-18T19:30:00.000Z","reihung":false},"departure":{"platform":"1","scheduledTime":"2023-10-18T19:30:00.000Z","time":"2023-10-18T19:30:00.000Z","reihung":false}},{"station":{"evaNumber":"8004432","name":"Nierstein","coordinates":{"lng":8.342682,"lat":49.872117},"ril100":"FNIR"},"arrival":{"platform":"2","scheduledTime":"2023-10-18T19:34:00.000Z","time":"2023-10-18T19:34:00.000Z","reihung":false},"departure":{"platform":"2","scheduledTime":"2023-10-18T19:34:00.000Z","time":"2023-10-18T19:34:00.000Z","reihung":false}},{"station":{"evaNumber":"8004680","name":"Oppenheim","coordinates":{"lng":8.358098,"lat":49.857564},"ril100":"FOPP"},"arrival":{"platform":"3","scheduledTime":"2023-10-18T19:37:00.000Z","time":"2023-10-18T19:37:00.000Z","reihung":false},"departure":{"platform":"3","scheduledTime":"2023-10-18T19:37:00.000Z","time":"2023-10-18T19:37:00.000Z","reihung":false}},{"station":{"evaNumber":"8002474","name":"Guntersblum","coordinates":{"lng":8.351177,"lat":49.791862},"ril100":"FGUB"},"arrival":{"platform":"2","scheduledTime":"2023-10-18T19:42:00.000Z","time":"2023-10-18T19:42:00.000Z","reihung":false},"departure":{"platform":"2","scheduledTime":"2023-10-18T19:42:00.000Z","time":"2023-10-18T19:42:00.000Z","reihung":false}},{"station":{"evaNumber":"8004714","name":"Osthofen","coordinates":{"lng":8.326267,"lat":49.705071},"ril100":"FOHF"},"arrival":{"platform":"1","scheduledTime":"2023-10-18T19:49:00.000Z","time":"2023-10-18T19:49:00.000Z","reihung":false},"departure":{"platform":"1","scheduledTime":"2023-10-18T19:49:00.000Z","time":"2023-10-18T19:49:00.000Z","reihung":false}},{"station":{"evaNumber":"8000257","name":"Worms Hbf","coordinates":{"lng":8.356633,"lat":49.634973},"ril100":"FWOR"},"arrival":{"platform":"2","scheduledTime":"2023-10-18T19:55:00.000Z","time":"2023-10-18T19:55:00.000Z","reihung":false}}],"finalDestination":"Mannheim Hbf","jid":"1|256861|0|80|18102023","messages":[{"type":"A","code":"FB","prio":260,"icoX":5,"txtN":"Fahrradmitnahme begrenzt möglich"},{"type":"A","code":"RC","prio":320,"icoX":3,"txtN":"Reservierung an DB-Automaten/Reisezentren/vielen DB-Agenturen möglich"},{"type":"A","code":"RO","prio":560,"icoX":22,"txtN":"Rollstuhlstellplatz"},{"type":"A","code":"EH","prio":560,"icoX":3,"txtN":"Fahrzeuggebundene Einstiegshilfe vorhanden"},{"type":"A","code":"LS","prio":605,"icoX":3,"txtN":"Laptop-Steckdosen"},{"type":"A","code":"KL","prio":610,"icoX":3,"txtN":"Klimaanlage"}],"type":"JNY"}],"segmentTypes":["ICE","RE"]},{"checksum":"7d6b39b2_3","cid":"C-7","date":"2023-10-17T22:00:00.000Z","duration":20400000,"changes":3,"isRideable":true,"arrival":{"platform":"9","scheduledTime":"2023-10-18T19:14:00.000Z","time":"2023-10-18T19:14:00.000Z","reihung":false},"departure":{"platform":"1","scheduledTime":"2023-10-18T13:34:00.000Z","time":"2023-10-18T13:34:00.000Z","reihung":false},"segments":[{"arrival":{"platform":"1","scheduledTime":"2023-10-18T15:24:00.000Z","time":"2023-10-18T15:24:00.000Z","reihung":false},"departure":{"platform":"1","scheduledTime":"2023-10-18T13:34:00.000Z","time":"2023-10-18T13:34:00.000Z","reihung":false},"duration":6600000,"train":{"name":"ICE 709","line":"18","admin":"80","number":"709","type":"ICE","operator":{"name":"DB Fernverkehr AG","icoX":1}},"changeDuration":6,"segmentStart":{"name":"Berlin Hbf (tief)","evaNumber":"8098160"},"segmentDestination":{"name":"Erfurt Hbf","evaNumber":"8010101"},"stops":[{"station":{"evaNumber":"8098160","name":"Berlin Hbf (tief)","coordinates":{"lng":13.368892,"lat":52.52585},"ril100":"BL"},"departure":{"platform":"1","scheduledTime":"2023-10-18T13:34:00.000Z","time":"2023-10-18T13:34:00.000Z","reihung":false}},{"station":{"evaNumber":"8011113","name":"Berlin Südkreuz","coordinates":{"lng":13.365863,"lat":52.47623},"ril100":"BPAF"},"arrival":{"platform":"3","scheduledTime":"2023-10-18T13:39:00.000Z","time":"2023-10-18T13:39:00.000Z","reihung":false},"departure":{"platform":"3","scheduledTime":"2023-10-18T13:41:00.000Z","time":"2023-10-18T13:41:00.000Z","reihung":false},"auslastung":{"first":1,"second":1}},{"station":{"evaNumber":"8010050","name":"Bitterfeld","coordinates":{"lng":12.316966,"lat":51.622911},"ril100":"LBT"},"arrival":{"platform":"3","scheduledTime":"2023-10-18T14:32:00.000Z","time":"2023-10-18T14:32:00.000Z","reihung":false},"departure":{"platform":"3","scheduledTime":"2023-10-18T14:33:00.000Z","time":"2023-10-18T14:33:00.000Z","reihung":false},"auslastung":{"first":1,"second":1}},{"station":{"evaNumber":"8010159","name":"Halle(Saale)Hbf","coordinates":{"lng":11.98699,"lat":51.477079},"ril100":"LH"},"arrival":{"platform":"8","scheduledTime":"2023-10-18T14:51:00.000Z","time":"2023-10-18T14:51:00.000Z","reihung":false},"departure":{"platform":"8","scheduledTime":"2023-10-18T14:53:00.000Z","time":"2023-10-18T14:53:00.000Z","reihung":false},"auslastung":{"first":1,"second":1}},{"station":{"evaNumber":"8010101","name":"Erfurt Hbf","coordinates":{"lng":11.038502,"lat":50.97255},"ril100":"UE  P"},"arrival":{"platform":"1","scheduledTime":"2023-10-18T15:24:00.000Z","time":"2023-10-18T15:24:00.000Z","reihung":false}}],"finalDestination":"München Hbf","jid":"1|209234|0|80|18102023","auslastung":{"first":1,"second":1},"messages":[{"type":"A","code":"CK","prio":200,"icoX":3,"txtN":"Sicher & kontaktlos ohne Ticketkontrolle reisen mit Komfort Check-in"},{"type":"A","code":"FR","prio":260,"icoX":4,"txtN":"Fahrradmitnahme reservierungspflichtig"},{"type":"A","code":"FB","prio":260,"icoX":5,"txtN":"Fahrradmitnahme begrenzt möglich"},{"type":"A","code":"BR","prio":450,"icoX":6,"txtN":"Bordrestaurant"},{"type":"A","code":"EH","prio":560,"icoX":3,"txtN":"Fahrzeuggebundene Einstiegshilfe vorhanden"}],"type":"JNY"},{"arrival":{"platform":"6","scheduledTime":"2023-10-18T17:52:00.000Z","time":"2023-10-18T17:52:00.000Z","reihung":false},"departure":{"platform":"2","scheduledTime":"2023-10-18T15:30:00.000Z","time":"2023-10-18T15:30:00.000Z","reihung":false},"duration":8520000,"train":{"name":"ICE 1171","line":"20","admin":"80","number":"1171","type":"ICE","operator":{"name":"DB Fernverkehr AG","icoX":1}},"changeDuration":20,"segmentStart":{"name":"Erfurt Hbf","evaNumber":"8010101"},"segmentDestination":{"name":"Frankfurt(Main)Hbf","evaNumber":"8000105"},"stops":[{"station":{"evaNumber":"8010101","name":"Erfurt Hbf","coordinates":{"lng":11.038502,"lat":50.97255},"ril100":"UE  P"},"departure":{"platform":"2","scheduledTime":"2023-10-18T15:30:00.000Z","time":"2023-10-18T15:30:00.000Z","reihung":false},"auslastung":{"first":2,"second":2}},{"station":{"evaNumber":"8010097","name":"Eisenach","coordinates":{"lng":10.33212,"lat":50.976928},"ril100":"UEI"},"arrival":{"platform":"5","scheduledTime":"2023-10-18T15:54:00.000Z","time":"2023-10-18T15:54:00.000Z","reihung":false},"departure":{"platform":"5","scheduledTime":"2023-10-18T15:55:00.000Z","time":"2023-10-18T15:55:00.000Z","reihung":false},"auslastung":{"first":2,"second":2}},{"station":{"evaNumber":"8000115","name":"Fulda","coordinates":{"lng":9.684178,"lat":50.554794},"ril100":"FFU"},"arrival":{"platform":"3","scheduledTime":"2023-10-18T16:48:00.000Z","time":"2023-10-18T16:48:00.000Z","reihung":false},"departure":{"platform":"3","scheduledTime":"2023-10-18T16:50:00.000Z","time":"2023-10-18T16:50:00.000Z","reihung":false},"auslastung":{"first":2,"second":1}},{"station":{"evaNumber":"8000150","name":"Hanau Hbf","coordinates":{"lng":8.92921,"lat":50.120903},"ril100":"FH"},"arrival":{"platform":"6","scheduledTime":"2023-10-18T17:32:00.000Z","time":"2023-10-18T17:32:00.000Z","reihung":false},"departure":{"platform":"6","scheduledTime":"2023-10-18T17:34:00.000Z","time":"2023-10-18T17:34:00.000Z","reihung":false},"auslastung":{"first":2,"second":1}},{"station":{"evaNumber":"8000105","name":"Frankfurt(Main)Hbf","coordinates":{"lng":8.663003,"lat":50.106817},"ril100":"FF"},"arrival":{"platform":"6","scheduledTime":"2023-10-18T17:52:00.000Z","time":"2023-10-18T17:52:00.000Z","reihung":false}}],"finalDestination":"Basel SBB","jid":"1|197128|0|80|18102023","auslastung":{"first":2,"second":2},"messages":[{"type":"A","code":"CK","prio":200,"icoX":3,"txtN":"Sicher & kontaktlos ohne Ticketkontrolle reisen mit Komfort Check-in"},{"type":"A","code":"FR","prio":260,"icoX":4,"txtN":"Fahrradmitnahme reservierungspflichtig"},{"type":"A","code":"FB","prio":260,"icoX":5,"txtN":"Fahrradmitnahme begrenzt möglich"},{"type":"A","code":"BR","prio":450,"icoX":6,"txtN":"Bordrestaurant"},{"type":"A","code":"EH","prio":560,"icoX":3,"txtN":"Fahrzeuggebundene Einstiegshilfe vorhanden"}],"type":"JNY"},{"arrival":{"platform":"3","scheduledTime":"2023-10-18T18:56:00.000Z","time":"2023-10-18T18:56:00.000Z","reihung":false},"departure":{"platform":"17","scheduledTime":"2023-10-18T18:12:00.000Z","time":"2023-10-18T18:12:00.000Z","reihung":false},"duration":2640000,"train":{"name":"RE 70","line":"70","admin":"800574","number":"4583","type":"RE","operator":{"name":"DB Regio AG Mitte","icoX":9}},"changeDuration":9,"segmentStart":{"name":"Frankfurt(Main)Hbf","evaNumber":"8000105"},"segmentDestination":{"name":"Biblis","evaNumber":"8000503"},"stops":[{"station":{"evaNumber":"8000105","name":"Frankfurt(Main)Hbf","coordinates":{"lng":8.663003,"lat":50.106817},"ril100":"FF"},"departure":{"platform":"17","scheduledTime":"2023-10-18T18:12:00.000Z","time":"2023-10-18T18:12:00.000Z","reihung":false}},{"station":{"evaNumber":"8002050","name":"Frankfurt-Niederrad","coordinates":{"lng":8.637393,"lat":50.080865},"ril100":"FNI"},"arrival":{"platform":"2","scheduledTime":"2023-10-18T18:18:00.000Z","time":"2023-10-18T18:18:00.000Z","reihung":false},"departure":{"platform":"2","scheduledTime":"2023-10-18T18:18:00.000Z","time":"2023-10-18T18:18:00.000Z","reihung":false}},{"station":{"evaNumber":"8006175","name":"Walldorf(Hess)","coordinates":{"lng":8.580806,"lat":50.001328},"ril100":"FWF"},"arrival":{"platform":"12","scheduledTime":"2023-10-18T18:25:00.000Z","time":"2023-10-18T18:25:00.000Z","reihung":false},"departure":{"platform":"12","scheduledTime":"2023-10-18T18:25:00.000Z","time":"2023-10-18T18:25:00.000Z","reihung":false}},{"station":{"evaNumber":"8004065","name":"Mörfelden","coordinates":{"lng":8.565381,"lat":49.978963},"ril100":"FMF"},"arrival":{"platform":"2","scheduledTime":"2023-10-18T18:28:00.000Z","time":"2023-10-18T18:28:00.000Z","reihung":false},"departure":{"platform":"2","scheduledTime":"2023-10-18T18:28:00.000Z","time":"2023-10-18T18:28:00.000Z","reihung":false}},{"station":{"evaNumber":"8002386","name":"Groß Gerau-Dornberg","coordinates":{"lng":8.494797,"lat":49.912272},"ril100":"FDG"},"arrival":{"platform":"3","scheduledTime":"2023-10-18T18:33:00.000Z","time":"2023-10-18T18:33:00.000Z","reihung":false},"departure":{"platform":"3","scheduledTime":"2023-10-18T18:34:00.000Z","time":"2023-10-18T18:34:00.000Z","reihung":false}},{"station":{"evaNumber":"8000126","name":"Riedstadt-Goddelau","coordinates":{"lng":8.489763,"lat":49.833985},"ril100":"FGE"},"arrival":{"platform":"5","scheduledTime":"2023-10-18T18:39:00.000Z","time":"2023-10-18T18:39:00.000Z","reihung":false},"departure":{"platform":"5","scheduledTime":"2023-10-18T18:39:00.000Z","time":"2023-10-18T18:39:00.000Z","reihung":false}},{"station":{"evaNumber":"8005740","name":"Stockstadt(Rhein)","coordinates":{"lng":8.472639,"lat":49.809687},"ril100":"FSTR"},"arrival":{"platform":"1","scheduledTime":"2023-10-18T18:42:00.000Z","time":"2023-10-18T18:42:00.000Z","reihung":false},"departure":{"platform":"1","scheduledTime":"2023-10-18T18:42:00.000Z","time":"2023-10-18T18:42:00.000Z","reihung":false}},{"station":{"evaNumber":"8000951","name":"Biebesheim","coordinates":{"lng":8.474014,"lat":49.781947},"ril100":"FBBM"},"arrival":{"platform":"3","scheduledTime":"2023-10-18T18:45:00.000Z","time":"2023-10-18T18:45:00.000Z","reihung":false},"departure":{"platform":"3","scheduledTime":"2023-10-18T18:45:00.000Z","time":"2023-10-18T18:45:00.000Z","reihung":false}},{"station":{"evaNumber":"8002249","name":"Gernsheim","coordinates":{"lng":8.489826,"lat":49.754952},"ril100":"FGHM"},"arrival":{"platform":"1","scheduledTime":"2023-10-18T18:48:00.000Z","time":"2023-10-18T18:48:00.000Z","reihung":false},"departure":{"platform":"1","scheduledTime":"2023-10-18T18:49:00.000Z","time":"2023-10-18T18:49:00.000Z","reihung":false}},{"station":{"evaNumber":"8002391","name":"Groß Rohrheim","coordinates":{"lng":8.476972,"lat":49.714231},"ril100":"FGRO"},"arrival":{"platform":"1","scheduledTime":"2023-10-18T18:53:00.000Z","time":"2023-10-18T18:53:00.000Z","reihung":false},"departure":{"platform":"1","scheduledTime":"2023-10-18T18:53:00.000Z","time":"2023-10-18T18:53:00.000Z","reihung":false}},{"station":{"evaNumber":"8000503","name":"Biblis","coordinates":{"lng":8.450426,"lat":49.688863},"ril100":"FBL"},"arrival":{"platform":"3","scheduledTime":"2023-10-18T18:56:00.000Z","time":"2023-10-18T18:56:00.000Z","reihung":false}}],"finalDestination":"Mannheim Hbf","jid":"1|256563|0|80|18102023","messages":[{"type":"A","code":"FB","prio":260,"icoX":5,"txtN":"Fahrradmitnahme begrenzt möglich"},{"type":"A","code":"EH","prio":560,"icoX":3,"txtN":"Fahrzeuggebundene Einstiegshilfe vorhanden"},{"type":"A","code":"KL","prio":610,"icoX":3,"txtN":"Klimaanlage"}],"type":"JNY"},{"arrival":{"platform":"9","scheduledTime":"2023-10-18T19:14:00.000Z","time":"2023-10-18T19:14:00.000Z","reihung":false},"departure":{"platform":"5","scheduledTime":"2023-10-18T19:05:00.000Z","time":"2023-10-18T19:05:00.000Z","reihung":false},"duration":540000,"train":{"name":"RB 62","line":"62","admin":"8015A6","number":"13683","type":"RB","operator":{"name":"DB Regio AG Mitte","icoX":9}},"segmentStart":{"name":"Biblis","evaNumber":"8000503"},"segmentDestination":{"name":"Worms Hbf","evaNumber":"8000257"},"stops":[{"station":{"evaNumber":"8000503","name":"Biblis","coordinates":{"lng":8.450426,"lat":49.688863},"ril100":"FBL"},"departure":{"platform":"5","scheduledTime":"2023-10-18T19:05:00.000Z","time":"2023-10-18T19:05:00.000Z","reihung":false}},{"station":{"evaNumber":"8002934","name":"Hofheim (Ried)","coordinates":{"lng":8.40895,"lat":49.659496},"ril100":"FHOR"},"arrival":{"platform":"2","scheduledTime":"2023-10-18T19:08:00.000Z","time":"2023-10-18T19:08:00.000Z","reihung":false},"departure":{"platform":"2","scheduledTime":"2023-10-18T19:09:00.000Z","time":"2023-10-18T19:09:00.000Z","reihung":false}},{"station":{"evaNumber":"8000257","name":"Worms Hbf","coordinates":{"lng":8.356633,"lat":49.634973},"ril100":"FWOR"},"arrival":{"platform":"9","scheduledTime":"2023-10-18T19:14:00.000Z","time":"2023-10-18T19:14:00.000Z","reihung":false}}],"finalDestination":"Worms Hbf","jid":"1|250831|0|80|18102023","messages":[{"type":"A","code":"FB","prio":260,"icoX":5,"txtN":"Fahrradmitnahme begrenzt möglich"},{"type":"A","code":"EH","prio":560,"icoX":3,"txtN":"Fahrzeuggebundene Einstiegshilfe vorhanden"},{"type":"A","code":"KL","prio":610,"icoX":3,"txtN":"Klimaanlage"}],"type":"JNY"}],"segmentTypes":["ICE","ICE","RE","RB"]},{"checksum":"4e9bd2d0_3","cid":"C-8","date":"2023-10-17T22:00:00.000Z","duration":22440000,"changes":2,"isRideable":true,"arrival":{"platform":"5","scheduledTime":"2023-10-18T19:48:00.000Z","time":"2023-10-18T19:48:00.000Z","reihung":false},"departure":{"platform":"1","scheduledTime":"2023-10-18T13:34:00.000Z","time":"2023-10-18T13:34:00.000Z","reihung":false},"segments":[{"arrival":{"platform":"1","scheduledTime":"2023-10-18T15:24:00.000Z","time":"2023-10-18T15:24:00.000Z","reihung":false},"departure":{"platform":"1","scheduledTime":"2023-10-18T13:34:00.000Z","time":"2023-10-18T13:34:00.000Z","reihung":false},"duration":6600000,"train":{"name":"ICE 709","line":"18","admin":"80","number":"709","type":"ICE","operator":{"name":"DB Fernverkehr AG","icoX":1}},"changeDuration":6,"segmentStart":{"name":"Berlin Hbf (tief)","evaNumber":"8098160"},"segmentDestination":{"name":"Erfurt Hbf","evaNumber":"8010101"},"stops":[{"station":{"evaNumber":"8098160","name":"Berlin Hbf (tief)","coordinates":{"lng":13.368892,"lat":52.52585},"ril100":"BL"},"departure":{"platform":"1","scheduledTime":"2023-10-18T13:34:00.000Z","time":"2023-10-18T13:34:00.000Z","reihung":false}},{"station":{"evaNumber":"8011113","name":"Berlin Südkreuz","coordinates":{"lng":13.365863,"lat":52.47623},"ril100":"BPAF"},"arrival":{"platform":"3","scheduledTime":"2023-10-18T13:39:00.000Z","time":"2023-10-18T13:39:00.000Z","reihung":false},"departure":{"platform":"3","scheduledTime":"2023-10-18T13:41:00.000Z","time":"2023-10-18T13:41:00.000Z","reihung":false},"auslastung":{"first":1,"second":1}},{"station":{"evaNumber":"8010050","name":"Bitterfeld","coordinates":{"lng":12.316966,"lat":51.622911},"ril100":"LBT"},"arrival":{"platform":"3","scheduledTime":"2023-10-18T14:32:00.000Z","time":"2023-10-18T14:32:00.000Z","reihung":false},"departure":{"platform":"3","scheduledTime":"2023-10-18T14:33:00.000Z","time":"2023-10-18T14:33:00.000Z","reihung":false},"auslastung":{"first":1,"second":1}},{"station":{"evaNumber":"8010159","name":"Halle(Saale)Hbf","coordinates":{"lng":11.98699,"lat":51.477079},"ril100":"LH"},"arrival":{"platform":"8","scheduledTime":"2023-10-18T14:51:00.000Z","time":"2023-10-18T14:51:00.000Z","reihung":false},"departure":{"platform":"8","scheduledTime":"2023-10-18T14:53:00.000Z","time":"2023-10-18T14:53:00.000Z","reihung":false},"auslastung":{"first":1,"second":1}},{"station":{"evaNumber":"8010101","name":"Erfurt Hbf","coordinates":{"lng":11.038502,"lat":50.97255},"ril100":"UE  P"},"arrival":{"platform":"1","scheduledTime":"2023-10-18T15:24:00.000Z","time":"2023-10-18T15:24:00.000Z","reihung":false}}],"finalDestination":"München Hbf","jid":"1|209234|0|80|18102023","auslastung":{"first":1,"second":1},"messages":[{"type":"A","code":"CK","prio":200,"icoX":3,"txtN":"Sicher & kontaktlos ohne Ticketkontrolle reisen mit Komfort Check-in"},{"type":"A","code":"FR","prio":260,"icoX":4,"txtN":"Fahrradmitnahme reservierungspflichtig"},{"type":"A","code":"FB","prio":260,"icoX":5,"txtN":"Fahrradmitnahme begrenzt möglich"},{"type":"A","code":"BR","prio":450,"icoX":6,"txtN":"Bordrestaurant"},{"type":"A","code":"EH","prio":560,"icoX":3,"txtN":"Fahrzeuggebundene Einstiegshilfe vorhanden"}],"type":"JNY"},{"arrival":{"platform":"8","scheduledTime":"2023-10-18T18:44:00.000Z","time":"2023-10-18T18:44:00.000Z","reihung":false},"departure":{"platform":"2","scheduledTime":"2023-10-18T15:30:00.000Z","time":"2023-10-18T15:30:00.000Z","reihung":false},"duration":11640000,"train":{"name":"ICE 1171","line":"20","admin":"80","number":"1171","type":"ICE","operator":{"name":"DB Fernverkehr AG","icoX":1}},"changeDuration":36,"segmentStart":{"name":"Erfurt Hbf","evaNumber":"8010101"},"segmentDestination":{"name":"Mannheim Hbf","evaNumber":"8000244"},"stops":[{"station":{"evaNumber":"8010101","name":"Erfurt Hbf","coordinates":{"lng":11.038502,"lat":50.97255},"ril100":"UE  P"},"departure":{"platform":"2","scheduledTime":"2023-10-18T15:30:00.000Z","time":"2023-10-18T15:30:00.000Z","reihung":false},"auslastung":{"first":2,"second":2}},{"station":{"evaNumber":"8010097","name":"Eisenach","coordinates":{"lng":10.33212,"lat":50.976928},"ril100":"UEI"},"arrival":{"platform":"5","scheduledTime":"2023-10-18T15:54:00.000Z","time":"2023-10-18T15:54:00.000Z","reihung":false},"departure":{"platform":"5","scheduledTime":"2023-10-18T15:55:00.000Z","time":"2023-10-18T15:55:00.000Z","reihung":false},"auslastung":{"first":2,"second":2}},{"station":{"evaNumber":"8000115","name":"Fulda","coordinates":{"lng":9.684178,"lat":50.554794},"ril100":"FFU"},"arrival":{"platform":"3","scheduledTime":"2023-10-18T16:48:00.000Z","time":"2023-10-18T16:48:00.000Z","reihung":false},"departure":{"platform":"3","scheduledTime":"2023-10-18T16:50:00.000Z","time":"2023-10-18T16:50:00.000Z","reihung":false},"auslastung":{"first":2,"second":1}},{"station":{"evaNumber":"8000150","name":"Hanau Hbf","coordinates":{"lng":8.92921,"lat":50.120903},"ril100":"FH"},"arrival":{"platform":"6","scheduledTime":"2023-10-18T17:32:00.000Z","time":"2023-10-18T17:32:00.000Z","reihung":false},"departure":{"platform":"6","scheduledTime":"2023-10-18T17:34:00.000Z","time":"2023-10-18T17:34:00.000Z","reihung":false},"auslastung":{"first":2,"second":1}},{"station":{"evaNumber":"8000105","name":"Frankfurt(Main)Hbf","coordinates":{"lng":8.663003,"lat":50.106817},"ril100":"FF"},"arrival":{"platform":"6","scheduledTime":"2023-10-18T17:52:00.000Z","time":"2023-10-18T17:52:00.000Z","reihung":false},"departure":{"platform":"6","scheduledTime":"2023-10-18T18:06:00.000Z","time":"2023-10-18T18:06:00.000Z","reihung":false},"auslastung":{"first":2,"second":1}},{"station":{"evaNumber":"8000244","name":"Mannheim Hbf","coordinates":{"lng":8.469268,"lat":49.479181},"ril100":"RM"},"arrival":{"platform":"8","scheduledTime":"2023-10-18T18:44:00.000Z","time":"2023-10-18T18:44:00.000Z","reihung":false}}],"finalDestination":"Basel SBB","jid":"1|197128|0|80|18102023","auslastung":{"first":2,"second":2},"messages":[{"type":"A","code":"CK","prio":200,"icoX":3,"txtN":"Sicher & kontaktlos ohne Ticketkontrolle reisen mit Komfort Check-in"},{"type":"A","code":"FR","prio":260,"icoX":4,"txtN":"Fahrradmitnahme reservierungspflichtig"},{"type":"A","code":"FB","prio":260,"icoX":5,"txtN":"Fahrradmitnahme begrenzt möglich"},{"type":"A","code":"BR","prio":450,"icoX":6,"txtN":"Bordrestaurant"},{"type":"A","code":"EH","prio":560,"icoX":3,"txtN":"Fahrzeuggebundene Einstiegshilfe vorhanden"}],"type":"JNY"},{"arrival":{"platform":"5","scheduledTime":"2023-10-18T19:48:00.000Z","time":"2023-10-18T19:48:00.000Z","reihung":false},"departure":{"platform":"1","scheduledTime":"2023-10-18T19:20:00.000Z","time":"2023-10-18T19:20:00.000Z","reihung":false},"duration":1680000,"train":{"name":"S 6","line":"6","admin":"801518","number":"38692","type":"S","operator":{"name":"DB Regio AG Mitte","icoX":9}},"segmentStart":{"name":"Mannheim Hbf","evaNumber":"8000244"},"segmentDestination":{"name":"Worms Hbf","evaNumber":"8000257"},"stops":[{"station":{"evaNumber":"8000244","name":"Mannheim Hbf","coordinates":{"lng":8.469268,"lat":49.479181},"ril100":"RM"},"departure":{"platform":"1","scheduledTime":"2023-10-18T19:20:00.000Z","time":"2023-10-18T19:20:00.000Z","reihung":false}},{"station":{"evaNumber":"8003759","name":"Ludwigshafen(Rhein) Mitte","coordinates":{"lng":8.452215,"lat":49.478938},"ril100":"RLSM"},"arrival":{"platform":"1","scheduledTime":"2023-10-18T19:22:00.000Z","time":"2023-10-18T19:22:00.000Z","reihung":false},"departure":{"platform":"1","scheduledTime":"2023-10-18T19:23:00.000Z","time":"2023-10-18T19:23:00.000Z","reihung":false}},{"station":{"evaNumber":"8000236","name":"Ludwigshafen(Rh)Hbf","coordinates":{"lng":8.433769,"lat":49.477257},"ril100":"RL"},"arrival":{"platform":"1","scheduledTime":"2023-10-18T19:25:00.000Z","time":"2023-10-18T19:25:00.000Z","reihung":false},"departure":{"platform":"1","scheduledTime":"2023-10-18T19:26:00.000Z","time":"2023-10-18T19:26:00.000Z","reihung":false}},{"station":{"evaNumber":"8003766","name":"Ludwigshafen-Oggersheim","coordinates":{"lng":8.381587,"lat":49.49324},"ril100":"RLO"},"arrival":{"platform":"2","scheduledTime":"2023-10-18T19:30:00.000Z","time":"2023-10-18T19:30:00.000Z","reihung":false},"departure":{"platform":"2","scheduledTime":"2023-10-18T19:30:00.000Z","time":"2023-10-18T19:30:00.000Z","reihung":false}},{"station":{"evaNumber":"8002025","name":"Frankenthal Süd","coordinates":{"lng":8.349559,"lat":49.522698},"ril100":"RFTS"},"arrival":{"platform":"1","scheduledTime":"2023-10-18T19:33:00.000Z","time":"2023-10-18T19:33:00.000Z","reihung":false},"departure":{"platform":"1","scheduledTime":"2023-10-18T19:33:00.000Z","time":"2023-10-18T19:33:00.000Z","reihung":false}},{"station":{"evaNumber":"8000332","name":"Frankenthal Hbf","coordinates":{"lng":8.349657,"lat":49.535633},"ril100":"RFT"},"arrival":{"platform":"1","scheduledTime":"2023-10-18T19:35:00.000Z","time":"2023-10-18T19:35:00.000Z","reihung":false},"departure":{"platform":"1","scheduledTime":"2023-10-18T19:36:00.000Z","time":"2023-10-18T19:36:00.000Z","reihung":false}},{"station":{"evaNumber":"8001032","name":"Bobenheim","coordinates":{"lng":8.35035,"lat":49.588139},"ril100":"RBOB"},"arrival":{"platform":"1","scheduledTime":"2023-10-18T19:39:00.000Z","time":"2023-10-18T19:39:00.000Z","reihung":false},"departure":{"platform":"1","scheduledTime":"2023-10-18T19:40:00.000Z","time":"2023-10-18T19:40:00.000Z","reihung":false}},{"station":{"evaNumber":"8000257","name":"Worms Hbf","coordinates":{"lng":8.356633,"lat":49.634973},"ril100":"FWOR"},"arrival":{"platform":"5","scheduledTime":"2023-10-18T19:48:00.000Z","time":"2023-10-18T19:48:00.000Z","reihung":false}}],"finalDestination":"Worms Hbf","jid":"1|254871|0|80|18102023","messages":[{"type":"A","code":"FB","prio":260,"icoX":5,"txtN":"Fahrradmitnahme begrenzt möglich"},{"type":"A","code":"EH","prio":560,"icoX":3,"txtN":"Fahrzeuggebundene Einstiegshilfe vorhanden"},{"type":"A","code":"LS","prio":605,"icoX":3,"txtN":"Laptop-Steckdosen"},{"type":"A","code":"KL","prio":610,"icoX":3,"txtN":"Klimaanlage"}],"type":"JNY"}],"segmentTypes":["ICE","ICE","S"]}]}