{"context":{"earlier":"3|OB|MT#14#451606#451593#451960#452017#0#0#565#451576#1#0#32#0#0#-2147483648#1#2|PDH#bbe10b32f5270e429a5a473728022d1b|RD#18102023|RT#141653|US#0|RS#INIT","later":"3|OF|MT#14#451726#451726#452076#452076#0#0#565#451667#7#0#27#0#0#-2147483648#1#2|PDH#bbe10b32f5270e429a5a473728022d1b|RD#18102023|RT#141653|US#0|RS#INIT"},"routes":[{"checksum":"c2ff4c98_3","cid":"C-0","date":"2023-10-17T22:00:00.000Z","duration":25440000,"changes":2,"isRideable":true,"arrival":{"platform":"7","scheduledTime":"2023-10-18T19:37:00.000Z","time":"2023-10-18T19:37:00.000Z","reihung":false},"departure":{"platform":"13","scheduledTime":"2023-10-18T12:33:00.000Z","time":"2023-10-18T12:33:00.000Z","reihung":false},"segments":[{"arrival":{"platform":"11","scheduledTime":"2023-10-18T15:10:00.000Z","time":"2023-10-18T15:10:00.000Z","reihung":false},"departure":{"platform":"13","scheduledTime":"2023-10-18T12:33:00.000Z","time":"2023-10-18T12:33:00.000Z","reihung":false},"duration":9420000,"train":{"name":"IC 142","line":"77","admin":"80","number":"142","type":"IC","operator":{"name":"DB Fernverkehr AG","icoX":2}},"changeDuration":18,"segmentStart":{"name":"Berlin Hbf","evaNumber":"8011160"},"segmentDestination":{"name":"Minden(Westf)","evaNumber":"8000252"},"stops":[{"station":{"evaNumber":"8011160","name":"Berlin Hbf","coordinates":{"lng":13.369629,"lat":52.524924},"ril100":"BLS"},"departure":{"platform":"13","scheduledTime":"2023-10-18T12:33:00.000Z","time":"2023-10-18T12:33:00.000Z","reihung":false}},{"station":{"evaNumber":"8010404","name":"Berlin-Spandau","coordinates":{"lng":13.200947,"lat":52.533787},"ril100":"BSPD"},"departure":{"platform":"4","scheduledTime":"2023-10-18T12:50:00.000Z","time":"2023-10-18T12:50:00.000Z","reihung":false},"auslastung":{"first":2,"second":2}},{"station":{"evaNumber":"8010334","name":"Stendal Hbf","coordinates":{"lng":11.854767,"lat":52.594671},"ril100":"LS"},"arrival":{"platform":"1","scheduledTime":"2023-10-18T13:31:00.000Z","time":"2023-10-18T13:31:00.000Z","reihung":false},"departure":{"platform":"1","scheduledTime":"2023-10-18T13:32:00.000Z","time":"2023-10-18T13:32:00.000Z","reihung":false},"auslastung":{"first":2,"second":2}},{"station":{"evaNumber":"8006552","name":"Wolfsburg Hbf","coordinates":{"lng":10.787757,"lat":52.429495},"ril100":"HWOB"},"arrival":{"platform":"1","scheduledTime":"2023-10-18T14:00:00.000Z","time":"2023-10-18T14:00:00.000Z","reihung":false},"departure":{"platform":"1","scheduledTime":"2023-10-18T14:01:00.000Z","time":"2023-10-18T14:01:00.000Z","reihung":false},"auslastung":{"first":2,"second":2}},{"station":{"evaNumber":"8000152","name":"Hannover Hbf","coordinates":{"lng":9.741763,"lat":52.377079},"ril100":"HH"},"arrival":{"platform":"12","scheduledTime":"2023-10-18T14:36:00.000Z","time":"2023-10-18T14:36:00.000Z","reihung":false},"departure":{"platform":"12","scheduledTime":"2023-10-18T14:40:00.000Z","time":"2023-10-18T14:40:00.000Z","reihung":false},"auslastung":{"first":3,"second":2}},{"station":{"evaNumber":"8000252","name":"Minden(Westf)","coordinates":{"lng":8.934442,"lat":52.290566},"ril100":"HM"},"arrival":{"platform":"11","scheduledTime":"2023-10-18T15:10:00.000Z","time":"2023-10-18T15:10:00.000Z","reihung":false}}],"finalDestination":"Amsterdam Centraal","jid":"1|351178|0|80|18102023","auslastung":{"first":3,"second":2},"messages":[{"type":"A","code":"CK","prio":200,"icoX":3,"txtN":"Sicher & kontaktlos ohne Ticketkontrolle reisen mit Komfort Check-in"},{"type":"A","code":"FR","prio":260,"icoX":4,"txtN":"Fahrradmitnahme reservierungspflichtig"},{"type":"A","code":"FB","prio":260,"icoX":5,"txtN":"Fahrradmitnahme begrenzt möglich"},{"type":"A","code":"RE","prio":320,"icoX":3,"txtN":"Bitte reservieren"},{"type":"A","code":"BT","prio":450,"icoX":6,"txtN":"Bordbistro"}],"type":"JNY"},{"arrival":{"platform":"4","scheduledTime":"2023-10-18T18:05:00.000Z","time":"2023-10-18T18:05:00.000Z","reihung":false},"departure":{"platform":"1","scheduledTime":"2023-10-18T15:28:00.000Z","time":"2023-10-18T15:28:00.000Z","reihung":false},"duration":9420000,"train":{"name":"RE 6","line":"6","admin":"NXRE","number":"89732","type":"RE","operator":{"name":"National Express","icoX":8}},"changeDuration":17,"segmentStart":{"name":"Minden(Westf)","evaNumber":"8000252"},"segmentDestination":{"name":"Düsseldorf Hbf","evaNumber":"8000085"},"stops":[{"station":{"evaNumber":"8000252","name":"Minden(Westf)","coordinates":{"lng":8.934442,"lat":52.290566},"ril100":"HM"},"departure":{"platform":"1","scheduledTime":"2023-10-18T15:28:00.000Z","time":"2023-10-18T15:28:00.000Z","reihung":false}},{"station":{"evaNumber":"8000732","name":"Bad Oeynhausen","coordinates":{"lng":8.796439,"lat":52.205447},"ril100":"HOY"},"arrival":{"platform":"2","scheduledTime":"2023-10-18T15:38:00.000Z","time":"2023-10-18T15:38:00.000Z","reihung":false},"departure":{"platform":"2","scheduledTime":"2023-10-18T15:39:00.000Z","time":"2023-10-18T15:39:00.000Z","reihung":false}},{"station":{"evaNumber":"8000233","name":"Löhne(Westf)","coordinates":{"lng":8.713478,"lat":52.196611},"ril100":"HL"},"arrival":{"platform":"11","scheduledTime":"2023-10-18T15:43:00.000Z","time":"2023-10-18T15:43:00.000Z","reihung":false},"departure":{"platform":"11","scheduledTime":"2023-10-18T15:44:00.000Z","time":"2023-10-18T15:44:00.000Z","reihung":false}},{"station":{"evaNumber":"8000162","name":"Herford","coordinates":{"lng":8.663741,"lat":52.119654},"ril100":"EHFD"},"arrival":{"platform":"6","scheduledTime":"2023-10-18T15:49:00.000Z","time":"2023-10-18T15:49:00.000Z","reihung":false},"departure":{"platform":"6","scheduledTime":"2023-10-18T15:50:00.000Z","time":"2023-10-18T15:50:00.000Z","reihung":false}},{"station":{"evaNumber":"8000036","name":"Bielefeld Hbf","coordinates":{"lng":8.532777,"lat":52.029421},"ril100":"EBILP"},"arrival":{"platform":"4","scheduledTime":"2023-10-18T15:57:00.000Z","time":"2023-10-18T15:57:00.000Z","reihung":false},"departure":{"platform":"4","scheduledTime":"2023-10-18T15:59:00.000Z","time":"2023-10-18T15:59:00.000Z","reihung":false}},{"station":{"evaNumber":"8002461","name":"Gütersloh Hbf","coordinates":{"lng":8.385129,"lat":51.906862},"ril100":"EGLO"},"arrival":{"platform":"2","scheduledTime":"2023-10-18T16:07:00.000Z","time":"2023-10-18T16:07:00.000Z","reihung":false},"departure":{"platform":"2","scheduledTime":"2023-10-18T16:08:00.000Z","time":"2023-10-18T16:08:00.000Z","reihung":false}},{"station":{"evaNumber":"8000315","name":"Rheda-Wiedenbrück","coordinates":{"lng":8.286535,"lat":51.857151},"ril100":"ERDW"},"arrival":{"platform":"9","scheduledTime":"2023-10-18T16:13:00.000Z","time":"2023-10-18T16:13:00.000Z","reihung":false},"departure":{"platform":"9","scheduledTime":"2023-10-18T16:14:00.000Z","time":"2023-10-18T16:14:00.000Z","reihung":false}},{"station":{"evaNumber":"8004626","name":"Oelde","coordinates":{"lng":8.143013,"lat":51.829159},"ril100":"EOEL"},"arrival":{"platform":"5","scheduledTime":"2023-10-18T16:20:00.000Z","time":"2023-10-18T16:20:00.000Z","reihung":false},"departure":{"platform":"5","scheduledTime":"2023-10-18T16:21:00.000Z","time":"2023-10-18T16:21:00.000Z","reihung":false}},{"station":{"evaNumber":"8004251","name":"Beckum-Neubeckum","coordinates":{"lng":8.021335,"lat":51.801949},"ril100":"ENBM"},"arrival":{"platform":"7","scheduledTime":"2023-10-18T16:26:00.000Z","time":"2023-10-18T16:26:00.000Z","reihung":false},"departure":{"platform":"7","scheduledTime":"2023-10-18T16:27:00.000Z","time":"2023-10-18T16:27:00.000Z","reihung":false}},{"station":{"evaNumber":"8000441","name":"Ahlen(Westf)","coordinates":{"lng":7.895388,"lat":51.761111},"ril100":"EAHL"},"arrival":{"platform":"2","scheduledTime":"2023-10-18T16:32:00.000Z","time":"2023-10-18T16:32:00.000Z","reihung":false},"departure":{"platform":"2","scheduledTime":"2023-10-18T16:33:00.000Z","time":"2023-10-18T16:33:00.000Z","reihung":false}},{"station":{"evaNumber":"8002680","name":"Hamm-Heessen","coordinates":{"lng":7.83151,"lat":51.70918},"ril100":"EHE P"},"arrival":{"platform":"2","scheduledTime":"2023-10-18T16:37:00.000Z","time":"2023-10-18T16:37:00.000Z","reihung":false},"departure":{"platform":"2","scheduledTime":"2023-10-18T16:38:00.000Z","time":"2023-10-18T16:38:00.000Z","reihung":false}},{"station":{"evaNumber":"8000149","name":"Hamm(Westf)Hbf","coordinates":{"lng":7.80777,"lat":51.678131},"ril100":"EHM"},"arrival":{"platform":"11","scheduledTime":"2023-10-18T16:43:00.000Z","time":"2023-10-18T16:43:00.000Z","reihung":false},"departure":{"platform":"11","scheduledTime":"2023-10-18T16:45:00.000Z","time":"2023-10-18T16:45:00.000Z","reihung":false}},{"station":{"evaNumber":"8003168","name":"Kamen","coordinates":{"lng":7.66103,"lat":51.585165},"ril100":"EKAM"},"arrival":{"platform":"1","scheduledTime":"2023-10-18T16:53:00.000Z","time":"2023-10-18T16:53:00.000Z","reihung":false},"departure":{"platform":"1","scheduledTime":"2023-10-18T16:54:00.000Z","time":"2023-10-18T16:54:00.000Z","reihung":false}},{"station":{"evaNumber":"8000080","name":"Dortmund Hbf","coordinates":{"lng":7.459276,"lat":51.517872},"ril100":"EDO"},"arrival":{"platform":"18","scheduledTime":"2023-10-18T17:04:00.000Z","time":"2023-10-18T17:04:00.000Z","reihung":false},"departure":{"platform":"18","scheduledTime":"2023-10-18T17:07:00.000Z","time":"2023-10-18T17:07:00.000Z","reihung":false}},{"station":{"evaNumber":"8000041","name":"Bochum Hbf","coordinates":{"lng":7.223264,"lat":51.47849},"ril100":"EBO"},"arrival":{"platform":"4","scheduledTime":"2023-10-18T17:17:00.000Z","time":"2023-10-18T17:17:00.000Z","reihung":false},"departure":{"platform":"4","scheduledTime":"2023-10-18T17:19:00.000Z","time":"2023-10-18T17:19:00.000Z","reihung":false}},{"station":{"evaNumber":"8006226","name":"Wattenscheid","coordinates":{"lng":7.140114,"lat":51.473258},"ril100":"EWAT"},"arrival":{"platform":"1","scheduledTime":"2023-10-18T17:23:00.000Z","time":"2023-10-18T17:23:00.000Z","reihung":false},"departure":{"platform":"1","scheduledTime":"2023-10-18T17:24:00.000Z","time":"2023-10-18T17:24:00.000Z","reihung":false}},{"station":{"evaNumber":"8000098","name":"Essen Hbf","coordinates":{"lng":7.01386,"lat":51.451378},"ril100":"EE"},"arrival":{"platform":"2","scheduledTime":"2023-10-18T17:30:00.000Z","time":"2023-10-18T17:30:00.000Z","reihung":false},"departure":{"platform":"2","scheduledTime":"2023-10-18T17:32:00.000Z","time":"2023-10-18T17:32:00.000Z","reihung":false}},{"station":{"evaNumber":"8000259","name":"Mülheim(Ruhr)Hbf","coordinates":{"lng":6.886636,"lat":51.431314},"ril100":"EMLR"},"arrival":{"platform":"6","scheduledTime":"2023-10-18T17:37:00.000Z","time":"2023-10-18T17:37:00.000Z","reihung":false},"departure":{"platform":"6","scheduledTime":"2023-10-18T17:38:00.000Z","time":"2023-10-18T17:38:00.000Z","reihung":false}},{"station":{"evaNumber":"8000086","name":"Duisburg Hbf","coordinates":{"lng":6.77606,"lat":51.429615},"ril100":"EDG"},"arrival":{"platform":"5","scheduledTime":"2023-10-18T17:44:00.000Z","time":"2023-10-18T17:44:00.000Z","reihung":false},"departure":{"platform":"5","scheduledTime":"2023-10-18T17:48:00.000Z","time":"2023-10-18T17:48:00.000Z","reihung":false}},{"station":{"evaNumber":"8000082","name":"Düsseldorf Flughafen","coordinates":{"lng":6.786973,"lat":51.291568},"ril100":"KDFF"},"arrival":{"platform":"6","scheduledTime":"2023-10-18T17:56:00.000Z","time":"2023-10-18T17:56:00.000Z","reihung":false},"departure":{"platform":"6","scheduledTime":"2023-10-18T17:57:00.000Z","time":"2023-10-18T17:57:00.000Z","reihung":false}},{"station":{"evaNumber":"8000085","name":"Düsseldorf Hbf","coordinates":{"lng":6.794011,"lat":51.219708},"ril100":"KD"},"arrival":{"platform":"4","scheduledTime":"2023-10-18T18:05:00.000Z","time":"2023-10-18T18:05:00.000Z","reihung":false}}],"finalDestination":"Köln/Bonn Flughafen","jid":"1|304999|0|80|18102023","messages":[{"type":"A","code":"N ","prio":5,"icoX":3,"txtN":"\"RRX Rhein-Ruhr-Express\""},{"type":"A","code":"FB","prio":260,"icoX":5,"txtN":"Fahrradmitnahme begrenzt möglich"},{"type":"A","code":"RG","prio":560,"icoX":3,"txtN":"Behindertengerechtes Fahrzeug"},{"type":"A","code":"RO","prio":560,"icoX":11,"txtN":"Rollstuhlstellplatz"},{"type":"A","code":"LS","prio":605,"icoX":3,"txtN":"Laptop-Steckdosen"},{"type":"A","code":"KL","prio":610,"icoX":3,"txtN":"Klimaanlage"},{"type":"A","code":"WV","prio":710,"icoX":3,"txtN":"WLAN verfügbar"}],"type":"JNY"},{"arrival":{"platform":"7","scheduledTime":"2023-10-18T19:37:00.000Z","time":"2023-10-18T19:37:00.000Z","reihung":false},"departure":{"platform":"4","scheduledTime":"2023-10-18T18:22:00.000Z","time":"2023-10-18T18:22:00.000Z","reihung":false},"duration":4500000,"train":{"name":"RE 4","line":"4","admin":"NXRE","number":"26432","type":"RE","operator":{"name":"National Express","icoX":8}},"segmentStart":{"name":"Düsseldorf Hbf","evaNumber":"8000085"},"segmentDestination":{"name":"Aachen Hbf","evaNumber":"8000001"},"stops":[{"station":{"evaNumber":"8000085","name":"Düsseldorf Hbf","coordinates":{"lng":6.794011,"lat":51.219708},"ril100":"KD"},"departure":{"platform":"4","scheduledTime":"2023-10-18T18:22:00.000Z","time":"2023-10-18T18:22:00.000Z","reihung":false}},{"station":{"evaNumber":"8001585","name":"Düsseldorf-Bilk","coordinates":{"lng":6.775475,"lat":51.207816},"ril100":"KDBH"},"arrival":{"platform":"4","scheduledTime":"2023-10-18T18:24:00.000Z","time":"2023-10-18T18:24:00.000Z","reihung":false},"departure":{"platform":"4","scheduledTime":"2023-10-18T18:25:00.000Z","time":"2023-10-18T18:25:00.000Z","reihung":false}},{"station":{"evaNumber":"8000274","name":"Neuss Hbf","coordinates":{"lng":6.684415,"lat":51.204373},"ril100":"KN"},"arrival":{"platform":"8","scheduledTime":"2023-10-18T18:34:00.000Z","time":"2023-10-18T18:34:00.000Z","reihung":false},"departure":{"platform":"8","scheduledTime":"2023-10-18T18:36:00.000Z","time":"2023-10-18T18:36:00.000Z","reihung":false}},{"station":{"evaNumber":"8000253","name":"Mönchengladbach Hbf","coordinates":{"lng":6.446183,"lat":51.196507},"ril100":"KM"},"arrival":{"platform":"5","scheduledTime":"2023-10-18T18:48:00.000Z","time":"2023-10-18T18:48:00.000Z","reihung":false},"departure":{"platform":"5","scheduledTime":"2023-10-18T18:50:00.000Z","time":"2023-10-18T18:50:00.000Z","reihung":false}},{"station":{"evaNumber":"8000318","name":"Rheydt Hbf","coordinates":{"lng":6.439746,"lat":51.163049},"ril100":"KRY"},"arrival":{"platform":"3","scheduledTime":"2023-10-18T18:53:00.000Z","time":"2023-10-18T18:53:00.000Z","reihung":false},"departure":{"platform":"3","scheduledTime":"2023-10-18T18:54:00.000Z","time":"2023-10-18T18:54:00.000Z","reihung":false}},{"station":{"evaNumber":"8001839","name":"Erkelenz","coordinates":{"lng":6.321457,"lat":51.076474},"ril100":"KERZ"},"arrival":{"platform":"1","scheduledTime":"2023-10-18T19:00:00.000Z","time":"2023-10-18T19:00:00.000Z","reihung":false},"departure":{"platform":"1","scheduledTime":"2023-10-18T19:01:00.000Z","time":"2023-10-18T19:01:00.000Z","reihung":false}},{"station":{"evaNumber":"8000677","name":"Hückelhoven-Baal","coordinates":{"lng":6.274147,"lat":51.033452},"ril100":"KBA"},"arrival":{"platform":"2","scheduledTime":"2023-10-18T19:04:00.000Z","time":"2023-10-18T19:04:00.000Z","reihung":false},"departure":{"platform":"2","scheduledTime":"2023-10-18T19:05:00.000Z","time":"2023-10-18T19:05:00.000Z","reihung":false}},{"station":{"evaNumber":"8003697","name":"Lindern","coordinates":{"lng":6.20875,"lat":50.997162},"ril100":"KLD"},"arrival":{"platform":"2","scheduledTime":"2023-10-18T19:08:00.000Z","time":"2023-10-18T19:08:00.000Z","reihung":false},"departure":{"platform":"2","scheduledTime":"2023-10-18T19:09:00.000Z","time":"2023-10-18T19:09:00.000Z","reihung":false}},{"station":{"evaNumber":"8002206","name":"Geilenkirchen","coordinates":{"lng":6.12445,"lat":50.961044},"ril100":"KGEK"},"arrival":{"platform":"1","scheduledTime":"2023-10-18T19:14:00.000Z","time":"2023-10-18T19:14:00.000Z","reihung":false},"departure":{"platform":"1","scheduledTime":"2023-10-18T19:14:00.000Z","time":"2023-10-18T19:14:00.000Z","reihung":false}},{"station":{"evaNumber":"8005935","name":"Übach-Palenberg","coordinates":{"lng":6.097257,"lat":50.924314},"ril100":"KUBP"},"arrival":{"platform":"1","scheduledTime":"2023-10-18T19:17:00.000Z","time":"2023-10-18T19:17:00.000Z","reihung":false},"departure":{"platform":"1","scheduledTime":"2023-10-18T19:18:00.000Z","time":"2023-10-18T19:18:00.000Z","reihung":false}},{"station":{"evaNumber":"8002806","name":"Herzogenrath","coordinates":{"lng":6.094399,"lat":50.870945},"ril100":"KHEZ"},"arrival":{"platform":"2","scheduledTime":"2023-10-18T19:22:00.000Z","time":"2023-10-18T19:22:00.000Z","reihung":false},"departure":{"platform":"2","scheduledTime":"2023-10-18T19:23:00.000Z","time":"2023-10-18T19:23:00.000Z","reihung":false}},{"station":{"evaNumber":"8000404","name":"Aachen West","coordinates":{"lng":6.070874,"lat":50.78037},"ril100":"KAW"},"arrival":{"platform":"1","scheduledTime":"2023-10-18T19:30:00.000Z","time":"2023-10-18T19:30:00.000Z","reihung":false},"departure":{"platform":"1","scheduledTime":"2023-10-18T19:31:00.000Z","time":"2023-10-18T19:31:00.000Z","reihung":false}},{"station":{"evaNumber":"8070704","name":"Aachen Schanz","coordinates":{"lng":6.073715,"lat":50.769915},"ril100":"KASZ"},"arrival":{"platform":"1","scheduledTime":"2023-10-18T19:33:00.000Z","time":"2023-10-18T19:33:00.000Z","reihung":false},"departure":{"platform":"1","scheduledTime":"2023-10-18T19:34:00.000Z","time":"2023-10-18T19:34:00.000Z","reihung":false}},{"station":{"evaNumber":"8000001","name":"Aachen Hbf","coordinates":{"lng":6.09119,"lat":50.767641},"ril100":"KA"},"arrival":{"platform":"7","scheduledTime":"2023-10-18T19:37:00.000Z","time":"2023-10-18T19:37:00.000Z","reihung":false}}],"finalDestination":"Aachen Hbf","jid":"1|291229|0|80|18102023","messages":[{"type":"A","code":"FB","prio":260,"icoX":5,"txtN":"Fahrradmitnahme begrenzt möglich"},{"type":"A","code":"RG","prio":560,"icoX":3,"txtN":"Behindertengerechtes Fahrzeug"},{"type":"A","code":"RO","prio":560,"icoX":11,"txtN":"Rollstuhlstellplatz"},{"type":"A","code":"LS","prio":605,"icoX":3,"txtN":"Laptop-Steckdosen"},{"type":"A","code":"KL","prio":610,"icoX":3,"txtN":"Klimaanlage"},{"type":"A","code":"WV","prio":710,"icoX":3,"txtN":"WLAN verfügbar"},{"type":"M","code":"","icoX":12,"txtS":"RE 26432: Erkelenz: Information. (Quelle: zuginfo.nrw)","txtN":"Aufgrund von Umbaumaßnahmen am Aufzugschacht in Erkelenz ist der Aufzug von/zu Gleis 1 bis voraussichtlich März 2024 nicht nutzbar.","sIdx":2}],"type":"JNY"}],"segmentTypes":["IC","RE","RE"]},{"checksum":"b5ead2cf_3","cid":"C-1","date":"2023-10-17T22:00:00.000Z","duration":21240000,"changes":1,"isRideable":true,"arrival":{"platform":"2","scheduledTime":"2023-10-18T18:40:00.000Z","time":"2023-10-18T18:40:00.000Z","reihung":false},"departure":{"platform":"14","scheduledTime":"2023-10-18T12:46:00.000Z","time":"2023-10-18T12:46:00.000Z","reihung":false},"segments":[{"arrival":{"platform":"7","scheduledTime":"2023-10-18T17:35:00.000Z","time":"2023-10-18T17:35:00.000Z","reihung":false},"departure":{"platform":"14","scheduledTime":"2023-10-18T12:46:00.000Z","time":"2023-10-18T12:46:00.000Z","reihung":false},"duration":17340000,"train":{"name":"ICE 546","line":"10","admin":"80","number":"546","type":"ICE","operator":{"name":"DB Fernverkehr AG","icoX":2}},"changeDuration":11,"segmentStart":{"name":"Berlin Hbf","evaNumber":"8011160"},"segmentDestination":{"name":"Köln Hbf","evaNumber":"8000207"},"stops":[{"station":{"evaNumber":"8011160","name":"Berlin Hbf","coordinates":{"lng":13.369629,"lat":52.524924},"ril100":"BLS"},"departure":{"platform":"14","scheduledTime":"2023-10-18T12:46:00.000Z","time":"2023-10-18T12:46:00.000Z","reihung":false},"messages":[{"type":"A","code":"text.journeystop.product.or.direction.changes.stop.message","icoX":3,"txtN":"Verkehrt ab hier als ICE 546 in Richtung Düsseldorf Hbf"}]},{"station":{"evaNumber":"8010404","name":"Berlin-Spandau","coordinates":{"lng":13.200947,"lat":52.533787},"ril100":"BSPD"},"departure":{"platform":"4","scheduledTime":"2023-10-18T13:01:00.000Z","time":"2023-10-18T13:01:00.000Z","reihung":false},"auslastung":{"first":3,"second":2}},{"station":{"evaNumber":"8000152","name":"Hannover Hbf","coordinates":{"lng":9.741763,"lat":52.377079},"ril100":"HH"},"arrival":{"platform":"12","scheduledTime":"2023-10-18T14:28:00.000Z","time":"2023-10-18T14:28:00.000Z","reihung":false},"departure":{"platform":"12","scheduledTime":"2023-10-18T14:31:00.000Z","time":"2023-10-18T14:31:00.000Z","reihung":false},"auslastung":{"first":3,"second":2}},{"station":{"evaNumber":"8000036","name":"Bielefeld Hbf","coordinates":{"lng":8.532777,"lat":52.029421},"ril100":"EBILP"},"arrival":{"platform":"4","scheduledTime":"2023-10-18T15:20:00.000Z","time":"2023-10-18T15:20:00.000Z","reihung":false},"departure":{"platform":"4","scheduledTime":"2023-10-18T15:22:00.000Z","time":"2023-10-18T15:22:00.000Z","reihung":false},"auslastung":{"first":3,"second":2}},{"station":{"evaNumber":"8000149","name":"Hamm(Westf)Hbf","coordinates":{"lng":7.80777,"lat":51.678131},"ril100":"EHM"},"arrival":{"platform":"10","scheduledTime":"2023-10-18T15:48:00.000Z","time":"2023-10-18T15:48:00.000Z","reihung":false},"departure":{"platform":"10","scheduledTime":"2023-10-18T15:51:00.000Z","time":"2023-10-18T15:51:00.000Z","reihung":false},"auslastung":{"first":3,"second":2}},{"station":{"evaNumber":"8000080","name":"Dortmund Hbf","coordinates":{"lng":7.459276,"lat":51.517872},"ril100":"EDO"},"arrival":{"platform":"11","scheduledTime":"2023-10-18T16:10:00.000Z","time":"2023-10-18T16:10:00.000Z","reihung":false},"departure":{"platform":"11","scheduledTime":"2023-10-18T16:13:00.000Z","time":"2023-10-18T16:13:00.000Z","reihung":false},"auslastung":{"first":3,"second":1},"messages":[{"type":"A","code":"text.journeystop.product.or.direction.changes.stop.message","icoX":3,"txtN":"Verkehrt ab hier als ICE 546 in Richtung Koblenz Hbf"}]},{"station":{"evaNumber":"8000041","name":"Bochum Hbf","coordinates":{"lng":7.223264,"lat":51.47849},"ril100":"EBO"},"arrival":{"platform":"3","scheduledTime":"2023-10-18T16:23:00.000Z","time":"2023-10-18T16:23:00.000Z","reihung":false},"departure":{"platform":"3","scheduledTime":"2023-10-18T16:24:00.000Z","time":"2023-10-18T16:24:00.000Z","reihung":false},"auslastung":{"first":3,"second":1}},{"station":{"evaNumber":"8000098","name":"Essen Hbf","coordinates":{"lng":7.01386,"lat":51.451378},"ril100":"EE"},"arrival":{"platform":"1","scheduledTime":"2023-10-18T16:35:00.000Z","time":"2023-10-18T16:35:00.000Z","reihung":false},"departure":{"platform":"1","scheduledTime":"2023-10-18T16:37:00.000Z","time":"2023-10-18T16:37:00.000Z","reihung":false},"auslastung":{"first":2,"second":1}},{"station":{"evaNumber":"8000086","name":"Duisburg Hbf","coordinates":{"lng":6.77606,"lat":51.429615},"ril100":"EDG"},"arrival":{"platform":"3","scheduledTime":"2023-10-18T16:48:00.000Z","time":"2023-10-18T16:48:00.000Z","reihung":false},"departure":{"platform":"3","scheduledTime":"2023-10-18T16:50:00.000Z","time":"2023-10-18T16:50:00.000Z","reihung":false},"auslastung":{"first":2,"second":1}},{"station":{"evaNumber":"8000082","name":"Düsseldorf Flughafen","coordinates":{"lng":6.786973,"lat":51.291568},"ril100":"KDFF"},"arrival":{"platform":"4","scheduledTime":"2023-10-18T16:58:00.000Z","time":"2023-10-18T16:58:00.000Z","reihung":false},"departure":{"platform":"4","scheduledTime":"2023-10-18T17:03:00.000Z","time":"2023-10-18T17:03:00.000Z","reihung":false}},{"station":{"evaNumber":"8000085","name":"Düsseldorf Hbf","coordinates":{"lng":6.794011,"lat":51.219708},"ril100":"KD"},"arrival":{"platform":"15","scheduledTime":"2023-10-18T17:10:00.000Z","time":"2023-10-18T17:10:00.000Z","reihung":false},"departure":{"platform":"15","scheduledTime":"2023-10-18T17:12:00.000Z","time":"2023-10-18T17:12:00.000Z","reihung":false},"auslastung":{"first":1,"second":1}},{"station":{"evaNumber":"8000207","name":"Köln Hbf","coordinates":{"lng":6.959197,"lat":50.942823},"ril100":"KK"},"arrival":{"platform":"7","scheduledTime":"2023-10-18T17:35:00.000Z","time":"2023-10-18T17:35:00.000Z","reihung":false}}],"finalDestination":"Düsseldorf Hbf","jid":"1|206050|0|80|18102023","auslastung":{"first":3,"second":2},"messages":[{"type":"A","code":"CK","prio":200,"icoX":3,"txtN":"Sicher & kontaktlos ohne Ticketkontrolle reisen mit Komfort Check-in"},{"type":"A","code":"BR","prio":450,"icoX":13,"txtN":"Bordrestaurant"},{"type":"A","code":"text.journeystop.product.or.direction.changes.journey.message","icoX":3,"txtN":"Verkehrt ab Dortmund Hbf als ICE 546 in Richtung Koblenz Hbf"}],"type":"JNY"},{"arrival":{"platform":"2","scheduledTime":"2023-10-18T18:40:00.000Z","time":"2023-10-18T18:40:00.000Z","reihung":false},"departure":{"platform":"8","scheduledTime":"2023-10-18T17:46:00.000Z","time":"2023-10-18T17:46:00.000Z","reihung":false},"duration":3240000,"train":{"name":"RE 9","line":"9","admin":"800338","number":"10928","type":"RE","operator":{"name":"DB Regio AG NRW","icoX":14}},"segmentStart":{"name":"Köln Hbf","evaNumber":"8000207"},"segmentDestination":{"name":"Aachen Hbf","evaNumber":"8000001"},"stops":[{"station":{"evaNumber":"8000207","name":"Köln Hbf","coordinates":{"lng":6.959197,"lat":50.942823},"ril100":"KK"},"departure":{"platform":"8","scheduledTime":"2023-10-18T17:46:00.000Z","time":"2023-10-18T17:46:00.000Z","reihung":false}},{"station":{"evaNumber":"8000208","name":"Köln-Ehrenfeld","coordinates":{"lng":6.917244,"lat":50.951605},"ril100":"KKER"},"arrival":{"platform":"4","scheduledTime":"2023-10-18T17:51:00.000Z","time":"2023-10-18T17:51:00.000Z","reihung":false},"departure":{"platform":"4","scheduledTime":"2023-10-18T17:52:00.000Z","time":"2023-10-18T17:52:00.000Z","reihung":false}},{"station":{"evaNumber":"8000178","name":"Horrem","coordinates":{"lng":6.713378,"lat":50.916556},"ril100":"KHR"},"arrival":{"platform":"6","scheduledTime":"2023-10-18T18:01:00.000Z","time":"2023-10-18T18:01:00.000Z","reihung":false},"departure":{"platform":"6","scheduledTime":"2023-10-18T18:02:00.000Z","time":"2023-10-18T18:02:00.000Z","reihung":false}},{"station":{"evaNumber":"8000084","name":"Düren","coordinates":{"lng":6.482238,"lat":50.809513},"ril100":"KDN"},"arrival":{"platform":"1","scheduledTime":"2023-10-18T18:12:00.000Z","time":"2023-10-18T18:12:00.000Z","reihung":false},"departure":{"platform":"1","scheduledTime":"2023-10-18T18:13:00.000Z","time":"2023-10-18T18:13:00.000Z","reihung":false}},{"station":{"evaNumber":"8003553","name":"Langerwehe","coordinates":{"lng":6.354169,"lat":50.817828},"ril100":"KLAW"},"arrival":{"platform":"4","scheduledTime":"2023-10-18T18:19:00.000Z","time":"2023-10-18T18:19:00.000Z","reihung":false},"departure":{"platform":"4","scheduledTime":"2023-10-18T18:20:00.000Z","time":"2023-10-18T18:20:00.000Z","reihung":false}},{"station":{"evaNumber":"8001886","name":"Eschweiler Hbf","coordinates":{"lng":6.25198,"lat":50.813558},"ril100":"KE"},"arrival":{"platform":"1","scheduledTime":"2023-10-18T18:25:00.000Z","time":"2023-10-18T18:25:00.000Z","reihung":false},"departure":{"platform":"1","scheduledTime":"2023-10-18T18:26:00.000Z","time":"2023-10-18T18:26:00.000Z","reihung":false}},{"station":{"evaNumber":"8000348","name":"Stolberg(Rheinl)Hbf","coordinates":{"lng":6.218288,"lat":50.794914},"ril100":"KST"},"arrival":{"platform":"1","scheduledTime":"2023-10-18T18:29:00.000Z","time":"2023-10-18T18:29:00.000Z","reihung":false},"departure":{"platform":"1","scheduledTime":"2023-10-18T18:30:00.000Z","time":"2023-10-18T18:30:00.000Z","reihung":false}},{"station":{"evaNumber":"8000406","name":"Aachen-Rothe Erde","coordinates":{"lng":6.116512,"lat":50.770275},"ril100":"KARE"},"arrival":{"platform":"1","scheduledTime":"2023-10-18T18:36:00.000Z","time":"2023-10-18T18:36:00.000Z","reihung":false},"departure":{"platform":"1","scheduledTime":"2023-10-18T18:37:00.000Z","time":"2023-10-18T18:37:00.000Z","reihung":false}},{"station":{"evaNumber":"8000001","name":"Aachen Hbf","coordinates":{"lng":6.09119,"lat":50.767641},"ril100":"KA"},"arrival":{"platform":"2","scheduledTime":"2023-10-18T18:40:00.000Z","time":"2023-10-18T18:40:00.000Z","reihung":false}}],"finalDestination":"Aachen Hbf","jid":"1|231335|0|80|18102023","messages":[{"type":"A","code":"FB","prio":260,"icoX":5,"txtN":"Fahrradmitnahme begrenzt möglich"},{"type":"A","code":"OC","prio":560,"icoX":3,"txtN":"rollstuhltaugliches WC (Köln Hbf - Horrem)"},{"type":"A","code":"OC","prio":560,"icoX":3,"txtN":"rollstuhltaugliches WC (Horrem - Düren)"},{"type":"A","code":"OC","prio":560,"icoX":3,"txtN":"rollstuhltaugliches WC (Düren - Aachen Hbf)"},{"type":"A","code":"TO","prio":700,"icoX":3,"txtN":"Toilette an Bord (Köln Hbf - Horrem)"},{"type":"A","code":"TO","prio":700,"icoX":3,"txtN":"Toilette an Bord (Horrem - Düren)"},{"type":"A","code":"TO","prio":700,"icoX":3,"txtN":"Toilette an Bord (Düren - Aachen Hbf)"},{"type":"A","code":"WV","prio":710,"icoX":3,"txtN":"WLAN verfügbar (Köln Hbf - Horrem)"},{"type":"A","code":"WV","prio":710,"icoX":3,"txtN":"WLAN verfügbar (Horrem - Düren)"},{"type":"A","code":"WV","prio":710,"icoX":3,"txtN":"WLAN verfügbar (Düren - Aachen Hbf)"},{"type":"A","code":"IX","prio":800,"icoX":3,"txtN":"Rhein Sieg Express (RSX)"}],"type":"JNY"}],"segmentTypes":["ICE","RE"]},{"checksum":"80de905f_3","cid":"C-2","date":"2023-10-17T22:00:00.000Z","duration":23220000,"changes":1,"isRideable":true,"arrival":{"platform":"3","scheduledTime":"2023-10-18T19:27:00.000Z","time":"2023-10-18T19:27:00.000Z","reihung":false},"departure":{"platform":"14","scheduledTime":"2023-10-18T13:00:00.000Z","time":"2023-10-18T13:00:00.000Z","reihung":false},"segments":[{"arrival":{"platform":"1","scheduledTime":"2023-10-18T17:41:00.000Z","time":"2023-10-18T17:41:00.000Z","reihung":false},"departure":{"platform":"14","scheduledTime":"2023-10-18T13:00:00.000Z","time":"2023-10-18T13:00:00.000Z","reihung":false},"duration":16860000,"train":{"name":"ICE 1546","line":"14","admin":"80","number":"1546","type":"ICE","operator":{"name":"DB Fernverkehr AG","icoX":2}},"changeDuration":19,"segmentStart":{"name":"Berlin Hbf","evaNumber":"8011160"},"segmentDestination":{"name":"Krefeld Hbf","evaNumber":"8000211"},"stops":[{"station":{"evaNumber":"8011160","name":"Berlin Hbf","coordinates":{"lng":13.369629,"lat":52.524924},"ril100":"BLS"},"departure":{"platform":"14","scheduledTime":"2023-10-18T13:00:00.000Z","time":"2023-10-18T13:00:00.000Z","reihung":false}},{"station":{"evaNumber":"8010404","name":"Berlin-Spandau","coordinates":{"lng":13.200947,"lat":52.533787},"ril100":"BSPD"},"departure":{"platform":"4","scheduledTime":"2023-10-18T13:15:00.000Z","time":"2023-10-18T13:15:00.000Z","reihung":false},"auslastung":{"first":3,"second":2}},{"station":{"evaNumber":"8010334","name":"Stendal Hbf","coordinates":{"lng":11.854767,"lat":52.594671},"ril100":"LS"},"arrival":{"platform":"1","scheduledTime":"2023-10-18T13:50:00.000Z","time":"2023-10-18T13:50:00.000Z","reihung":false},"departure":{"platform":"1","scheduledTime":"2023-10-18T13:51:00.000Z","time":"2023-10-18T13:51:00.000Z","reihung":false},"auslastung":{"first":3,"second":2}},{"station":{"evaNumber":"8006552","name":"Wolfsburg Hbf","coordinates":{"lng":10.787757,"lat":52.429495},"ril100":"HWOB"},"arrival":{"platform":"1","scheduledTime":"2023-10-18T14:19:00.000Z","time":"2023-10-18T14:19:00.000Z","reihung":false},"departure":{"platform":"1","scheduledTime":"2023-10-18T14:20:00.000Z","time":"2023-10-18T14:20:00.000Z","reihung":false},"auslastung":{"first":3,"second":2}},{"station":{"evaNumber":"8000152","name":"Hannover Hbf","coordinates":{"lng":9.741763,"lat":52.377079},"ril100":"HH"},"arrival":{"platform":"12","scheduledTime":"2023-10-18T14:53:00.000Z","time":"2023-10-18T14:53:00.000Z","reihung":false},"departure":{"platform":"12","scheduledTime":"2023-10-18T14:56:00.000Z","time":"2023-10-18T14:56:00.000Z","reihung":false},"auslastung":{"first":3,"second":2}},{"station":{"evaNumber":"8000732","name":"Bad Oeynhausen","coordinates":{"lng":8.796439,"lat":52.205447},"ril100":"HOY"},"arrival":{"platform":"2","scheduledTime":"2023-10-18T15:32:00.000Z","time":"2023-10-18T15:32:00.000Z","reihung":false},"departure":{"platform":"2","scheduledTime":"2023-10-18T15:34:00.000Z","time":"2023-10-18T15:34:00.000Z","reihung":false},"auslastung":{"first":3,"second":1}},{"station":{"evaNumber":"8000162","name":"Herford","coordinates":{"lng":8.663741,"lat":52.119654},"ril100":"EHFD"},"arrival":{"platform":"6","scheduledTime":"2023-10-18T15:42:00.000Z","time":"2023-10-18T15:42:00.000Z","reihung":false},"departure":{"platform":"6","scheduledTime":"2023-10-18T15:44:00.000Z","time":"2023-10-18T15:44:00.000Z","reihung":false},"auslastung":{"first":3,"second":1}},{"station":{"evaNumber":"8000036","name":"Bielefeld Hbf","coordinates":{"lng":8.532777,"lat":52.029421},"ril100":"EBILP"},"arrival":{"platform":"4","scheduledTime":"2023-10-18T15:51:00.000Z","time":"2023-10-18T15:51:00.000Z","reihung":false},"departure":{"platform":"4","scheduledTime":"2023-10-18T15:53:00.000Z","time":"2023-10-18T15:53:00.000Z","reihung":false},"auslastung":{"first":2,"second":1}},{"station":{"evaNumber":"8002461","name":"Gütersloh Hbf","coordinates":{"lng":8.385129,"lat":51.906862},"ril100":"EGLO"},"arrival":{"platform":"2","scheduledTime":"2023-10-18T16:01:00.000Z","time":"2023-10-18T16:01:00.000Z","reihung":false},"departure":{"platform":"2","scheduledTime":"2023-10-18T16:03:00.000Z","time":"2023-10-18T16:03:00.000Z","reihung":false},"auslastung":{"first":2,"second":1}},{"station":{"evaNumber":"8000149","name":"Hamm(Westf)Hbf","coordinates":{"lng":7.80777,"lat":51.678131},"ril100":"EHM"},"arrival":{"platform":"10","scheduledTime":"2023-10-18T16:24:00.000Z","time":"2023-10-18T16:24:00.000Z","reihung":false},"departure":{"platform":"10","scheduledTime":"2023-10-18T16:26:00.000Z","time":"2023-10-18T16:26:00.000Z","reihung":false},"auslastung":{"first":2,"second":1}},{"station":{"evaNumber":"8000080","name":"Dortmund Hbf","coordinates":{"lng":7.459276,"lat":51.517872},"ril100":"EDO"},"arrival":{"platform":"18","scheduledTime":"2023-10-18T16:48:00.000Z","time":"2023-10-18T16:48:00.000Z","reihung":false},"departure":{"platform":"18","scheduledTime":"2023-10-18T16:51:00.000Z","time":"2023-10-18T16:51:00.000Z","reihung":false},"auslastung":{"first":2,"second":1}},{"station":{"evaNumber":"8000041","name":"Bochum Hbf","coordinates":{"lng":7.223264,"lat":51.47849},"ril100":"EBO"},"arrival":{"platform":"3","scheduledTime":"2023-10-18T17:02:00.000Z","time":"2023-10-18T17:02:00.000Z","reihung":false},"departure":{"platform":"3","scheduledTime":"2023-10-18T17:04:00.000Z","time":"2023-10-18T17:04:00.000Z","reihung":false},"auslastung":{"first":2,"second":1}},{"station":{"evaNumber":"8000098","name":"Essen Hbf","coordinates":{"lng":7.01386,"lat":51.451378},"ril100":"EE"},"arrival":{"platform":"2","scheduledTime":"2023-10-18T17:13:00.000Z","time":"2023-10-18T17:13:00.000Z","reihung":false},"departure":{"platform":"2","scheduledTime":"2023-10-18T17:15:00.000Z","time":"2023-10-18T17:15:00.000Z","reihung":false},"auslastung":{"first":1,"second":1}},{"station":{"evaNumber":"8000086","name":"Duisburg Hbf","coordinates":{"lng":6.77606,"lat":51.429615},"ril100":"EDG"},"arrival":{"platform":"4","scheduledTime":"2023-10-18T17:26:00.000Z","time":"2023-10-18T17:26:00.000Z","reihung":false},"departure":{"platform":"4","scheduledTime":"2023-10-18T17:29:00.000Z","time":"2023-10-18T17:29:00.000Z","reihung":false},"auslastung":{"first":1,"second":1}},{"station":{"evaNumber":"8000211","name":"Krefeld Hbf","coordinates":{"lng":6.570054,"lat":51.32552},"ril100":"KKR"},"arrival":{"platform":"1","scheduledTime":"2023-10-18T17:41:00.000Z","time":"2023-10-18T17:41:00.000Z","reihung":false}}],"finalDestination":"Krefeld Hbf","jid":"1|197863|0|80|18102023","auslastung":{"first":3,"second":2},"messages":[{"type":"A","code":"CK","prio":200,"icoX":3,"txtN":"Sicher & kontaktlos ohne Ticketkontrolle reisen mit Komfort Check-in"},{"type":"A","code":"FR","prio":260,"icoX":4,"txtN":"Fahrradmitnahme reservierungspflichtig"},{"type":"A","code":"FB","prio":260,"icoX":5,"txtN":"Fahrradmitnahme begrenzt möglich"},{"type":"A","code":"BR","prio":450,"icoX":13,"txtN":"Bordrestaurant"}],"type":"JNY"},{"arrival":{"platform":"3","scheduledTime":"2023-10-18T19:27:00.000Z","time":"2023-10-18T19:27:00.000Z","reihung":false},"departure":{"platform":"1","scheduledTime":"2023-10-18T18:00:00.000Z","time":"2023-10-18T18:00:00.000Z","reihung":false},"duration":5220000,"train":{"name":"RB 33","line":"33","admin":"800333","number":"10341","type":"RB","operator":{"name":"DB Regio AG NRW","icoX":14}},"segmentStart":{"name":"Krefeld Hbf","evaNumber":"8000211"},"segmentDestination":{"name":"Aachen Hbf","evaNumber":"8000001"},"stops":[{"station":{"evaNumber":"8000211","name":"Krefeld Hbf","coordinates":{"lng":6.570054,"lat":51.32552},"ril100":"KKR"},"departure":{"platform":"1","scheduledTime":"2023-10-18T18:00:00.000Z","time":"2023-10-18T18:00:00.000Z","reihung":false}},{"station":{"evaNumber":"8002027","name":"Forsthaus","coordinates":{"lng":6.503066,"lat":51.303218},"ril100":"KFOS"},"arrival":{"platform":"2","scheduledTime":"2023-10-18T18:04:00.000Z","time":"2023-10-18T18:04:00.000Z","reihung":false},"departure":{"platform":"2","scheduledTime":"2023-10-18T18:04:00.000Z","time":"2023-10-18T18:04:00.000Z","reihung":false}},{"station":{"evaNumber":"8000584","name":"Anrath","coordinates":{"lng":6.451235,"lat":51.285887},"ril100":"KANR"},"arrival":{"platform":"1","scheduledTime":"2023-10-18T18:07:00.000Z","time":"2023-10-18T18:07:00.000Z","reihung":false},"departure":{"platform":"1","scheduledTime":"2023-10-18T18:08:00.000Z","time":"2023-10-18T18:08:00.000Z","reihung":false}},{"station":{"evaNumber":"8000174","name":"Viersen","coordinates":{"lng":6.403745,"lat":51.254955},"ril100":"KV"},"arrival":{"platform":"4","scheduledTime":"2023-10-18T18:12:00.000Z","time":"2023-10-18T18:12:00.000Z","reihung":false},"departure":{"platform":"4","scheduledTime":"2023-10-18T18:13:00.000Z","time":"2023-10-18T18:13:00.000Z","reihung":false}},{"station":{"evaNumber":"8000253","name":"Mönchengladbach Hbf","coordinates":{"lng":6.446183,"lat":51.196507},"ril100":"KM"},"arrival":{"platform":"1","scheduledTime":"2023-10-18T18:20:00.000Z","time":"2023-10-18T18:20:00.000Z","reihung":false},"departure":{"platform":"1","scheduledTime":"2023-10-18T18:22:00.000Z","time":"2023-10-18T18:22:00.000Z","reihung":false}},{"station":{"evaNumber":"8000318","name":"Rheydt Hbf","coordinates":{"lng":6.439746,"lat":51.163049},"ril100":"KRY"},"arrival":{"platform":"3","scheduledTime":"2023-10-18T18:25:00.000Z","time":"2023-10-18T18:25:00.000Z","reihung":false},"departure":{"platform":"3","scheduledTime":"2023-10-18T18:26:00.000Z","time":"2023-10-18T18:26:00.000Z","reihung":false}},{"station":{"evaNumber":"8006391","name":"Wickrath","coordinates":{"lng":6.411574,"lat":51.132765},"ril100":"KWIC"},"arrival":{"platform":"2","scheduledTime":"2023-10-18T18:29:00.000Z","time":"2023-10-18T18:29:00.000Z","reihung":false},"departure":{"platform":"2","scheduledTime":"2023-10-18T18:30:00.000Z","time":"2023-10-18T18:30:00.000Z","reihung":false}},{"station":{"evaNumber":"8002784","name":"Herrath","coordinates":{"lng":6.367185,"lat":51.10417},"ril100":"KHER"},"arrival":{"platform":"2","scheduledTime":"2023-10-18T18:33:00.000Z","time":"2023-10-18T18:33:00.000Z","reihung":false},"departure":{"platform":"2","scheduledTime":"2023-10-18T18:34:00.000Z","time":"2023-10-18T18:34:00.000Z","reihung":false}},{"station":{"evaNumber":"8001839","name":"Erkelenz","coordinates":{"lng":6.321457,"lat":51.076474},"ril100":"KERZ"},"arrival":{"platform":"1","scheduledTime":"2023-10-18T18:37:00.000Z","time":"2023-10-18T18:37:00.000Z","reihung":false},"departure":{"platform":"1","scheduledTime":"2023-10-18T18:38:00.000Z","time":"2023-10-18T18:38:00.000Z","reihung":false}},{"station":{"evaNumber":"8000677","name":"Hückelhoven-Baal","coordinates":{"lng":6.274147,"lat":51.033452},"ril100":"KBA"},"arrival":{"platform":"2","scheduledTime":"2023-10-18T18:42:00.000Z","time":"2023-10-18T18:42:00.000Z","reihung":false},"departure":{"platform":"2","scheduledTime":"2023-10-18T18:43:00.000Z","time":"2023-10-18T18:43:00.000Z","reihung":false}},{"station":{"evaNumber":"8001113","name":"Brachelen","coordinates":{"lng":6.230639,"lat":51.007383},"ril100":"KBRC"},"arrival":{"platform":"2","scheduledTime":"2023-10-18T18:46:00.000Z","time":"2023-10-18T18:46:00.000Z","reihung":false},"departure":{"platform":"2","scheduledTime":"2023-10-18T18:46:00.000Z","time":"2023-10-18T18:46:00.000Z","reihung":false}},{"station":{"evaNumber":"8003697","name":"Lindern","coordinates":{"lng":6.20875,"lat":50.997162},"ril100":"KLD"},"arrival":{"platform":"3","scheduledTime":"2023-10-18T18:51:00.000Z","time":"2023-10-18T18:51:00.000Z","reihung":false},"departure":{"platform":"3","scheduledTime":"2023-10-18T18:56:00.000Z","time":"2023-10-18T18:56:00.000Z","reihung":false}},{"station":{"evaNumber":"8002206","name":"Geilenkirchen","coordinates":{"lng":6.12445,"lat":50.961044},"ril100":"KGEK"},"arrival":{"platform":"1","scheduledTime":"2023-10-18T19:01:00.000Z","time":"2023-10-18T19:01:00.000Z","reihung":false},"departure":{"platform":"1","scheduledTime":"2023-10-18T19:02:00.000Z","time":"2023-10-18T19:02:00.000Z","reihung":false}},{"station":{"evaNumber":"8005935","name":"Übach-Palenberg","coordinates":{"lng":6.097257,"lat":50.924314},"ril100":"KUBP"},"arrival":{"platform":"1","scheduledTime":"2023-10-18T19:05:00.000Z","time":"2023-10-18T19:05:00.000Z","reihung":false},"departure":{"platform":"1","scheduledTime":"2023-10-18T19:05:00.000Z","time":"2023-10-18T19:05:00.000Z","reihung":false}},{"station":{"evaNumber":"8002806","name":"Herzogenrath","coordinates":{"lng":6.094399,"lat":50.870945},"ril100":"KHEZ"},"arrival":{"platform":"2","scheduledTime":"2023-10-18T19:09:00.000Z","time":"2023-10-18T19:09:00.000Z","reihung":false},"departure":{"platform":"2","scheduledTime":"2023-10-18T19:10:00.000Z","time":"2023-10-18T19:10:00.000Z","reihung":false}},{"station":{"evaNumber":"8003395","name":"Kohlscheid","coordinates":{"lng":6.072079,"lat":50.827311},"ril100":"KKOS"},"arrival":{"platform":"2","scheduledTime":"2023-10-18T19:14:00.000Z","time":"2023-10-18T19:14:00.000Z","reihung":false},"departure":{"platform":"2","scheduledTime":"2023-10-18T19:15:00.000Z","time":"2023-10-18T19:15:00.000Z","reihung":false}},{"station":{"evaNumber":"8000404","name":"Aachen West","coordinates":{"lng":6.070874,"lat":50.78037},"ril100":"KAW"},"arrival":{"platform":"1","scheduledTime":"2023-10-18T19:20:00.000Z","time":"2023-10-18T19:20:00.000Z","reihung":false},"departure":{"platform":"1","scheduledTime":"2023-10-18T19:21:00.000Z","time":"2023-10-18T19:21:00.000Z","reihung":false}},{"station":{"evaNumber":"8070704","name":"Aachen Schanz","coordinates":{"lng":6.073715,"lat":50.769915},"ril100":"KASZ"},"arrival":{"platform":"1","scheduledTime":"2023-10-18T19:22:00.000Z","time":"2023-10-18T19:22:00.000Z","reihung":false},"departure":{"platform":"1","scheduledTime":"2023-10-18T19:23:00.000Z","time":"2023-10-18T19:23:00.000Z","reihung":false}},{"station":{"evaNumber":"8000001","name":"Aachen Hbf","coordinates":{"lng":6.09119,"lat":50.767641},"ril100":"KA"},"arrival":{"platform":"3","scheduledTime":"2023-10-18T19:27:00.000Z","time":"2023-10-18T19:27:00.000Z","reihung":false}}],"finalDestination":"Aachen Hbf","jid":"1|229830|0|80|18102023","messages":[{"type":"A","code":"FB","prio":260,"icoX":5,"txtN":"Fahrradmitnahme begrenzt möglich"},{"type":"A","code":"EH","prio":560,"icoX":3,"txtN":"Fahrzeuggebundene Einstiegshilfe vorhanden"},{"type":"A","code":"OC","prio":560,"icoX":3,"txtN":"rollstuhltaugliches WC (Krefeld Hbf - Mönchengladbach Hbf)"},{"type":"A","code":"OC","prio":560,"icoX":3,"txtN":"rollstuhltaugliches WC (Mönchengladbach Hbf - Herzogenrath)"},{"type":"A","code":"OC","prio":560,"icoX":3,"txtN":"rollstuhltaugliches WC (Herzogenrath - Aachen Hbf)"},{"type":"M","code":"","icoX":16,"txtS":"RB 10341: Krefeld Hbf->Viersen: Information.","txtN":"Erfahrungsgemäß hat dieser Zug eine hohe Auslastung.","sIdx":1},{"type":"M","code":"","icoX":12,"txtS":"RB 10341: Erkelenz: Information. (Quelle: zuginfo.nrw)","txtN":"Aufgrund von Umbaumaßnahmen am Aufzugschacht in Erkelenz ist der Aufzug von/zu Gleis 1 bis voraussichtlich März 2024 nicht nutzbar.","sIdx":1}],"type":"JNY"}],"segmentTypes":["ICE","RB"]},{"checksum":"e61355b1_3","cid":"C-3","date":"2023-10-17T22:00:00.000Z","duration":21060000,"changes":1,"isRideable":true,"arrival":{"platform":"7","scheduledTime":"2023-10-18T19:37:00.000Z","time":"2023-10-18T19:37:00.000Z","reihung":false},"departure":{"platform":"14","scheduledTime":"2023-10-18T13:46:00.000Z","time":"2023-10-18T13:46:00.000Z","reihung":false},"segments":[{"arrival":{"platform":"1","scheduledTime":"2023-10-18T17:38:00.000Z","time":"2023-10-18T17:38:00.000Z","reihung":false},"departure":{"platform":"14","scheduledTime":"2023-10-18T13:46:00.000Z","time":"2023-10-18T13:46:00.000Z","reihung":false},"duration":13920000,"train":{"name":"ICE 856","line":"10","admin":"80","number":"856","type":"ICE","operator":{"name":"DB Fernverkehr AG","icoX":2}},"changeDuration":20,"segmentStart":{"name":"Berlin Hbf","evaNumber":"8011160"},"segmentDestination":{"name":"Wuppertal Hbf","evaNumber":"8000266"},"stops":[{"station":{"evaNumber":"8011160","name":"Berlin Hbf","coordinates":{"lng":13.369629,"lat":52.524924},"ril100":"BLS"},"departure":{"platform":"14","scheduledTime":"2023-10-18T13:46:00.000Z","time":"2023-10-18T13:46:00.000Z","reihung":false}},{"station":{"evaNumber":"8010404","name":"Berlin-Spandau","coordinates":{"lng":13.200947,"lat":52.533787},"ril100":"BSPD"},"departure":{"platform":"4","scheduledTime":"2023-10-18T14:00:00.000Z","time":"2023-10-18T14:00:00.000Z","reihung":false},"auslastung":{"first":3,"second":2}},{"station":{"evaNumber":"8006552","name":"Wolfsburg Hbf","coordinates":{"lng":10.787757,"lat":52.429495},"ril100":"HWOB"},"arrival":{"platform":"1","scheduledTime":"2023-10-18T14:52:00.000Z","time":"2023-10-18T14:52:00.000Z","reihung":false},"departure":{"platform":"1","scheduledTime":"2023-10-18T14:53:00.000Z","time":"2023-10-18T14:53:00.000Z","reihung":false},"auslastung":{"first":3,"second":2}},{"station":{"evaNumber":"8000152","name":"Hannover Hbf","coordinates":{"lng":9.741763,"lat":52.377079},"ril100":"HH"},"arrival":{"platform":"12","scheduledTime":"2023-10-18T15:28:00.000Z","time":"2023-10-18T15:28:00.000Z","reihung":false},"departure":{"platform":"12","scheduledTime":"2023-10-18T15:31:00.000Z","time":"2023-10-18T15:31:00.000Z","reihung":false},"auslastung":{"first":3,"second":2}},{"station":{"evaNumber":"8000036","name":"Bielefeld Hbf","coordinates":{"lng":8.532777,"lat":52.029421},"ril100":"EBILP"},"arrival":{"platform":"4","scheduledTime":"2023-10-18T16:20:00.000Z","time":"2023-10-18T16:20:00.000Z","reihung":false},"departure":{"platform":"4","scheduledTime":"2023-10-18T16:22:00.000Z","time":"2023-10-18T16:22:00.000Z","reihung":false},"auslastung":{"first":3,"second":1}},{"station":{"evaNumber":"8000149","name":"Hamm(Westf)Hbf","coordinates":{"lng":7.80777,"lat":51.678131},"ril100":"EHM"},"arrival":{"platform":"10","scheduledTime":"2023-10-18T16:47:00.000Z","time":"2023-10-18T16:47:00.000Z","reihung":false},"departure":{"platform":"10","scheduledTime":"2023-10-18T16:54:00.000Z","time":"2023-10-18T16:54:00.000Z","reihung":false},"auslastung":{"first":3,"second":2}},{"station":{"evaNumber":"8000142","name":"Hagen Hbf","coordinates":{"lng":7.460391,"lat":51.362727},"ril100":"EHG"},"arrival":{"platform":"7/8","scheduledTime":"2023-10-18T17:21:00.000Z","time":"2023-10-18T17:21:00.000Z","reihung":false},"departure":{"platform":"7/8","scheduledTime":"2023-10-18T17:23:00.000Z","time":"2023-10-18T17:23:00.000Z","reihung":false},"auslastung":{"first":3,"second":2}},{"station":{"evaNumber":"8000266","name":"Wuppertal Hbf","coordinates":{"lng":7.150155,"lat":51.254443},"ril100":"KW"},"arrival":{"platform":"1","scheduledTime":"2023-10-18T17:38:00.000Z","time":"2023-10-18T17:38:00.000Z","reihung":false}}],"finalDestination":"Köln Hbf","jid":"1|211241|0|80|18102023","auslastung":{"first":3,"second":2},"messages":[{"type":"A","code":"CK","prio":200,"icoX":3,"txtN":"Sicher & kontaktlos ohne Ticketkontrolle reisen mit Komfort Check-in"},{"type":"A","code":"FR","prio":260,"icoX":4,"txtN":"Fahrradmitnahme reservierungspflichtig"},{"type":"A","code":"FB","prio":260,"icoX":5,"txtN":"Fahrradmitnahme begrenzt möglich"},{"type":"A","code":"BR","prio":450,"icoX":13,"txtN":"Bordrestaurant"},{"type":"A","code":"EH","prio":560,"icoX":3,"txtN":"Fahrzeuggebundene Einstiegshilfe vorhanden"}],"type":"JNY"},{"arrival":{"platform":"7","scheduledTime":"2023-10-18T19:37:00.000Z","time":"2023-10-18T19:37:00.000Z","reihung":false},"departure":{"platform":"1","scheduledTime":"2023-10-18T17:58:00.000Z","time":"2023-10-18T17:58:00.000Z","reihung":false},"duration":5940000,"train":{"name":"RE 4","line":"4","admin":"NXRE","number":"26432","type":"RE","operator":{"name":"National Express","icoX":8}},"segmentStart":{"name":"Wuppertal Hbf","evaNumber":"8000266"},"segmentDestination":{"name":"Aachen Hbf","evaNumber":"8000001"},"stops":[{"station":{"evaNumber":"8000266","name":"Wuppertal Hbf","coordinates":{"lng":7.150155,"lat":51.254443},"ril100":"KW"},"departure":{"platform":"1","scheduledTime":"2023-10-18T17:58:00.000Z","time":"2023-10-18T17:58:00.000Z","reihung":false}},{"station":{"evaNumber":"8006718","name":"Wuppertal-Vohwinkel","coordinates":{"lng":7.071823,"lat":51.234082},"ril100":"KWV"},"arrival":{"platform":"2","scheduledTime":"2023-10-18T18:03:00.000Z","time":"2023-10-18T18:03:00.000Z","reihung":false},"departure":{"platform":"2","scheduledTime":"2023-10-18T18:04:00.000Z","time":"2023-10-18T18:04:00.000Z","reihung":false}},{"station":{"evaNumber":"8000085","name":"Düsseldorf Hbf","coordinates":{"lng":6.794011,"lat":51.219708},"ril100":"KD"},"arrival":{"platform":"4","scheduledTime":"2023-10-18T18:18:00.000Z","time":"2023-10-18T18:18:00.000Z","reihung":false},"departure":{"platform":"4","scheduledTime":"2023-10-18T18:22:00.000Z","time":"2023-10-18T18:22:00.000Z","reihung":false}},{"station":{"evaNumber":"8001585","name":"Düsseldorf-Bilk","coordinates":{"lng":6.775475,"lat":51.207816},"ril100":"KDBH"},"arrival":{"platform":"4","scheduledTime":"2023-10-18T18:24:00.000Z","time":"2023-10-18T18:24:00.000Z","reihung":false},"departure":{"platform":"4","scheduledTime":"2023-10-18T18:25:00.000Z","time":"2023-10-18T18:25:00.000Z","reihung":false}},{"station":{"evaNumber":"8000274","name":"Neuss Hbf","coordinates":{"lng":6.684415,"lat":51.204373},"ril100":"KN"},"arrival":{"platform":"8","scheduledTime":"2023-10-18T18:34:00.000Z","time":"2023-10-18T18:34:00.000Z","reihung":false},"departure":{"platform":"8","scheduledTime":"2023-10-18T18:36:00.000Z","time":"2023-10-18T18:36:00.000Z","reihung":false}},{"station":{"evaNumber":"8000253","name":"Mönchengladbach Hbf","coordinates":{"lng":6.446183,"lat":51.196507},"ril100":"KM"},"arrival":{"platform":"5","scheduledTime":"2023-10-18T18:48:00.000Z","time":"2023-10-18T18:48:00.000Z","reihung":false},"departure":{"platform":"5","scheduledTime":"2023-10-18T18:50:00.000Z","time":"2023-10-18T18:50:00.000Z","reihung":false}},{"station":{"evaNumber":"8000318","name":"Rheydt Hbf","coordinates":{"lng":6.439746,"lat":51.163049},"ril100":"KRY"},"arrival":{"platform":"3","scheduledTime":"2023-10-18T18:53:00.000Z","time":"2023-10-18T18:53:00.000Z","reihung":false},"departure":{"platform":"3","scheduledTime":"2023-10-18T18:54:00.000Z","time":"2023-10-18T18:54:00.000Z","reihung":false}},{"station":{"evaNumber":"8001839","name":"Erkelenz","coordinates":{"lng":6.321457,"lat":51.076474},"ril100":"KERZ"},"arrival":{"platform":"1","scheduledTime":"2023-10-18T19:00:00.000Z","time":"2023-10-18T19:00:00.000Z","reihung":false},"departure":{"platform":"1","scheduledTime":"2023-10-18T19:01:00.000Z","time":"2023-10-18T19:01:00.000Z","reihung":false}},{"station":{"evaNumber":"8000677","name":"Hückelhoven-Baal","coordinates":{"lng":6.274147,"lat":51.033452},"ril100":"KBA"},"arrival":{"platform":"2","scheduledTime":"2023-10-18T19:04:00.000Z","time":"2023-10-18T19:04:00.000Z","reihung":false},"departure":{"platform":"2","scheduledTime":"2023-10-18T19:05:00.000Z","time":"2023-10-18T19:05:00.000Z","reihung":false}},{"station":{"evaNumber":"8003697","name":"Lindern","coordinates":{"lng":6.20875,"lat":50.997162},"ril100":"KLD"},"arrival":{"platform":"2","scheduledTime":"2023-10-18T19:08:00.000Z","time":"2023-10-18T19:08:00.000Z","reihung":false},"departure":{"platform":"2","scheduledTime":"2023-10-18T19:09:00.000Z","time":"2023-10-18T19:09:00.000Z","reihung":false}},{"station":{"evaNumber":"8002206","name":"Geilenkirchen","coordinates":{"lng":6.12445,"lat":50.961044},"ril100":"KGEK"},"arrival":{"platform":"1","scheduledTime":"2023-10-18T19:14:00.000Z","time":"2023-10-18T19:14:00.000Z","reihung":false},"departure":{"platform":"1","scheduledTime":"2023-10-18T19:14:00.000Z","time":"2023-10-18T19:14:00.000Z","reihung":false}},{"station":{"evaNumber":"8005935","name":"Übach-Palenberg","coordinates":{"lng":6.097257,"lat":50.924314},"ril100":"KUBP"},"arrival":{"platform":"1","scheduledTime":"2023-10-18T19:17:00.000Z","time":"2023-10-18T19:17:00.000Z","reihung":false},"departure":{"platform":"1","scheduledTime":"2023-10-18T19:18:00.000Z","time":"2023-10-18T19:18:00.000Z","reihung":false}},{"station":{"evaNumber":"8002806","name":"Herzogenrath","coordinates":{"lng":6.094399,"lat":50.870945},"ril100":"KHEZ"},"arrival":{"platform":"2","scheduledTime":"2023-10-18T19:22:00.000Z","time":"2023-10-18T19:22:00.000Z","reihung":false},"departure":{"platform":"2","scheduledTime":"2023-10-18T19:23:00.000Z","time":"2023-10-18T19:23:00.000Z","reihung":false}},{"station":{"evaNumber":"8000404","name":"Aachen West","coordinates":{"lng":6.070874,"lat":50.78037},"ril100":"KAW"},"arrival":{"platform":"1","scheduledTime":"2023-10-18T19:30:00.000Z","time":"2023-10-18T19:30:00.000Z","reihung":false},"departure":{"platform":"1","scheduledTime":"2023-10-18T19:31:00.000Z","time":"2023-10-18T19:31:00.000Z","reihung":false}},{"station":{"evaNumber":"8070704","name":"Aachen Schanz","coordinates":{"lng":6.073715,"lat":50.769915},"ril100":"KASZ"},"arrival":{"platform":"1","scheduledTime":"2023-10-18T19:33:00.000Z","time":"2023-10-18T19:33:00.000Z","reihung":false},"departure":{"platform":"1","scheduledTime":"2023-10-18T19:34:00.000Z","time":"2023-10-18T19:34:00.000Z","reihung":false}},{"station":{"evaNumber":"8000001","name":"Aachen Hbf","coordinates":{"lng":6.09119,"lat":50.767641},"ril100":"KA"},"arrival":{"platform":"7","scheduledTime":"2023-10-18T19:37:00.000Z","time":"2023-10-18T19:37:00.000Z","reihung":false}}],"finalDestination":"Aachen Hbf","jid":"1|291229|0|80|18102023","messages":[{"type":"A","code":"FB","prio":260,"icoX":5,"txtN":"Fahrradmitnahme begrenzt möglich"},{"type":"A","code":"RG","prio":560,"icoX":3,"txtN":"Behindertengerechtes Fahrzeug"},{"type":"A","code":"RO","prio":560,"icoX":11,"txtN":"Rollstuhlstellplatz"},{"type":"A","code":"LS","prio":605,"icoX":3,"txtN":"Laptop-Steckdosen"},{"type":"A","code":"KL","prio":610,"icoX":3,"txtN":"Klimaanlage"},{"type":"A","code":"WV","prio":710,"icoX":3,"txtN":"WLAN verfügbar"},{"type":"M","code":"","icoX":12,"txtS":"RE 26432: Erkelenz: Information. (Quelle: zuginfo.nrw)","txtN":"Aufgrund von Umbaumaßnahmen am Aufzugschacht in Erkelenz ist der Aufzug von/zu Gleis 1 bis voraussichtlich März 2024 nicht nutzbar.","sIdx":1}],"type":"JNY"}],"segmentTypes":["ICE","RE"]},{"checksum":"02c5300f_3","cid":"C-4","date":"2023-10-17T22:00:00.000Z","duration":22140000,"changes":1,"isRideable":true,"arrival":{"platform":"7","scheduledTime":"2023-10-18T20:36:00.000Z","time":"2023-10-18T20:36:00.000Z","reihung":false},"departure":{"platform":"7","scheduledTime":"2023-10-18T14:27:00.000Z","time":"2023-10-18T14:27:00.000Z","reihung":false},"segments":[{"arrival":{"platform":"3","scheduledTime":"2023-10-18T19:29:00.000Z","time":"2023-10-18T19:29:00.000Z","reihung":false},"departure":{"platform":"7","scheduledTime":"2023-10-18T14:27:00.000Z","time":"2023-10-18T14:27:00.000Z","reihung":false},"duration":18120000,"train":{"name":"FLX76336","line":"30","admin":"FLX30","number":"76336","type":"FLX","operator":{"name":"FlixTrain","icoX":18}},"changeDuration":7,"segmentStart":{"name":"Berlin Hbf (tief)","evaNumber":"8098160"},"segmentDestination":{"name":"Neuss Hbf","evaNumber":"8000274"},"stops":[{"station":{"evaNumber":"8098160","name":"Berlin Hbf (tief)","coordinates":{"lng":13.368892,"lat":52.52585},"ril100":"BL"},"departure":{"platform":"7","scheduledTime":"2023-10-18T14:27:00.000Z","time":"2023-10-18T14:27:00.000Z","reihung":false},"messages":[{"type":"A","code":"text.journeystop.product.or.direction.changes.stop.message","icoX":3,"txtN":"Verkehrt ab hier als FLX76336 in Richtung Köln Hbf"}]},{"station":{"evaNumber":"8010404","name":"Berlin-Spandau","coordinates":{"lng":13.200947,"lat":52.533787},"ril100":"BSPD"},"arrival":{"platform":"4","scheduledTime":"2023-10-18T14:37:00.000Z","time":"2023-10-18T14:37:00.000Z","reihung":false},"departure":{"platform":"4","scheduledTime":"2023-10-18T14:39:00.000Z","time":"2023-10-18T14:39:00.000Z","reihung":false}},{"station":{"evaNumber":"8010334","name":"Stendal Hbf","coordinates":{"lng":11.854767,"lat":52.594671},"ril100":"LS"},"arrival":{"platform":"1","scheduledTime":"2023-10-18T15:15:00.000Z","time":"2023-10-18T15:15:00.000Z","reihung":false},"departure":{"platform":"1","scheduledTime":"2023-10-18T15:20:00.000Z","time":"2023-10-18T15:20:00.000Z","reihung":false},"messages":[{"type":"A","code":"text.journeystop.product.or.direction.changes.stop.message","icoX":3,"txtN":"Verkehrt ab hier als FLX 1236 in Richtung Köln Hbf"}]},{"station":{"evaNumber":"8000152","name":"Hannover Hbf","coordinates":{"lng":9.741763,"lat":52.377079},"ril100":"HH"},"arrival":{"platform":"9","scheduledTime":"2023-10-18T16:20:00.000Z","time":"2023-10-18T16:20:00.000Z","reihung":false},"departure":{"platform":"9","scheduledTime":"2023-10-18T16:23:00.000Z","time":"2023-10-18T16:23:00.000Z","reihung":false}},{"station":{"evaNumber":"8000036","name":"Bielefeld Hbf","coordinates":{"lng":8.532777,"lat":52.029421},"ril100":"EBILP"},"arrival":{"platform":"4","scheduledTime":"2023-10-18T17:14:00.000Z","time":"2023-10-18T17:14:00.000Z","reihung":false},"departure":{"platform":"4","scheduledTime":"2023-10-18T17:16:00.000Z","time":"2023-10-18T17:16:00.000Z","reihung":false}},{"station":{"evaNumber":"8002461","name":"Gütersloh Hbf","coordinates":{"lng":8.385129,"lat":51.906862},"ril100":"EGLO"},"arrival":{"platform":"1","scheduledTime":"2023-10-18T17:27:00.000Z","time":"2023-10-18T17:27:00.000Z","reihung":false},"departure":{"platform":"1","scheduledTime":"2023-10-18T17:32:00.000Z","time":"2023-10-18T17:32:00.000Z","reihung":false}},{"station":{"evaNumber":"8000149","name":"Hamm(Westf)Hbf","coordinates":{"lng":7.80777,"lat":51.678131},"ril100":"EHM"},"arrival":{"platform":"11","scheduledTime":"2023-10-18T18:04:00.000Z","time":"2023-10-18T18:04:00.000Z","reihung":false},"departure":{"platform":"11","scheduledTime":"2023-10-18T18:06:00.000Z","time":"2023-10-18T18:06:00.000Z","reihung":false}},{"station":{"evaNumber":"8000080","name":"Dortmund Hbf","coordinates":{"lng":7.459276,"lat":51.517872},"ril100":"EDO"},"arrival":{"platform":"20","scheduledTime":"2023-10-18T18:23:00.000Z","time":"2023-10-18T18:23:00.000Z","reihung":false},"departure":{"platform":"20","scheduledTime":"2023-10-18T18:25:00.000Z","time":"2023-10-18T18:25:00.000Z","reihung":false}},{"station":{"evaNumber":"8000041","name":"Bochum Hbf","coordinates":{"lng":7.223264,"lat":51.47849},"ril100":"EBO"},"arrival":{"platform":"4","scheduledTime":"2023-10-18T18:37:00.000Z","time":"2023-10-18T18:37:00.000Z","reihung":false},"departure":{"platform":"4","scheduledTime":"2023-10-18T18:39:00.000Z","time":"2023-10-18T18:39:00.000Z","reihung":false}},{"station":{"evaNumber":"8000098","name":"Essen Hbf","coordinates":{"lng":7.01386,"lat":51.451378},"ril100":"EE"},"arrival":{"platform":"2","scheduledTime":"2023-10-18T18:48:00.000Z","time":"2023-10-18T18:48:00.000Z","reihung":false},"departure":{"platform":"2","scheduledTime":"2023-10-18T18:50:00.000Z","time":"2023-10-18T18:50:00.000Z","reihung":false}},{"station":{"evaNumber":"8000086","name":"Duisburg Hbf","coordinates":{"lng":6.77606,"lat":51.429615},"ril100":"EDG"},"arrival":{"platform":"3","scheduledTime":"2023-10-18T19:02:00.000Z","time":"2023-10-18T19:02:00.000Z","reihung":false},"departure":{"platform":"3","scheduledTime":"2023-10-18T19:04:00.000Z","time":"2023-10-18T19:04:00.000Z","reihung":false}},{"station":{"evaNumber":"8000085","name":"Düsseldorf Hbf","coordinates":{"lng":6.794011,"lat":51.219708},"ril100":"KD"},"arrival":{"platform":"10","scheduledTime":"2023-10-18T19:17:00.000Z","time":"2023-10-18T19:17:00.000Z","reihung":false},"departure":{"platform":"10","scheduledTime":"2023-10-18T19:19:00.000Z","time":"2023-10-18T19:19:00.000Z","reihung":false}},{"station":{"evaNumber":"8000274","name":"Neuss Hbf","coordinates":{"lng":6.684415,"lat":51.204373},"ril100":"KN"},"arrival":{"platform":"3","scheduledTime":"2023-10-18T19:29:00.000Z","time":"2023-10-18T19:29:00.000Z","reihung":false}}],"finalDestination":"Köln Hbf","jid":"1|286106|0|80|18102023","messages":[{"type":"A","code":"DU","prio":110,"icoX":3,"txtN":"DB-Fahrscheine gelten nicht"},{"type":"A","code":"RP","prio":185,"icoX":19,"txtN":"Reservierungspflicht"},{"type":"A","code":"9N","prio":186,"icoX":3,"txtN":"Deutschland-Ticket nicht gültig"},{"type":"A","code":"FN","prio":555,"icoX":3,"txtN":"Einstieg nur mit gültigem FlixTrain- oder FlixBus Ticket"},{"type":"A","code":"FX","prio":560,"icoX":3,"txtN":"Tickets unter www.flixtrain.de"},{"type":"A","code":"FG","prio":603,"icoX":3,"txtN":"Sitzplatzgarantie"},{"type":"A","code":"LS","prio":605,"icoX":3,"txtN":"Laptop-Steckdosen"},{"type":"A","code":"WV","prio":710,"icoX":3,"txtN":"WLAN verfügbar"},{"type":"A","code":"text.journeystop.product.or.direction.changes.journey.message","icoX":3,"txtN":"Verkehrt ab Stendal Hbf als FLX 1236 in Richtung Köln Hbf"}],"type":"JNY"},{"arrival":{"platform":"7","scheduledTime":"2023-10-18T20:36:00.000Z","time":"2023-10-18T20:36:00.000Z","reihung":false},"departure":{"platform":"8","scheduledTime":"2023-10-18T19:36:00.000Z","time":"2023-10-18T19:36:00.000Z","reihung":false},"duration":3600000,"train":{"name":"RE 4","line":"4","admin":"NXRE","number":"26434","type":"RE","operator":{"name":"National Express","icoX":8}},"segmentStart":{"name":"Neuss Hbf","evaNumber":"8000274"},"segmentDestination":{"name":"Aachen Hbf","evaNumber":"8000001"},"stops":[{"station":{"evaNumber":"8000274","name":"Neuss Hbf","coordinates":{"lng":6.684415,"lat":51.204373},"ril100":"KN"},"departure":{"platform":"8","scheduledTime":"2023-10-18T19:36:00.000Z","time":"2023-10-18T19:36:00.000Z","reihung":false}},{"station":{"evaNumber":"8000253","name":"Mönchengladbach Hbf","coordinates":{"lng":6.446183,"lat":51.196507},"ril100":"KM"},"arrival":{"platform":"5","scheduledTime":"2023-10-18T19:48:00.000Z","time":"2023-10-18T19:48:00.000Z","reihung":false},"departure":{"platform":"5","scheduledTime":"2023-10-18T19:50:00.000Z","time":"2023-10-18T19:50:00.000Z","reihung":false}},{"station":{"evaNumber":"8000318","name":"Rheydt Hbf","coordinates":{"lng":6.439746,"lat":51.163049},"ril100":"KRY"},"arrival":{"platform":"3","scheduledTime":"2023-10-18T19:53:00.000Z","time":"2023-10-18T19:53:00.000Z","reihung":false},"departure":{"platform":"3","scheduledTime":"2023-10-18T19:54:00.000Z","time":"2023-10-18T19:54:00.000Z","reihung":false}},{"station":{"evaNumber":"8001839","name":"Erkelenz","coordinates":{"lng":6.321457,"lat":51.076474},"ril100":"KERZ"},"arrival":{"platform":"1","scheduledTime":"2023-10-18T20:00:00.000Z","time":"2023-10-18T20:00:00.000Z","reihung":false},"departure":{"platform":"1","scheduledTime":"2023-10-18T20:01:00.000Z","time":"2023-10-18T20:01:00.000Z","reihung":false}},{"station":{"evaNumber":"8000677","name":"Hückelhoven-Baal","coordinates":{"lng":6.274147,"lat":51.033452},"ril100":"KBA"},"arrival":{"platform":"2","scheduledTime":"2023-10-18T20:04:00.000Z","time":"2023-10-18T20:04:00.000Z","reihung":false},"departure":{"platform":"2","scheduledTime":"2023-10-18T20:05:00.000Z","time":"2023-10-18T20:05:00.000Z","reihung":false}},{"station":{"evaNumber":"8003697","name":"Lindern","coordinates":{"lng":6.20875,"lat":50.997162},"ril100":"KLD"},"arrival":{"platform":"2","scheduledTime":"2023-10-18T20:08:00.000Z","time":"2023-10-18T20:08:00.000Z","reihung":false},"departure":{"platform":"2","scheduledTime":"2023-10-18T20:09:00.000Z","time":"2023-10-18T20:09:00.000Z","reihung":false}},{"station":{"evaNumber":"8002206","name":"Geilenkirchen","coordinates":{"lng":6.12445,"lat":50.961044},"ril100":"KGEK"},"arrival":{"platform":"1","scheduledTime":"2023-10-18T20:14:00.000Z","time":"2023-10-18T20:14:00.000Z","reihung":false},"departure":{"platform":"1","scheduledTime":"2023-10-18T20:14:00.000Z","time":"2023-10-18T20:14:00.000Z","reihung":false}},{"station":{"evaNumber":"8005935","name":"Übach-Palenberg","coordinates":{"lng":6.097257,"lat":50.924314},"ril100":"KUBP"},"arrival":{"platform":"1","scheduledTime":"2023-10-18T20:17:00.000Z","time":"2023-10-18T20:17:00.000Z","reihung":false},"departure":{"platform":"1","scheduledTime":"2023-10-18T20:18:00.000Z","time":"2023-10-18T20:18:00.000Z","reihung":false}},{"station":{"evaNumber":"8002806","name":"Herzogenrath","coordinates":{"lng":6.094399,"lat":50.870945},"ril100":"KHEZ"},"arrival":{"platform":"2","scheduledTime":"2023-10-18T20:22:00.000Z","time":"2023-10-18T20:22:00.000Z","reihung":false},"departure":{"platform":"2","scheduledTime":"2023-10-18T20:23:00.000Z","time":"2023-10-18T20:23:00.000Z","reihung":false}},{"station":{"evaNumber":"8000404","name":"Aachen West","coordinates":{"lng":6.070874,"lat":50.78037},"ril100":"KAW"},"arrival":{"platform":"1","scheduledTime":"2023-10-18T20:30:00.000Z","time":"2023-10-18T20:30:00.000Z","reihung":false},"departure":{"platform":"1","scheduledTime":"2023-10-18T20:31:00.000Z","time":"2023-10-18T20:31:00.000Z","reihung":false}},{"station":{"evaNumber":"8070704","name":"Aachen Schanz","coordinates":{"lng":6.073715,"lat":50.769915},"ril100":"KASZ"},"arrival":{"platform":"1","scheduledTime":"2023-10-18T20:33:00.000Z","time":"2023-10-18T20:33:00.000Z","reihung":false},"departure":{"platform":"1","scheduledTime":"2023-10-18T20:34:00.000Z","time":"2023-10-18T20:34:00.000Z","reihung":false}},{"station":{"evaNumber":"8000001","name":"Aachen Hbf","coordinates":{"lng":6.09119,"lat":50.767641},"ril100":"KA"},"arrival":{"platform":"7","scheduledTime":"2023-10-18T20:36:00.000Z","time":"2023-10-18T20:36:00.000Z","reihung":false}}],"finalDestination":"Aachen Hbf","jid":"1|291233|0|80|18102023","messages":[{"type":"A","code":"FB","prio":260,"icoX":5,"txtN":"Fahrradmitnahme begrenzt möglich"},{"type":"A","code":"RG","prio":560,"icoX":3,"txtN":"Behindertengerechtes Fahrzeug"},{"type":"A","code":"RO","prio":560,"icoX":11,"txtN":"Rollstuhlstellplatz"},{"type":"A","code":"LS","prio":605,"icoX":3,"txtN":"Laptop-Steckdosen"},{"type":"A","code":"KL","prio":610,"icoX":3,"txtN":"Klimaanlage"},{"type":"A","code":"WV","prio":710,"icoX":3,"txtN":"WLAN verfügbar"},{"type":"M","code":"","icoX":12,"txtS":"RE 26434: Erkelenz: Information. (Quelle: zuginfo.nrw)","txtN":"Aufgrund von Umbaumaßnahmen am Aufzugschacht in Erkelenz ist der Aufzug von/zu Gleis 1 bis voraussichtlich März 2024 nicht nutzbar.","sIdx":1}],"type":"JNY"}],"segmentTypes":["FLX","RE"]},{"checksum":"7e6468fa_3","cid":"C-5","date":"2023-10-17T22:00:00.000Z","duration":25440000,"changes":2,"isRideable":true,"arrival":{"platform":"7","scheduledTime":"2023-10-18T21:37:00.000Z","time":"2023-10-18T21:37:00.000Z","reihung":false},"departure":{"platform":"13","scheduledTime":"2023-10-18T14:33:00.000Z","time":"2023-10-18T14:33:00.000Z","reihung":false},"segments":[{"arrival":{"platform":"2","scheduledTime":"2023-10-18T17:20:00.000Z","time":"2023-10-18T17:20:00.000Z","reihung":false},"departure":{"platform":"13","scheduledTime":"2023-10-18T14:33:00.000Z","time":"2023-10-18T14:33:00.000Z","reihung":false},"duration":10020000,"train":{"name":"IC 140","line":"77","admin":"80","number":"140","type":"IC","operator":{"name":"DB Fernverkehr AG","icoX":2}},"changeDuration":19,"segmentStart":{"name":"Berlin Hbf","evaNumber":"8011160"},"segmentDestination":{"name":"Bad Oeynhausen","evaNumber":"8000732"},"stops":[{"station":{"evaNumber":"8011160","name":"Berlin Hbf","coordinates":{"lng":13.369629,"lat":52.524924},"ril100":"BLS"},"departure":{"platform":"13","scheduledTime":"2023-10-18T14:33:00.000Z","time":"2023-10-18T14:33:00.000Z","reihung":false}},{"station":{"evaNumber":"8010404","name":"Berlin-Spandau","coordinates":{"lng":13.200947,"lat":52.533787},"ril100":"BSPD"},"departure":{"platform":"4","scheduledTime":"2023-10-18T14:50:00.000Z","time":"2023-10-18T14:50:00.000Z","reihung":false},"auslastung":{"first":2,"second":2}},{"station":{"evaNumber":"8010334","name":"Stendal Hbf","coordinates":{"lng":11.854767,"lat":52.594671},"ril100":"LS"},"arrival":{"platform":"1","scheduledTime":"2023-10-18T15:31:00.000Z","time":"2023-10-18T15:31:00.000Z","reihung":false},"departure":{"platform":"1","scheduledTime":"2023-10-18T15:32:00.000Z","time":"2023-10-18T15:32:00.000Z","reihung":false},"auslastung":{"first":2,"second":2}},{"station":{"evaNumber":"8006552","name":"Wolfsburg Hbf","coordinates":{"lng":10.787757,"lat":52.429495},"ril100":"HWOB"},"arrival":{"platform":"1","scheduledTime":"2023-10-18T16:00:00.000Z","time":"2023-10-18T16:00:00.000Z","reihung":false},"departure":{"platform":"1","scheduledTime":"2023-10-18T16:01:00.000Z","time":"2023-10-18T16:01:00.000Z","reihung":false},"auslastung":{"first":2,"second":2}},{"station":{"evaNumber":"8000152","name":"Hannover Hbf","coordinates":{"lng":9.741763,"lat":52.377079},"ril100":"HH"},"arrival":{"platform":"12","scheduledTime":"2023-10-18T16:36:00.000Z","time":"2023-10-18T16:36:00.000Z","reihung":false},"departure":{"platform":"12","scheduledTime":"2023-10-18T16:40:00.000Z","time":"2023-10-18T16:40:00.000Z","reihung":false},"auslastung":{"first":3,"second":2}},{"station":{"evaNumber":"8000252","name":"Minden(Westf)","coordinates":{"lng":8.934442,"lat":52.290566},"ril100":"HM"},"arrival":{"platform":"11","scheduledTime":"2023-10-18T17:10:00.000Z","time":"2023-10-18T17:10:00.000Z","reihung":false},"departure":{"platform":"11","scheduledTime":"2023-10-18T17:11:00.000Z","time":"2023-10-18T17:11:00.000Z","reihung":false},"auslastung":{"first":3,"second":2}},{"station":{"evaNumber":"8000732","name":"Bad Oeynhausen","coordinates":{"lng":8.796439,"lat":52.205447},"ril100":"HOY"},"arrival":{"platform":"2","scheduledTime":"2023-10-18T17:20:00.000Z","time":"2023-10-18T17:20:00.000Z","reihung":false}}],"finalDestination":"Amsterdam Centraal","jid":"1|351109|0|80|18102023","auslastung":{"first":3,"second":2},"messages":[{"type":"A","code":"CK","prio":200,"icoX":3,"txtN":"Sicher & kontaktlos ohne Ticketkontrolle reisen mit Komfort Check-in"},{"type":"A","code":"FR","prio":260,"icoX":4,"txtN":"Fahrradmitnahme reservierungspflichtig"},{"type":"A","code":"FB","prio":260,"icoX":5,"txtN":"Fahrradmitnahme begrenzt möglich"},{"type":"A","code":"RE","prio":320,"icoX":3,"txtN":"Bitte reservieren"},{"type":"A","code":"BT","prio":450,"icoX":6,"txtN":"Bordbistro"}],"type":"JNY"},{"arrival":{"platform":"3","scheduledTime":"2023-10-18T20:23:00.000Z","time":"2023-10-18T20:23:00.000Z","reihung":false},"departure":{"platform":"2","scheduledTime":"2023-10-18T17:39:00.000Z","time":"2023-10-18T17:39:00.000Z","reihung":false},"duration":9840000,"train":{"name":"RE 6","line":"6","admin":"NXRE","number":"89736","type":"RE","operator":{"name":"National Express","icoX":8}},"changeDuration":13,"segmentStart":{"name":"Bad Oeynhausen","evaNumber":"8000732"},"segmentDestination":{"name":"Neuss Hbf","evaNumber":"8000274"},"stops":[{"station":{"evaNumber":"8000732","name":"Bad Oeynhausen","coordinates":{"lng":8.796439,"lat":52.205447},"ril100":"HOY"},"departure":{"platform":"2","scheduledTime":"2023-10-18T17:39:00.000Z","time":"2023-10-18T17:39:00.000Z","reihung":false}},{"station":{"evaNumber":"8000233","name":"Löhne(Westf)","coordinates":{"lng":8.713478,"lat":52.196611},"ril100":"HL"},"arrival":{"platform":"11","scheduledTime":"2023-10-18T17:43:00.000Z","time":"2023-10-18T17:43:00.000Z","reihung":false},"departure":{"platform":"11","scheduledTime":"2023-10-18T17:44:00.000Z","time":"2023-10-18T17:44:00.000Z","reihung":false}},{"station":{"evaNumber":"8000162","name":"Herford","coordinates":{"lng":8.663741,"lat":52.119654},"ril100":"EHFD"},"arrival":{"platform":"6","scheduledTime":"2023-10-18T17:49:00.000Z","time":"2023-10-18T17:49:00.000Z","reihung":false},"departure":{"platform":"6","scheduledTime":"2023-10-18T17:50:00.000Z","time":"2023-10-18T17:50:00.000Z","reihung":false}},{"station":{"evaNumber":"8000036","name":"Bielefeld Hbf","coordinates":{"lng":8.532777,"lat":52.029421},"ril100":"EBILP"},"arrival":{"platform":"4","scheduledTime":"2023-10-18T17:57:00.000Z","time":"2023-10-18T17:57:00.000Z","reihung":false},"departure":{"platform":"4","scheduledTime":"2023-10-18T17:59:00.000Z","time":"2023-10-18T17:59:00.000Z","reihung":false}},{"station":{"evaNumber":"8002461","name":"Gütersloh Hbf","coordinates":{"lng":8.385129,"lat":51.906862},"ril100":"EGLO"},"arrival":{"platform":"1","scheduledTime":"2023-10-18T18:07:00.000Z","time":"2023-10-18T18:07:00.000Z","reihung":false},"departure":{"platform":"1","scheduledTime":"2023-10-18T18:11:00.000Z","time":"2023-10-18T18:11:00.000Z","reihung":false}},{"station":{"evaNumber":"8000315","name":"Rheda-Wiedenbrück","coordinates":{"lng":8.286535,"lat":51.857151},"ril100":"ERDW"},"arrival":{"platform":"9","scheduledTime":"2023-10-18T18:16:00.000Z","time":"2023-10-18T18:16:00.000Z","reihung":false},"departure":{"platform":"9","scheduledTime":"2023-10-18T18:17:00.000Z","time":"2023-10-18T18:17:00.000Z","reihung":false}},{"station":{"evaNumber":"8004626","name":"Oelde","coordinates":{"lng":8.143013,"lat":51.829159},"ril100":"EOEL"},"arrival":{"platform":"5","scheduledTime":"2023-10-18T18:23:00.000Z","time":"2023-10-18T18:23:00.000Z","reihung":false},"departure":{"platform":"5","scheduledTime":"2023-10-18T18:23:00.000Z","time":"2023-10-18T18:23:00.000Z","reihung":false}},{"station":{"evaNumber":"8004251","name":"Beckum-Neubeckum","coordinates":{"lng":8.021335,"lat":51.801949},"ril100":"ENBM"},"arrival":{"platform":"7","scheduledTime":"2023-10-18T18:28:00.000Z","time":"2023-10-18T18:28:00.000Z","reihung":false},"departure":{"platform":"7","scheduledTime":"2023-10-18T18:29:00.000Z","time":"2023-10-18T18:29:00.000Z","reihung":false}},{"station":{"evaNumber":"8000441","name":"Ahlen(Westf)","coordinates":{"lng":7.895388,"lat":51.761111},"ril100":"EAHL"},"arrival":{"platform":"2","scheduledTime":"2023-10-18T18:35:00.000Z","time":"2023-10-18T18:35:00.000Z","reihung":false},"departure":{"platform":"2","scheduledTime":"2023-10-18T18:35:00.000Z","time":"2023-10-18T18:35:00.000Z","reihung":false}},{"station":{"evaNumber":"8002680","name":"Hamm-Heessen","coordinates":{"lng":7.83151,"lat":51.70918},"ril100":"EHE P"},"arrival":{"platform":"2","scheduledTime":"2023-10-18T18:40:00.000Z","time":"2023-10-18T18:40:00.000Z","reihung":false},"departure":{"platform":"2","scheduledTime":"2023-10-18T18:40:00.000Z","time":"2023-10-18T18:40:00.000Z","reihung":false}},{"station":{"evaNumber":"8000149","name":"Hamm(Westf)Hbf","coordinates":{"lng":7.80777,"lat":51.678131},"ril100":"EHM"},"arrival":{"platform":"11","scheduledTime":"2023-10-18T18:45:00.000Z","time":"2023-10-18T18:45:00.000Z","reihung":false},"departure":{"platform":"11","scheduledTime":"2023-10-18T18:47:00.000Z","time":"2023-10-18T18:47:00.000Z","reihung":false}},{"station":{"evaNumber":"8003168","name":"Kamen","coordinates":{"lng":7.66103,"lat":51.585165},"ril100":"EKAM"},"arrival":{"platform":"1","scheduledTime":"2023-10-18T18:55:00.000Z","time":"2023-10-18T18:55:00.000Z","reihung":false},"departure":{"platform":"1","scheduledTime":"2023-10-18T18:55:00.000Z","time":"2023-10-18T18:55:00.000Z","reihung":false}},{"station":{"evaNumber":"8000080","name":"Dortmund Hbf","coordinates":{"lng":7.459276,"lat":51.517872},"ril100":"EDO"},"arrival":{"platform":"18","scheduledTime":"2023-10-18T19:05:00.000Z","time":"2023-10-18T19:05:00.000Z","reihung":false},"departure":{"platform":"18","scheduledTime":"2023-10-18T19:07:00.000Z","time":"2023-10-18T19:07:00.000Z","reihung":false}},{"station":{"evaNumber":"8000041","name":"Bochum Hbf","coordinates":{"lng":7.223264,"lat":51.47849},"ril100":"EBO"},"arrival":{"platform":"4","scheduledTime":"2023-10-18T19:18:00.000Z","time":"2023-10-18T19:18:00.000Z","reihung":false},"departure":{"platform":"4","scheduledTime":"2023-10-18T19:19:00.000Z","time":"2023-10-18T19:19:00.000Z","reihung":false}},{"station":{"evaNumber":"8006226","name":"Wattenscheid","coordinates":{"lng":7.140114,"lat":51.473258},"ril100":"EWAT"},"arrival":{"platform":"1","scheduledTime":"2023-10-18T19:23:00.000Z","time":"2023-10-18T19:23:00.000Z","reihung":false},"departure":{"platform":"1","scheduledTime":"2023-10-18T19:24:00.000Z","time":"2023-10-18T19:24:00.000Z","reihung":false}},{"station":{"evaNumber":"8000098","name":"Essen Hbf","coordinates":{"lng":7.01386,"lat":51.451378},"ril100":"EE"},"arrival":{"platform":"2","scheduledTime":"2023-10-18T19:30:00.000Z","time":"2023-10-18T19:30:00.000Z","reihung":false},"departure":{"platform":"2","scheduledTime":"2023-10-18T19:32:00.000Z","time":"2023-10-18T19:32:00.000Z","reihung":false}},{"station":{"evaNumber":"8000259","name":"Mülheim(Ruhr)Hbf","coordinates":{"lng":6.886636,"lat":51.431314},"ril100":"EMLR"},"arrival":{"platform":"6","scheduledTime":"2023-10-18T19:37:00.000Z","time":"2023-10-18T19:37:00.000Z","reihung":false},"departure":{"platform":"6","scheduledTime":"2023-10-18T19:38:00.000Z","time":"2023-10-18T19:38:00.000Z","reihung":false}},{"station":{"evaNumber":"8000086","name":"Duisburg Hbf","coordinates":{"lng":6.77606,"lat":51.429615},"ril100":"EDG"},"arrival":{"platform":"5","scheduledTime":"2023-10-18T19:44:00.000Z","time":"2023-10-18T19:44:00.000Z","reihung":false},"departure":{"platform":"5","scheduledTime":"2023-10-18T19:48:00.000Z","time":"2023-10-18T19:48:00.000Z","reihung":false}},{"station":{"evaNumber":"8000082","name":"Düsseldorf Flughafen","coordinates":{"lng":6.786973,"lat":51.291568},"ril100":"KDFF"},"arrival":{"platform":"6","scheduledTime":"2023-10-18T19:56:00.000Z","time":"2023-10-18T19:56:00.000Z","reihung":false},"departure":{"platform":"6","scheduledTime":"2023-10-18T19:57:00.000Z","time":"2023-10-18T19:57:00.000Z","reihung":false}},{"station":{"evaNumber":"8000085","name":"Düsseldorf Hbf","coordinates":{"lng":6.794011,"lat":51.219708},"ril100":"KD"},"arrival":{"platform":"4","scheduledTime":"2023-10-18T20:05:00.000Z","time":"2023-10-18T20:05:00.000Z","reihung":false},"departure":{"platform":"4","scheduledTime":"2023-10-18T20:13:00.000Z","time":"2023-10-18T20:13:00.000Z","reihung":false}},{"station":{"evaNumber":"8001585","name":"Düsseldorf-Bilk","coordinates":{"lng":6.775475,"lat":51.207816},"ril100":"KDBH"},"arrival":{"platform":"4","scheduledTime":"2023-10-18T20:15:00.000Z","time":"2023-10-18T20:15:00.000Z","reihung":false},"departure":{"platform":"4","scheduledTime":"2023-10-18T20:16:00.000Z","time":"2023-10-18T20:16:00.000Z","reihung":false}},{"station":{"evaNumber":"8000274","name":"Neuss Hbf","coordinates":{"lng":6.684415,"lat":51.204373},"ril100":"KN"},"arrival":{"platform":"3","scheduledTime":"2023-10-18T20:23:00.000Z","time":"2023-10-18T20:23:00.000Z","reihung":false}}],"finalDestination":"Köln Hbf","jid":"1|305073|0|80|18102023","messages":[{"type":"A","code":"N ","prio":5,"icoX":3,"txtN":"\"RRX Rhein-Ruhr-Express\""},{"type":"A","code":"FB","prio":260,"icoX":5,"txtN":"Fahrradmitnahme begrenzt möglich"},{"type":"A","code":"RG","prio":560,"icoX":3,"txtN":"Behindertengerechtes Fahrzeug"},{"type":"A","code":"RO","prio":560,"icoX":11,"txtN":"Rollstuhlstellplatz"},{"type":"A","code":"LS","prio":605,"icoX":3,"txtN":"Laptop-Steckdosen"},{"type":"A","code":"KL","prio":610,"icoX":3,"txtN":"Klimaanlage"},{"type":"A","code":"WV","prio":710,"icoX":3,"txtN":"WLAN verfügbar"}],"type":"JNY"},{"arrival":{"platform":"7","scheduledTime":"2023-10-18T21:37:00.000Z","time":"2023-10-18T21:37:00.000Z","reihung":false},"departure":{"platform":"8","scheduledTime":"2023-10-18T20:36:00.000Z","time":"2023-10-18T20:36:00.000Z","reihung":false},"duration":3660000,"train":{"name":"RE 4","line":"4","admin":"NXRE","number":"26436","type":"RE","operator":{"name":"National Express","icoX":8}},"segmentStart":{"name":"Neuss Hbf","evaNumber":"8000274"},"segmentDestination":{"name":"Aachen Hbf","evaNumber":"8000001"},"stops":[{"station":{"evaNumber":"8000274","name":"Neuss Hbf","coordinates":{"lng":6.684415,"lat":51.204373},"ril100":"KN"},"departure":{"platform":"8","scheduledTime":"2023-10-18T20:36:00.000Z","time":"2023-10-18T20:36:00.000Z","reihung":false}},{"station":{"evaNumber":"8000253","name":"Mönchengladbach Hbf","coordinates":{"lng":6.446183,"lat":51.196507},"ril100":"KM"},"arrival":{"platform":"5","scheduledTime":"2023-10-18T20:48:00.000Z","time":"2023-10-18T20:48:00.000Z","reihung":false},"departure":{"platform":"5","scheduledTime":"2023-10-18T20:50:00.000Z","time":"2023-10-18T20:50:00.000Z","reihung":false}},{"station":{"evaNumber":"8000318","name":"Rheydt Hbf","coordinates":{"lng":6.439746,"lat":51.163049},"ril100":"KRY"},"arrival":{"platform":"3","scheduledTime":"2023-10-18T20:53:00.000Z","time":"2023-10-18T20:53:00.000Z","reihung":false},"departure":{"platform":"3","scheduledTime":"2023-10-18T20:54:00.000Z","time":"2023-10-18T20:54:00.000Z","reihung":false}},{"station":{"evaNumber":"8001839","name":"Erkelenz","coordinates":{"lng":6.321457,"lat":51.076474},"ril100":"KERZ"},"arrival":{"platform":"1","scheduledTime":"2023-10-18T21:00:00.000Z","time":"2023-10-18T21:00:00.000Z","reihung":false},"departure":{"platform":"1","scheduledTime":"2023-10-18T21:01:00.000Z","time":"2023-10-18T21:01:00.000Z","reihung":false}},{"station":{"evaNumber":"8000677","name":"Hückelhoven-Baal","coordinates":{"lng":6.274147,"lat":51.033452},"ril100":"KBA"},"arrival":{"platform":"2","scheduledTime":"2023-10-18T21:04:00.000Z","time":"2023-10-18T21:04:00.000Z","reihung":false},"departure":{"platform":"2","scheduledTime":"2023-10-18T21:05:00.000Z","time":"2023-10-18T21:05:00.000Z","reihung":false}},{"station":{"evaNumber":"8003697","name":"Lindern","coordinates":{"lng":6.20875,"lat":50.997162},"ril100":"KLD"},"arrival":{"platform":"2","scheduledTime":"2023-10-18T21:08:00.000Z","time":"2023-10-18T21:08:00.000Z","reihung":false},"departure":{"platform":"2","scheduledTime":"2023-10-18T21:09:00.000Z","time":"2023-10-18T21:09:00.000Z","reihung":false}},{"station":{"evaNumber":"8002206","name":"Geilenkirchen","coordinates":{"lng":6.12445,"lat":50.961044},"ril100":"KGEK"},"arrival":{"platform":"1","scheduledTime":"2023-10-18T21:14:00.000Z","time":"2023-10-18T21:14:00.000Z","reihung":false},"departure":{"platform":"1","scheduledTime":"2023-10-18T21:14:00.000Z","time":"2023-10-18T21:14:00.000Z","reihung":false}},{"station":{"evaNumber":"8005935","name":"Übach-Palenberg","coordinates":{"lng":6.097257,"lat":50.924314},"ril100":"KUBP"},"arrival":{"platform":"1","scheduledTime":"2023-10-18T21:17:00.000Z","time":"2023-10-18T21:17:00.000Z","reihung":false},"departure":{"platform":"1","scheduledTime":"2023-10-18T21:18:00.000Z","time":"2023-10-18T21:18:00.000Z","reihung":false}},{"station":{"evaNumber":"8002806","name":"Herzogenrath","coordinates":{"lng":6.094399,"lat":50.870945},"ril100":"KHEZ"},"arrival":{"platform":"2","scheduledTime":"2023-10-18T21:23:00.000Z","time":"2023-10-18T21:23:00.000Z","reihung":false},"departure":{"platform":"2","scheduledTime":"2023-10-18T21:23:00.000Z","time":"2023-10-18T21:23:00.000Z","reihung":false}},{"station":{"evaNumber":"8000404","name":"Aachen West","coordinates":{"lng":6.070874,"lat":50.78037},"ril100":"KAW"},"arrival":{"platform":"1","scheduledTime":"2023-10-18T21:30:00.000Z","time":"2023-10-18T21:30:00.000Z","reihung":false},"departure":{"platform":"1","scheduledTime":"2023-10-18T21:31:00.000Z","time":"2023-10-18T21:31:00.000Z","reihung":false}},{"station":{"evaNumber":"8070704","name":"Aachen Schanz","coordinates":{"lng":6.073715,"lat":50.769915},"ril100":"KASZ"},"arrival":{"platform":"1","scheduledTime":"2023-10-18T21:33:00.000Z","time":"2023-10-18T21:33:00.000Z","reihung":false},"departure":{"platform":"1","scheduledTime":"2023-10-18T21:34:00.000Z","time":"2023-10-18T21:34:00.000Z","reihung":false}},{"station":{"evaNumber":"8000001","name":"Aachen Hbf","coordinates":{"lng":6.09119,"lat":50.767641},"ril100":"KA"},"arrival":{"platform":"7","scheduledTime":"2023-10-18T21:37:00.000Z","time":"2023-10-18T21:37:00.000Z","reihung":false}}],"finalDestination":"Aachen Hbf","jid":"1|291254|0|80|18102023","messages":[{"type":"A","code":"FB","prio":260,"icoX":5,"txtN":"Fahrradmitnahme begrenzt möglich"},{"type":"A","code":"RG","prio":560,"icoX":3,"txtN":"Behindertengerechtes Fahrzeug"},{"type":"A","code":"RO","prio":560,"icoX":11,"txtN":"Rollstuhlstellplatz"},{"type":"A","code":"LS","prio":605,"icoX":3,"txtN":"Laptop-Steckdosen"},{"type":"A","code":"KL","prio":610,"icoX":3,"txtN":"Klimaanlage"},{"type":"A","code":"WV","prio":710,"icoX":3,"txtN":"WLAN verfügbar"},{"type":"M","code":"","icoX":12,"txtS":"RE 26436: Erkelenz: Information. (Quelle: zuginfo.nrw)","txtN":"Aufgrund von Umbaumaßnahmen am Aufzugschacht in Erkelenz ist der Aufzug von/zu Gleis 1 bis voraussichtlich März 2024 nicht nutzbar.","sIdx":2}],"type":"JNY"}],"segmentTypes":["IC","RE","RE"]},{"checksum":"fa05b1a0_3","cid":"C-6","date":"2023-10-17T22:00:00.000Z","duration":21000000,"changes":1,"isRideable":true,"arrival":{"platform":"7","scheduledTime":"2023-10-18T20:36:00.000Z","time":"2023-10-18T20:36:00.000Z","reihung":false},"departure":{"platform":"14","scheduledTime":"2023-10-18T14:46:00.000Z","time":"2023-10-18T14:46:00.000Z","reihung":false},"segments":[{"arrival":{"platform":"15","scheduledTime":"2023-10-18T19:02:00.000Z","time":"2023-10-18T19:02:00.000Z","reihung":false},"departure":{"platform":"14","scheduledTime":"2023-10-18T14:46:00.000Z","time":"2023-10-18T14:46:00.000Z","reihung":false},"duration":15360000,"train":{"name":"ICE 544","line":"10","admin":"80","number":"544","type":"ICE","operator":{"name":"DB Fernverkehr AG","icoX":2}},"changeDuration":20,"segmentStart":{"name":"Berlin Hbf","evaNumber":"8011160"},"segmentDestination":{"name":"Düsseldorf Hbf","evaNumber":"8000085"},"stops":[{"station":{"evaNumber":"8011160","name":"Berlin Hbf","coordinates":{"lng":13.369629,"lat":52.524924},"ril100":"BLS"},"departure":{"platform":"14","scheduledTime":"2023-10-18T14:46:00.000Z","time":"2023-10-18T14:46:00.000Z","reihung":false},"messages":[{"type":"A","code":"text.journeystop.product.or.direction.changes.stop.message","icoX":3,"txtN":"Verkehrt ab hier als ICE 544 in Richtung Düsseldorf Hbf"}]},{"station":{"evaNumber":"8010404","name":"Berlin-Spandau","coordinates":{"lng":13.200947,"lat":52.533787},"ril100":"BSPD"},"departure":{"platform":"4","scheduledTime":"2023-10-18T15:01:00.000Z","time":"2023-10-18T15:01:00.000Z","reihung":false},"auslastung":{"first":3,"second":2}},{"station":{"evaNumber":"8000152","name":"Hannover Hbf","coordinates":{"lng":9.741763,"lat":52.377079},"ril100":"HH"},"arrival":{"platform":"12","scheduledTime":"2023-10-18T16:28:00.000Z","time":"2023-10-18T16:28:00.000Z","reihung":false},"departure":{"platform":"12","scheduledTime":"2023-10-18T16:31:00.000Z","time":"2023-10-18T16:31:00.000Z","reihung":false},"auslastung":{"first":2,"second":2}},{"station":{"evaNumber":"8000036","name":"Bielefeld Hbf","coordinates":{"lng":8.532777,"lat":52.029421},"ril100":"EBILP"},"arrival":{"platform":"4","scheduledTime":"2023-10-18T17:20:00.000Z","time":"2023-10-18T17:20:00.000Z","reihung":false},"departure":{"platform":"4","scheduledTime":"2023-10-18T17:22:00.000Z","time":"2023-10-18T17:22:00.000Z","reihung":false},"auslastung":{"first":2,"second":1}},{"station":{"evaNumber":"8000149","name":"Hamm(Westf)Hbf","coordinates":{"lng":7.80777,"lat":51.678131},"ril100":"EHM"},"arrival":{"platform":"10","scheduledTime":"2023-10-18T17:48:00.000Z","time":"2023-10-18T17:48:00.000Z","reihung":false},"departure":{"platform":"10","scheduledTime":"2023-10-18T17:51:00.000Z","time":"2023-10-18T17:51:00.000Z","reihung":false},"auslastung":{"first":2,"second":1}},{"station":{"evaNumber":"8000080","name":"Dortmund Hbf","coordinates":{"lng":7.459276,"lat":51.517872},"ril100":"EDO"},"arrival":{"platform":"16","scheduledTime":"2023-10-18T18:09:00.000Z","time":"2023-10-18T18:09:00.000Z","reihung":false},"departure":{"platform":"16","scheduledTime":"2023-10-18T18:12:00.000Z","time":"2023-10-18T18:12:00.000Z","reihung":false},"auslastung":{"first":1,"second":1},"messages":[{"type":"A","code":"text.journeystop.product.or.direction.changes.stop.message","icoX":3,"txtN":"Verkehrt ab hier als ICE 544 in Richtung Köln Hbf"}]},{"station":{"evaNumber":"8000041","name":"Bochum Hbf","coordinates":{"lng":7.223264,"lat":51.47849},"ril100":"EBO"},"arrival":{"platform":"3","scheduledTime":"2023-10-18T18:23:00.000Z","time":"2023-10-18T18:23:00.000Z","reihung":false},"departure":{"platform":"3","scheduledTime":"2023-10-18T18:24:00.000Z","time":"2023-10-18T18:24:00.000Z","reihung":false},"auslastung":{"first":1,"second":1}},{"station":{"evaNumber":"8000098","name":"Essen Hbf","coordinates":{"lng":7.01386,"lat":51.451378},"ril100":"EE"},"arrival":{"platform":"1","scheduledTime":"2023-10-18T18:35:00.000Z","time":"2023-10-18T18:35:00.000Z","reihung":false},"departure":{"platform":"1","scheduledTime":"2023-10-18T18:37:00.000Z","time":"2023-10-18T18:37:00.000Z","reihung":false},"auslastung":{"first":1,"second":1}},{"station":{"evaNumber":"8000086","name":"Duisburg Hbf","coordinates":{"lng":6.77606,"lat":51.429615},"ril100":"EDG"},"arrival":{"platform":"3","scheduledTime":"2023-10-18T18:48:00.000Z","time":"2023-10-18T18:48:00.000Z","reihung":false},"departure":{"platform":"3","scheduledTime":"2023-10-18T18:50:00.000Z","time":"2023-10-18T18:50:00.000Z","reihung":false},"auslastung":{"first":1,"second":1}},{"station":{"evaNumber":"8000085","name":"Düsseldorf Hbf","coordinates":{"lng":6.794011,"lat":51.219708},"ril100":"KD"},"arrival":{"platform":"15","scheduledTime":"2023-10-18T19:02:00.000Z","time":"2023-10-18T19:02:00.000Z","reihung":false}}],"finalDestination":"Düsseldorf Hbf","jid":"1|205991|0|80|18102023","auslastung":{"first":3,"second":2},"messages":[{"type":"A","code":"CK","prio":200,"icoX":3,"txtN":"Sicher & kontaktlos ohne Ticketkontrolle reisen mit Komfort Check-in"},{"type":"A","code":"BR","prio":450,"icoX":13,"txtN":"Bordrestaurant"},{"type":"A","code":"text.journeystop.product.or.direction.changes.journey.message","icoX":3,"txtN":"Verkehrt ab Dortmund Hbf als ICE 544 in Richtung Köln Hbf"}],"type":"JNY"},{"arrival":{"platform":"7","scheduledTime":"2023-10-18T20:36:00.000Z","time":"2023-10-18T20:36:00.000Z","reihung":false},"departure":{"platform":"6","scheduledTime":"2023-10-18T19:22:00.000Z","time":"2023-10-18T19:22:00.000Z","reihung":false},"duration":4440000,"train":{"name":"RE 4","line":"4","admin":"NXRE","number":"26434","type":"RE","operator":{"name":"National Express","icoX":8}},"segmentStart":{"name":"Düsseldorf Hbf","evaNumber":"8000085"},"segmentDestination":{"name":"Aachen Hbf","evaNumber":"8000001"},"stops":[{"station":{"evaNumber":"8000085","name":"Düsseldorf Hbf","coordinates":{"lng":6.794011,"lat":51.219708},"ril100":"KD"},"departure":{"platform":"6","scheduledTime":"2023-10-18T19:22:00.000Z","time":"2023-10-18T19:22:00.000Z","reihung":false}},{"station":{"evaNumber":"8001585","name":"Düsseldorf-Bilk","coordinates":{"lng":6.775475,"lat":51.207816},"ril100":"KDBH"},"arrival":{"platform":"4","scheduledTime":"2023-10-18T19:25:00.000Z","time":"2023-10-18T19:25:00.000Z","reihung":false},"departure":{"platform":"4","scheduledTime":"2023-10-18T19:26:00.000Z","time":"2023-10-18T19:26:00.000Z","reihung":false}},{"station":{"evaNumber":"8000274","name":"Neuss Hbf","coordinates":{"lng":6.684415,"lat":51.204373},"ril100":"KN"},"arrival":{"platform":"8","scheduledTime":"2023-10-18T19:33:00.000Z","time":"2023-10-18T19:33:00.000Z","reihung":false},"departure":{"platform":"8","scheduledTime":"2023-10-18T19:36:00.000Z","time":"2023-10-18T19:36:00.000Z","reihung":false}},{"station":{"evaNumber":"8000253","name":"Mönchengladbach Hbf","coordinates":{"lng":6.446183,"lat":51.196507},"ril100":"KM"},"arrival":{"platform":"5","scheduledTime":"2023-10-18T19:48:00.000Z","time":"2023-10-18T19:48:00.000Z","reihung":false},"departure":{"platform":"5","scheduledTime":"2023-10-18T19:50:00.000Z","time":"2023-10-18T19:50:00.000Z","reihung":false}},{"station":{"evaNumber":"8000318","name":"Rheydt Hbf","coordinates":{"lng":6.439746,"lat":51.163049},"ril100":"KRY"},"arrival":{"platform":"3","scheduledTime":"2023-10-18T19:53:00.000Z","time":"2023-10-18T19:53:00.000Z","reihung":false},"departure":{"platform":"3","scheduledTime":"2023-10-18T19:54:00.000Z","time":"2023-10-18T19:54:00.000Z","reihung":false}},{"station":{"evaNumber":"8001839","name":"Erkelenz","coordinates":{"lng":6.321457,"lat":51.076474},"ril100":"KERZ"},"arrival":{"platform":"1","scheduledTime":"2023-10-18T20:00:00.000Z","time":"2023-10-18T20:00:00.000Z","reihung":false},"departure":{"platform":"1","scheduledTime":"2023-10-18T20:01:00.000Z","time":"2023-10-18T20:01:00.000Z","reihung":false}},{"station":{"evaNumber":"8000677","name":"Hückelhoven-Baal","coordinates":{"lng":6.274147,"lat":51.033452},"ril100":"KBA"},"arrival":{"platform":"2","scheduledTime":"2023-10-18T20:04:00.000Z","time":"2023-10-18T20:04:00.000Z","reihung":false},"departure":{"platform":"2","scheduledTime":"2023-10-18T20:05:00.000Z","time":"2023-10-18T20:05:00.000Z","reihung":false}},{"station":{"evaNumber":"8003697","name":"Lindern","coordinates":{"lng":6.20875,"lat":50.997162},"ril100":"KLD"},"arrival":{"platform":"2","scheduledTime":"2023-10-18T20:08:00.000Z","time":"2023-10-18T20:08:00.000Z","reihung":false},"departure":{"platform":"2","scheduledTime":"2023-10-18T20:09:00.000Z","time":"2023-10-18T20:09:00.000Z","reihung":false}},{"station":{"evaNumber":"8002206","name":"Geilenkirchen","coordinates":{"lng":6.12445,"lat":50.961044},"ril100":"KGEK"},"arrival":{"platform":"1","scheduledTime":"2023-10-18T20:14:00.000Z","time":"2023-10-18T20:14:00.000Z","reihung":false},"departure":{"platform":"1","scheduledTime":"2023-10-18T20:14:00.000Z","time":"2023-10-18T20:14:00.000Z","reihung":false}},{"station":{"evaNumber":"8005935","name":"Übach-Palenberg","coordinates":{"lng":6.097257,"lat":50.924314},"ril100":"KUBP"},"arrival":{"platform":"1","scheduledTime":"2023-10-18T20:17:00.000Z","time":"2023-10-18T20:17:00.000Z","reihung":false},"departure":{"platform":"1","scheduledTime":"2023-10-18T20:18:00.000Z","time":"2023-10-18T20:18:00.000Z","reihung":false}},{"station":{"evaNumber":"8002806","name":"Herzogenrath","coordinates":{"lng":6.094399,"lat":50.870945},"ril100":"KHEZ"},"arrival":{"platform":"2","scheduledTime":"2023-10-18T20:22:00.000Z","time":"2023-10-18T20:22:00.000Z","reihung":false},"departure":{"platform":"2","scheduledTime":"2023-10-18T20:23:00.000Z","time":"2023-10-18T20:23:00.000Z","reihung":false}},{"station":{"evaNumber":"8000404","name":"Aachen West","coordinates":{"lng":6.070874,"lat":50.78037},"ril100":"KAW"},"arrival":{"platform":"1","scheduledTime":"2023-10-18T20:30:00.000Z","time":"2023-10-18T20:30:00.000Z","reihung":false},"departure":{"platform":"1","scheduledTime":"2023-10-18T20:31:00.000Z","time":"2023-10-18T20:31:00.000Z","reihung":false}},{"station":{"evaNumber":"8070704","name":"Aachen Schanz","coordinates":{"lng":6.073715,"lat":50.769915},"ril100":"KASZ"},"arrival":{"platform":"1","scheduledTime":"2023-10-18T20:33:00.000Z","time":"2023-10-18T20:33:00.000Z","reihung":false},"departure":{"platform":"1","scheduledTime":"2023-10-18T20:34:00.000Z","time":"2023-10-18T20:34:00.000Z","reihung":false}},{"station":{"evaNumber":"8000001","name":"Aachen Hbf","coordinates":{"lng":6.09119,"lat":50.767641},"ril100":"KA"},"arrival":{"platform":"7","scheduledTime":"2023-10-18T20:36:00.000Z","time":"2023-10-18T20:36:00.000Z","reihung":false}}],"finalDestination":"Aachen Hbf","jid":"1|291233|0|80|18102023","messages":[{"type":"A","code":"FB","prio":260,"icoX":5,"txtN":"Fahrradmitnahme begrenzt möglich"},{"type":"A","code":"RG","prio":560,"icoX":3,"txtN":"Behindertengerechtes Fahrzeug"},{"type":"A","code":"RO","prio":560,"icoX":11,"txtN":"Rollstuhlstellplatz"},{"type":"A","code":"LS","prio":605,"icoX":3,"txtN":"Laptop-Steckdosen"},{"type":"A","code":"KL","prio":610,"icoX":3,"txtN":"Klimaanlage"},{"type":"A","code":"WV","prio":710,"icoX":3,"txtN":"WLAN verfügbar"},{"type":"M","code":"","icoX":12,"txtS":"RE 26434: Erkelenz: Information. (Quelle: zuginfo.nrw)","txtN":"Aufgrund von Umbaumaßnahmen am Aufzugschacht in Erkelenz ist der Aufzug von/zu Gleis 1 bis voraussichtlich März 2024 nicht nutzbar.","sIdx":1}],"type":"JNY"}],"segmentTypes":["ICE","RE"]}]}